{"date":"2013-04-01","average_temperature":"28.059","city":"Abakaliki","latitude":"5.63N","longitude":"8.07E"}
{"date":"2013-02-01","average_temperature":"2.883","city":"Abbotsford","latitude":"49.03N","longitude":"122.45W"}
{"date":"2010-10-01","average_temperature":"26.745","city":"Accra","latitude":"5.63N","longitude":"0.00W"}
{"date":"2011-02-01","average_temperature":"27.831","city":"Accra","latitude":"5.63N","longitude":"0.00W"}
{"date":"2013-05-01","average_temperature":"15.911","city":"Adelaide","latitude":"34.56S","longitude":"138.16E"}
{"date":"2011-06-01","average_temperature":"31.215999999999998","city":"Adilabad","latitude":"20.09N","longitude":"78.48E"}
{"date":"2010-07-01","average_temperature":"26.701","city":"Adiwerna","latitude":"7.23S","longitude":"109.46E"}
{"date":"2010-12-01","average_temperature":"5.751","city":"Afyonkarahisar","latitude":"39.38N","longitude":"31.21E"}
{"date":"2011-04-01","average_temperature":"9.24","city":"Afyonkarahisar","latitude":"39.38N","longitude":"31.21E"}
{"date":"2010-02-01","average_temperature":"21.795","city":"Agartala","latitude":"23.31N","longitude":"91.75E"}
{"date":"2012-09-01","average_temperature":"31.023000000000003","city":"Ahmadpur East","latitude":"29.74N","longitude":"72.00E"}
{"date":"2011-11-01","average_temperature":"13.82","city":"Akashi","latitude":"34.56N","longitude":"134.27E"}
{"date":"2011-03-01","average_temperature":"29.572000000000006","city":"Akure","latitude":"7.23N","longitude":"5.68E"}
{"date":"2010-04-01","average_temperature":"12.203","city":"Albacete","latitude":"39.38N","longitude":"2.08W"}
{"date":"2012-05-01","average_temperature":"22.903000000000002","city":"Alexandria","latitude":"31.35N","longitude":"30.16E"}
{"date":"2012-04-01","average_temperature":"12.158","city":"Alexandria","latitude":"39.38N","longitude":"76.99W"}
{"date":"2013-05-01","average_temperature":"34.746","city":"Aligarh","latitude":"28.13N","longitude":"77.27E"}
{"date":"2011-08-01","average_temperature":"22.13","city":"Allentown","latitude":"40.99N","longitude":"74.56W"}
{"date":"2010-01-01","average_temperature":"-20.99","city":"Altay","latitude":"47.42N","longitude":"88.82E"}
{"date":"2010-08-01","average_temperature":"30.081","city":"Ambattur","latitude":"13.66N","longitude":"80.09E"}
{"date":"2012-06-01","average_temperature":"25.801","city":"Ambon","latitude":"4.02S","longitude":"127.77E"}
{"date":"2011-10-01","average_temperature":"27.384","city":"Ambur","latitude":"12.05N","longitude":"78.90E"}
{"date":"2013-05-01","average_temperature":"11.464","city":"Amersfoort","latitude":"52.24N","longitude":"5.26E"}
{"date":"2010-03-01","average_temperature":"28.899","city":"Amravati","latitude":"21.70N","longitude":"77.02E"}
{"date":"2012-03-01","average_temperature":"26.81","city":"Amravati","latitude":"21.70N","longitude":"77.02E"}
{"date":"2013-02-01","average_temperature":"15.640999999999998","city":"Amritsar","latitude":"31.35N","longitude":"75.39E"}
{"date":"2011-12-01","average_temperature":"9.63","city":"Ancona","latitude":"44.20N","longitude":"13.42E"}
{"date":"2010-07-01","average_temperature":"24.520000000000003","city":"Ankara","latitude":"39.38N","longitude":"33.29E"}
{"date":"2013-02-01","average_temperature":"0.252","city":"Anqiu","latitude":"36.17N","longitude":"119.34E"}
{"date":"2013-07-01","average_temperature":"23.302","city":"Anshun","latitude":"26.52N","longitude":"105.67E"}
{"date":"2010-01-01","average_temperature":"22.209","city":"Antananarivo","latitude":"18.48S","longitude":"47.32E"}
{"date":"2012-11-01","average_temperature":"25.561999999999998","city":"Apopa","latitude":"13.66N","longitude":"90.00W"}
{"date":"2010-09-01","average_temperature":"22.625","city":"Apucarana","latitude":"23.31S","longitude":"51.55W"}
{"date":"2010-01-01","average_temperature":"-18.871","city":"Aqtöbe","latitude":"50.63N","longitude":"57.04E"}
{"date":"2013-08-01","average_temperature":"24.413","city":"Aracaju","latitude":"10.45S","longitude":"36.82W"}
{"date":"2011-10-01","average_temperature":"18.262999999999998","city":"Araucária","latitude":"24.92S","longitude":"49.66W"}
{"date":"2012-01-01","average_temperature":"25.043000000000003","city":"Arjawinangun","latitude":"7.23S","longitude":"107.84E"}
{"date":"2012-09-01","average_temperature":"19.506","city":"Armavir","latitude":"45.81N","longitude":"40.38E"}
{"date":"2013-04-01","average_temperature":"17.942999999999994","city":"Aryanah","latitude":"36.17N","longitude":"9.94E"}
{"date":"2013-08-01","average_temperature":"25.691999999999997","city":"Asfi","latitude":"32.95N","longitude":"8.62W"}
{"date":"2011-12-01","average_temperature":"14.749","city":"Ashqelon","latitude":"31.35N","longitude":"33.93E"}
{"date":"2011-10-01","average_temperature":"24.691999999999997","city":"Asunción","latitude":"24.92S","longitude":"58.52W"}
{"date":"2012-06-01","average_temperature":"34.249","city":"Avadi","latitude":"13.66N","longitude":"80.09E"}
{"date":"2011-09-01","average_temperature":"11.536","city":"Ayacucho","latitude":"13.66S","longitude":"73.49W"}
{"date":"2012-01-01","average_temperature":"11.252","city":"Ayacucho","latitude":"13.66S","longitude":"73.49W"}
{"date":"2012-04-01","average_temperature":"28.200000000000006","city":"Bénin","latitude":"7.23N","longitude":"5.68E"}
{"date":"2010-01-01","average_temperature":"26.521","city":"Bacolod","latitude":"10.45N","longitude":"123.55E"}
{"date":"2010-04-01","average_temperature":"14.702","city":"Badalona","latitude":"40.99N","longitude":"2.13E"}
{"date":"2013-08-01","average_temperature":"35.463","city":"Baghdad","latitude":"32.95N","longitude":"45.00E"}
{"date":"2012-08-01","average_temperature":"25.289","city":"Baguio","latitude":"16.87N","longitude":"120.56E"}
{"date":"2011-11-01","average_temperature":"-0.3440000000000001","city":"Balashikha","latitude":"55.45N","longitude":"36.85E"}
{"date":"2010-04-01","average_temperature":"28.020000000000003","city":"Bandar Penggaram","latitude":"2.41N","longitude":"103.66E"}
{"date":"2013-03-01","average_temperature":"29.94","city":"Bangkok","latitude":"13.66N","longitude":"99.91E"}
{"date":"2010-02-01","average_temperature":"0.883","city":"Banja Luka","latitude":"44.20N","longitude":"17.89E"}
{"date":"2011-04-01","average_temperature":"27.154","city":"Banjarmasin","latitude":"4.02S","longitude":"114.91E"}
{"date":"2011-09-01","average_temperature":"27.694000000000003","city":"Bankura","latitude":"23.31N","longitude":"86.50E"}
{"date":"2011-02-01","average_temperature":"22.566","city":"Bansbaria","latitude":"23.31N","longitude":"88.25E"}
{"date":"2012-02-01","average_temperature":"-0.408","city":"Baoji","latitude":"34.56N","longitude":"107.03E"}
{"date":"2013-03-01","average_temperature":"27.701999999999998","city":"Barakpur","latitude":"23.31N","longitude":"88.25E"}
{"date":"2013-08-01","average_temperature":"24.885","city":"Barcelona","latitude":"40.99N","longitude":"2.13E"}
{"date":"2010-04-01","average_temperature":"32.318000000000005","city":"Barddhaman","latitude":"23.31N","longitude":"88.25E"}
{"date":"2010-06-01","average_temperature":"34.247","city":"Bareli","latitude":"28.13N","longitude":"79.09E"}
{"date":"2010-12-01","average_temperature":"23.598000000000006","city":"Barinas","latitude":"8.84N","longitude":"70.54W"}
{"date":"2012-12-01","average_temperature":"14.807","city":"Barnala","latitude":"29.74N","longitude":"75.69E"}
{"date":"2013-05-01","average_temperature":"25.984","city":"Barquisimeto","latitude":"10.45N","longitude":"69.55W"}
{"date":"2011-05-01","average_temperature":"20.525","city":"Barretos","latitude":"20.09S","longitude":"47.77W"}
{"date":"2010-09-01","average_temperature":"14.892","city":"Barrie","latitude":"44.20N","longitude":"80.50W"}
{"date":"2010-11-01","average_temperature":"3.355","city":"Basel","latitude":"47.42N","longitude":"8.29E"}
{"date":"2010-04-01","average_temperature":"14.845","city":"Batman","latitude":"37.78N","longitude":"40.68E"}
{"date":"2012-08-01","average_temperature":"30.888","city":"Batman","latitude":"37.78N","longitude":"40.68E"}
{"date":"2011-01-01","average_temperature":"15.970999999999998","city":"Beawar","latitude":"26.52N","longitude":"73.43E"}
{"date":"2013-09-01","city":"Beawar","latitude":"26.52N","longitude":"73.43E"}
{"date":"2010-03-01","average_temperature":"26.77","city":"Beira","latitude":"20.09S","longitude":"34.12E"}
{"date":"2010-07-01","average_temperature":"27.238000000000003","city":"Bellary","latitude":"15.27N","longitude":"77.50E"}
{"date":"2011-05-01","average_temperature":"8.047","city":"Bellevue","latitude":"47.42N","longitude":"121.97W"}
{"date":"2012-01-01","average_temperature":"2.036","city":"Bengbu","latitude":"32.95N","longitude":"117.77E"}
{"date":"2011-04-01","average_temperature":"26.315","city":"Benguela","latitude":"12.05S","longitude":"13.15E"}
{"date":"2010-11-01","average_temperature":"5.224","city":"Bergamo","latitude":"45.81N","longitude":"10.38E"}
{"date":"2011-04-01","average_temperature":"26.623","city":"Bhairab Bazar","latitude":"24.92N","longitude":"90.44E"}
{"date":"2013-09-01","city":"Bhatpara","latitude":"23.31N","longitude":"88.25E"}
{"date":"2012-02-01","average_temperature":"30.479","city":"Bida","latitude":"8.84N","longitude":"5.68E"}
{"date":"2010-03-01","average_temperature":"26.268","city":"Birigui","latitude":"21.70S","longitude":"51.06W"}
{"date":"2012-12-01","average_temperature":"4.785","city":"Birmingham","latitude":"52.24N","longitude":"2.63W"}
{"date":"2013-01-01","average_temperature":"-26.27","city":"Blagoveshchensk","latitude":"50.63N","longitude":"128.03E"}
{"date":"2011-12-01","average_temperature":"26.023000000000003","city":"Blitar","latitude":"8.84S","longitude":"112.70E"}
{"date":"2011-01-01","average_temperature":"27.523000000000003","city":"Boa Vista","latitude":"2.41N","longitude":"60.27W"}
{"date":"2013-01-01","average_temperature":"1.06","city":"Bochum","latitude":"52.24N","longitude":"7.88E"}
{"date":"2012-05-01","average_temperature":"27.262","city":"Bogor","latitude":"7.23S","longitude":"106.22E"}
{"date":"2011-08-01","average_temperature":"26.033","city":"Bojnurd","latitude":"37.78N","longitude":"56.95E"}
{"date":"2011-01-01","average_temperature":"25.464000000000002","city":"Boma","latitude":"5.63S","longitude":"12.91E"}
{"date":"2012-09-01","average_temperature":"27.491","city":"Bombay","latitude":"18.48N","longitude":"72.68E"}
{"date":"2010-07-01","average_temperature":"20.56","city":"Bonn","latitude":"50.63N","longitude":"6.34E"}
{"date":"2011-06-01","average_temperature":"22.829","city":"Borujerd","latitude":"34.56N","longitude":"48.65E"}
{"date":"2012-12-01","average_temperature":"23.377","city":"Botad","latitude":"21.70N","longitude":"71.83E"}
{"date":"2011-09-01","average_temperature":"14.505","city":"Bradford","latitude":"53.84N","longitude":"1.36W"}
{"date":"2012-06-01","average_temperature":"12.655999999999999","city":"Bradford","latitude":"53.84N","longitude":"1.36W"}
{"date":"2012-04-01","average_temperature":"11.92","city":"Bratislava","latitude":"47.42N","longitude":"17.76E"}
{"date":"2013-09-01","city":"Bratsk","latitude":"55.45N","longitude":"102.05E"}
{"date":"2010-08-01","average_temperature":"17.43","city":"Brussels","latitude":"50.63N","longitude":"3.80E"}
{"date":"2013-08-01","average_temperature":"25.947","city":"Bugama","latitude":"4.02N","longitude":"7.23E"}
{"date":"2010-01-01","average_temperature":"15.274000000000001","city":"Buraydah","latitude":"26.52N","longitude":"44.78E"}
{"date":"2013-05-01","average_temperature":"21.778","city":"Butembo","latitude":"0.80N","longitude":"29.73E"}
{"date":"2010-05-01","average_temperature":"28.075","city":"Butuan","latitude":"8.84N","longitude":"125.68E"}
{"date":"2013-06-01","average_temperature":"17.879","city":"Bytom","latitude":"50.63N","longitude":"19.01E"}
{"date":"2010-11-01","average_temperature":"26.706999999999997","city":"Cabimas","latitude":"10.45N","longitude":"71.18W"}
{"date":"2011-08-01","average_temperature":"28.881","city":"Cabimas","latitude":"10.45N","longitude":"71.18W"}
{"date":"2012-02-01","average_temperature":"27.449","city":"Cabo Frio","latitude":"23.31S","longitude":"42.82W"}
{"date":"2011-10-01","average_temperature":"25.574","city":"Cabudare","latitude":"10.45N","longitude":"69.55W"}
{"date":"2011-08-01","average_temperature":"21.44","city":"Cachoeiro De Itapemirim","latitude":"20.09S","longitude":"40.95W"}
{"date":"2012-02-01","average_temperature":"22.408","city":"Calcutta","latitude":"23.31N","longitude":"88.25E"}
{"date":"2012-01-01","average_temperature":"24.197","city":"Campeche","latitude":"20.09N","longitude":"90.43W"}
{"date":"2012-09-01","average_temperature":"9.413","city":"Canberra","latitude":"36.17S","longitude":"149.17E"}
{"date":"2013-05-01","average_temperature":"18.317","city":"Carapicuíba","latitude":"23.31S","longitude":"46.31W"}
{"date":"2013-03-01","average_temperature":"3.0730000000000004","city":"Cardiff","latitude":"52.24N","longitude":"2.63W"}
{"date":"2011-08-01","average_temperature":"21.44","city":"Cariacica","latitude":"20.09S","longitude":"40.95W"}
{"date":"2013-06-01","average_temperature":"28.89","city":"Carmen","latitude":"18.48N","longitude":"91.27W"}
{"date":"2010-01-01","average_temperature":"25.535","city":"Carrefour","latitude":"18.48N","longitude":"72.68W"}
{"date":"2012-08-01","average_temperature":"28.151999999999997","city":"Cartagena","latitude":"37.78N","longitude":"0.00W"}
{"date":"2010-04-01","average_temperature":"16.701","city":"Cary","latitude":"36.17N","longitude":"79.56W"}
{"date":"2011-03-01","average_temperature":"23.908","city":"Catanduva","latitude":"21.70S","longitude":"49.33W"}
{"date":"2010-06-01","average_temperature":"27.309","city":"Caucaia","latitude":"4.02S","longitude":"39.38W"}
{"date":"2012-01-01","average_temperature":"-3.9019999999999997","city":"Cedar Rapids","latitude":"42.59N","longitude":"91.64W"}
{"date":"2011-12-01","average_temperature":"13.095999999999998","city":"Chakwal","latitude":"32.95N","longitude":"73.72E"}
{"date":"2010-09-01","average_temperature":"24.647","city":"Charlotte","latitude":"34.56N","longitude":"81.73W"}
{"date":"2010-09-01","average_temperature":"13.253","city":"Cheboksary","latitude":"55.45N","longitude":"48.19E"}
{"date":"2011-08-01","average_temperature":"15.646","city":"Chelyabinsk","latitude":"55.45N","longitude":"62.36E"}
{"date":"2011-01-01","average_temperature":"-11.982000000000001","city":"Chengde","latitude":"40.99N","longitude":"117.16E"}
{"date":"2013-05-01","average_temperature":"18.92","city":"Cherkasy","latitude":"49.03N","longitude":"31.84E"}
{"date":"2010-10-01","average_temperature":"8.538","city":"Cherkessk","latitude":"44.20N","longitude":"42.48E"}
{"date":"2013-01-01","average_temperature":"-2.197","city":"Cherkessk","latitude":"44.20N","longitude":"42.48E"}
{"date":"2012-11-01","average_temperature":"21.964","city":"Chhindwara","latitude":"21.70N","longitude":"78.75E"}
{"date":"2012-09-01","average_temperature":"18.846","city":"Chiclayo","latitude":"7.23S","longitude":"80.27W"}
{"date":"2011-12-01","average_temperature":"3.25","city":"Chigasaki","latitude":"36.17N","longitude":"139.23E"}
{"date":"2011-05-01","average_temperature":"28.363000000000003","city":"Chikmagalur","latitude":"13.66N","longitude":"75.14E"}
{"date":"2012-01-01","average_temperature":"24.879","city":"Chikmagalur","latitude":"13.66N","longitude":"75.14E"}
{"date":"2011-06-01","average_temperature":"28.423000000000002","city":"Chinandega","latitude":"12.05N","longitude":"87.12W"}
{"date":"2012-01-01","average_temperature":"12.98","city":"Chishtian Mandi","latitude":"29.74N","longitude":"72.00E"}
{"date":"2010-11-01","average_temperature":"22.305","city":"Chittaurgarh","latitude":"24.92N","longitude":"74.48E"}
{"date":"2012-03-01","average_temperature":"12.081","city":"Christchurch","latitude":"44.20S","longitude":"172.17E"}
{"date":"2012-05-01","average_temperature":"22.785","city":"Chuzhou","latitude":"32.95N","longitude":"117.77E"}
{"date":"2013-05-01","average_temperature":"27.936","city":"Cibitung","latitude":"5.63S","longitude":"106.55E"}
{"date":"2011-08-01","average_temperature":"28.545","city":"Ciego De Ávila","latitude":"21.70N","longitude":"78.75W"}
{"date":"2010-04-01","average_temperature":"25.07","city":"Cienfuegos","latitude":"21.70N","longitude":"80.48W"}
{"date":"2011-09-01","average_temperature":"27.209","city":"Cikarang","latitude":"5.63S","longitude":"106.55E"}
{"date":"2010-08-01","average_temperature":"25.756999999999998","city":"Cileunyi","latitude":"7.23S","longitude":"107.84E"}
{"date":"2012-05-01","average_temperature":"25.945","city":"Cimahi","latitude":"7.23S","longitude":"107.84E"}
{"date":"2011-05-01","average_temperature":"27.889","city":"Citeureup","latitude":"5.63S","longitude":"106.55E"}
{"date":"2010-02-01","average_temperature":"26.016","city":"Ciudad Guayana","latitude":"8.84N","longitude":"62.43W"}
{"date":"2012-04-01","average_temperature":"16.000999999999998","city":"Clarksville","latitude":"36.17N","longitude":"87.51W"}
{"date":"2012-12-01","average_temperature":"7.984","city":"Clarksville","latitude":"36.17N","longitude":"87.51W"}
{"date":"2012-12-01","average_temperature":"24.206999999999997","city":"Coatzacoalcos","latitude":"18.48N","longitude":"94.65W"}
{"date":"2013-05-01","average_temperature":"21.704","city":"Colatina","latitude":"20.09S","longitude":"40.95W"}
{"date":"2012-12-01","average_temperature":"10.437000000000001","city":"Columbus","latitude":"32.95N","longitude":"85.21W"}
{"date":"2010-11-01","average_temperature":"22.193","city":"Concordia","latitude":"31.35S","longitude":"58.43W"}
{"date":"2012-10-01","average_temperature":"18.073","city":"Constantine","latitude":"36.17N","longitude":"5.97E"}
{"date":"2010-10-01","average_temperature":"21.752","city":"Coronel Fabriciano","latitude":"20.09S","longitude":"42.65W"}
{"date":"2011-11-01","average_temperature":"24.552000000000003","city":"Corrientes","latitude":"28.13S","longitude":"59.09W"}
{"date":"2010-07-01","average_temperature":"26.273000000000003","city":"Cotonou","latitude":"7.23N","longitude":"2.43E"}
{"date":"2012-09-01","average_temperature":"15.085","city":"Cracow","latitude":"50.63N","longitude":"19.01E"}
{"date":"2012-09-01","average_temperature":"20.332","city":"Craiova","latitude":"44.20N","longitude":"24.60E"}
{"date":"2011-07-01","average_temperature":"17.597","city":"Cubatão","latitude":"23.31S","longitude":"46.31W"}
{"date":"2010-04-01","average_temperature":"33.284","city":"Cuddapah","latitude":"15.27N","longitude":"79.17E"}
{"date":"2012-05-01","average_temperature":"24.71","city":"Cuernavaca","latitude":"18.48N","longitude":"99.72W"}
{"date":"2012-05-01","average_temperature":"27.342","city":"Cumaná","latitude":"10.45N","longitude":"64.64W"}
{"date":"2013-03-01","average_temperature":"16.912","city":"Daan","latitude":"29.74N","longitude":"105.23E"}
{"date":"2013-08-01","average_temperature":"28.497","city":"Daan","latitude":"29.74N","longitude":"105.23E"}
{"date":"2011-03-01","average_temperature":"16.051","city":"Danshui","latitude":"23.31N","longitude":"114.47E"}
{"date":"2012-09-01","average_temperature":"24.948","city":"Dar Es Salaam","latitude":"7.23S","longitude":"39.73E"}
{"date":"2012-04-01","average_temperature":"24.006","city":"Darjiling","latitude":"26.52N","longitude":"87.76E"}
{"date":"2011-08-01","average_temperature":"24.764","city":"Delicias","latitude":"28.13N","longitude":"106.36W"}
{"date":"2013-09-01","average_temperature":"27.986","city":"Denton","latitude":"32.95N","longitude":"96.70W"}
{"date":"2010-11-01","average_temperature":"23.071","city":"Deoria","latitude":"26.52N","longitude":"84.18E"}
{"date":"2010-03-01","average_temperature":"31.411","city":"Dharmavaram","latitude":"15.27N","longitude":"77.50E"}
{"date":"2013-07-01","average_temperature":"16.849","city":"Diadema","latitude":"23.31S","longitude":"46.31W"}
{"date":"2010-05-01","average_temperature":"14.796","city":"Didao","latitude":"45.81N","longitude":"130.38E"}
{"date":"2013-06-01","average_temperature":"20.063","city":"Didao","latitude":"45.81N","longitude":"130.38E"}
{"date":"2013-07-01","average_temperature":"25.908","city":"Digos","latitude":"7.23N","longitude":"125.68E"}
{"date":"2013-04-01","average_temperature":"6.93","city":"Dimitrovgrad","latitude":"53.84N","longitude":"50.45E"}
{"date":"2013-06-01","average_temperature":"27.421999999999997","city":"Djougou","latitude":"10.45N","longitude":"2.45E"}
{"date":"2011-03-01","average_temperature":"10.078","city":"Do Rud","latitude":"32.95N","longitude":"48.83E"}
{"date":"2011-10-01","average_temperature":"25.545","city":"Dongli","latitude":"20.09N","longitude":"110.90E"}
{"date":"2011-07-01","average_temperature":"16.557000000000002","city":"Dortmund","latitude":"52.24N","longitude":"7.88E"}
{"date":"2010-06-01","average_temperature":"28.878","city":"Dumaguete","latitude":"8.84N","longitude":"124.05E"}
{"date":"2010-08-01","average_temperature":"19.222","city":"Durban","latitude":"29.74S","longitude":"31.38E"}
{"date":"2012-07-01","average_temperature":"20.671","city":"Dushanbe","latitude":"39.38N","longitude":"68.67E"}
{"date":"2010-12-01","average_temperature":"-10.325999999999999","city":"Dzerzhinsk","latitude":"57.05N","longitude":"42.79E"}
{"date":"2012-04-01","average_temperature":"7.896","city":"Eastbourne","latitude":"50.63N","longitude":"1.27E"}
{"date":"2011-02-01","average_temperature":"2.943","city":"Emmen","latitude":"52.24N","longitude":"7.88E"}
{"date":"2012-02-01","average_temperature":"-0.234","city":"Emmen","latitude":"52.24N","longitude":"7.88E"}
{"date":"2012-03-01","average_temperature":"19.385","city":"Encheng","latitude":"21.70N","longitude":"111.63E"}
{"date":"2010-09-01","average_temperature":"13.387","city":"Enschede","latitude":"52.24N","longitude":"7.88E"}
{"date":"2012-03-01","average_temperature":"13.947","city":"Ensenada","latitude":"31.35N","longitude":"116.86W"}
{"date":"2011-11-01","average_temperature":"27.287","city":"Enugu","latitude":"7.23N","longitude":"7.30E"}
{"date":"2011-11-01","average_temperature":"18.590999999999998","city":"Escuintla","latitude":"15.27N","longitude":"90.83W"}
{"date":"2012-10-01","average_temperature":"17.574","city":"Eslamshahr","latitude":"36.17N","longitude":"51.71E"}
{"date":"2013-08-01","average_temperature":"20.581999999999997","city":"Esmeraldas","latitude":"20.09S","longitude":"44.36W"}
{"date":"2010-03-01","average_temperature":"-2.9610000000000003","city":"Espoo","latitude":"60.27N","longitude":"25.95E"}
{"date":"2011-11-01","average_temperature":"24.051","city":"Faridpur","latitude":"23.31N","longitude":"90.00E"}
{"date":"2012-05-01","average_temperature":"30.202","city":"Faridpur","latitude":"23.31N","longitude":"90.00E"}
{"date":"2011-06-01","average_temperature":"22.874","city":"Feira De Santana","latitude":"12.05S","longitude":"39.45W"}
{"date":"2012-05-01","average_temperature":"20.906999999999996","city":"Fernando De La Mora","latitude":"24.92S","longitude":"56.75W"}
{"date":"2010-03-01","average_temperature":"24.404","city":"Fianarantsoa","latitude":"21.70S","longitude":"47.60E"}
{"date":"2013-01-01","average_temperature":"4.188","city":"Florence","latitude":"44.20N","longitude":"11.18E"}
{"date":"2010-05-01","average_temperature":"26.747","city":"Floridablanca","latitude":"7.23N","longitude":"73.78W"}
{"date":"2010-03-01","average_temperature":"11.859000000000002","city":"Fontana","latitude":"34.56N","longitude":"116.76W"}
{"date":"2010-05-01","average_temperature":"15.269","city":"Forlì","latitude":"44.20N","longitude":"11.18E"}
{"date":"2012-03-01","average_temperature":"10.599","city":"Forlì","latitude":"44.20N","longitude":"11.18E"}
{"date":"2011-08-01","average_temperature":"29.089000000000002","city":"Fort Lauderdale","latitude":"26.52N","longitude":"80.60W"}
{"date":"2011-04-01","average_temperature":"23.044","city":"Foz Do Iguaçu","latitude":"24.92S","longitude":"54.98W"}
{"date":"2012-10-01","average_temperature":"25.694000000000003","city":"Franca","latitude":"20.09S","longitude":"47.77W"}
{"date":"2011-07-01","average_temperature":"17.597","city":"Francisco Morato","latitude":"23.31S","longitude":"46.31W"}
{"date":"2010-04-01","average_temperature":"11.455","city":"Fuenlabrada","latitude":"40.99N","longitude":"4.26W"}
{"date":"2011-07-01","average_temperature":"25.288","city":"Fujimi","latitude":"36.17N","longitude":"139.23E"}
{"date":"2013-03-01","average_temperature":"15.964","city":"Fuling","latitude":"29.74N","longitude":"107.08E"}
{"date":"2012-07-01","average_temperature":"24.264","city":"Fushun","latitude":"40.99N","longitude":"123.55E"}
{"date":"2010-07-01","average_temperature":"24.161","city":"Gómez Palacio","latitude":"24.92N","longitude":"102.86W"}
{"date":"2011-03-01","average_temperature":"21.739","city":"Gómez Palacio","latitude":"24.92N","longitude":"102.86W"}
{"date":"2010-03-01","average_temperature":"-0.556","city":"Göteborg","latitude":"58.66N","longitude":"12.31E"}
{"date":"2011-09-01","average_temperature":"13.286","city":"Göteborg","latitude":"58.66N","longitude":"12.31E"}
{"date":"2012-10-01","average_temperature":"26.636999999999997","city":"Gangapur","latitude":"26.52N","longitude":"77.01E"}
{"date":"2012-07-01","average_temperature":"25.629","city":"Gangawati","latitude":"15.27N","longitude":"75.83E"}
{"date":"2013-07-01","average_temperature":"24.447","city":"Gangawati","latitude":"15.27N","longitude":"75.83E"}
{"date":"2011-08-01","average_temperature":"25.233","city":"Gaomi","latitude":"36.17N","longitude":"119.34E"}
{"date":"2011-10-01","average_temperature":"24.088","city":"Garanhuns","latitude":"8.84S","longitude":"36.49W"}
{"date":"2010-07-01","average_temperature":"25.267","city":"Garut","latitude":"7.23S","longitude":"107.84E"}
{"date":"2013-03-01","average_temperature":"31.221","city":"Gashua","latitude":"13.66N","longitude":"10.73E"}
{"date":"2013-05-01","average_temperature":"14.925","city":"Gdansk","latitude":"53.84N","longitude":"17.73E"}
{"date":"2010-09-01","average_temperature":"13.145999999999999","city":"Gdynia","latitude":"53.84N","longitude":"17.73E"}
{"date":"2011-11-01","average_temperature":"7.6129999999999995","city":"Gebze","latitude":"40.99N","longitude":"29.82E"}
{"date":"2010-05-01","average_temperature":"22.749000000000002","city":"Gejiu","latitude":"23.31N","longitude":"103.98E"}
{"date":"2013-05-01","average_temperature":"14.619000000000002","city":"Genoa","latitude":"44.20N","longitude":"8.94E"}
{"date":"2010-08-01","average_temperature":"30.031","city":"Ghaziabad","latitude":"28.13N","longitude":"77.27E"}
{"date":"2011-10-01","average_temperature":"26.488000000000003","city":"Ghazipur","latitude":"24.92N","longitude":"83.35E"}
{"date":"2011-12-01","average_temperature":"9.137","city":"Gilbert","latitude":"32.95N","longitude":"112.02W"}
{"date":"2010-11-01","average_temperature":"12.114","city":"Glendale","latitude":"34.56N","longitude":"118.70W"}
{"date":"2011-06-01","average_temperature":"28.967","city":"Gombe","latitude":"10.45N","longitude":"10.64E"}
{"date":"2012-01-01","average_temperature":"-5.471","city":"Gomel","latitude":"52.24N","longitude":"31.53E"}
{"date":"2012-01-01","average_temperature":"5.405","city":"Gonbad E Qabus","latitude":"37.78N","longitude":"54.92E"}
{"date":"2013-02-01","average_temperature":"18.859","city":"Gonda","latitude":"26.52N","longitude":"82.39E"}
{"date":"2013-03-01","average_temperature":"24.226","city":"Gorakhpur","latitude":"26.52N","longitude":"84.18E"}
{"date":"2011-03-01","average_temperature":"22.455","city":"Gravataí","latitude":"29.74S","longitude":"51.69W"}
{"date":"2013-01-01","average_temperature":"23.434","city":"Guaíba","latitude":"29.74S","longitude":"51.69W"}
{"date":"2011-11-01","average_temperature":"19.939","city":"Guadalajara","latitude":"20.09N","longitude":"104.08W"}
{"date":"2012-10-01","average_temperature":"26.954","city":"Guantánamo","latitude":"20.09N","longitude":"75.07W"}
{"date":"2011-04-01","average_temperature":"19.574","city":"Guarapuava","latitude":"24.92S","longitude":"51.43W"}
{"date":"2011-11-01","average_temperature":"18.590999999999998","city":"Guatemala City","latitude":"15.27N","longitude":"90.83W"}
{"date":"2011-02-01","average_temperature":"24.548000000000002","city":"Guatire","latitude":"10.45N","longitude":"66.27W"}
{"date":"2012-09-01","average_temperature":"20.919","city":"Guayaquil","latitude":"2.41S","longitude":"79.55W"}
{"date":"2013-09-01","average_temperature":"14.599","city":"Guelph","latitude":"44.20N","longitude":"80.50W"}
{"date":"2011-05-01","average_temperature":"22.548","city":"Guilin","latitude":"24.92N","longitude":"109.95E"}
{"date":"2011-12-01","average_temperature":"13.095999999999998","city":"Gujrat","latitude":"32.95N","longitude":"73.72E"}
{"date":"2013-01-01","average_temperature":"10.957","city":"Gujrat","latitude":"32.95N","longitude":"73.72E"}
{"date":"2012-02-01","average_temperature":"13.979","city":"Ha Noi","latitude":"21.70N","longitude":"106.44E"}
{"date":"2011-06-01","average_temperature":"16.273","city":"Haarlem","latitude":"52.24N","longitude":"5.26E"}
{"date":"2010-04-01","average_temperature":"7.854999999999999","city":"Haibowan","latitude":"39.38N","longitude":"106.13E"}
{"date":"2012-08-01","average_temperature":"29.225","city":"Haldia","latitude":"21.70N","longitude":"87.40E"}
{"date":"2010-12-01","average_temperature":"7.487","city":"Handa","latitude":"34.56N","longitude":"136.22E"}
{"date":"2011-02-01","average_temperature":"15.607999999999999","city":"Hanoi","latitude":"21.70N","longitude":"106.44E"}
{"date":"2011-09-01","average_temperature":"25.705","city":"Hanoi","latitude":"21.70N","longitude":"106.44E"}
{"date":"2011-04-01","average_temperature":"15.853000000000002","city":"Henderson","latitude":"36.17N","longitude":"115.36W"}
{"date":"2012-01-01","average_temperature":"-2.7910000000000004","city":"Hengshui","latitude":"37.78N","longitude":"115.93E"}
{"date":"2013-03-01","average_temperature":"14.493","city":"Hengyang","latitude":"26.52N","longitude":"112.84E"}
{"date":"2012-09-01","average_temperature":"28.01","city":"Henzada","latitude":"16.87N","longitude":"95.44E"}
{"date":"2010-03-01","average_temperature":"28.794","city":"Hindupur","latitude":"13.66N","longitude":"76.79E"}
{"date":"2013-06-01","average_temperature":"27.893","city":"Hollywood","latitude":"26.52N","longitude":"80.60W"}
{"date":"2010-07-01","average_temperature":"28.576","city":"Hong Gai","latitude":"21.70N","longitude":"106.44E"}
{"date":"2011-12-01","average_temperature":"-15.603","city":"Honggang","latitude":"45.81N","longitude":"125.77E"}
{"date":"2010-07-01","average_temperature":"18.773000000000003","city":"Hortolândia","latitude":"23.31S","longitude":"48.06W"}
{"date":"2010-10-01","average_temperature":"11.681","city":"Houma","latitude":"36.17N","longitude":"111.38E"}
{"date":"2013-01-01","average_temperature":"14.627","city":"Hsinchu","latitude":"24.92N","longitude":"120.59E"}
{"date":"2010-01-01","average_temperature":"-17.720000000000006","city":"Huadian","latitude":"42.59N","longitude":"126.55E"}
{"date":"2010-06-01","average_temperature":"30.615","city":"Hue","latitude":"16.87N","longitude":"107.16E"}
{"date":"2013-06-01","average_temperature":"23.708","city":"Huelva","latitude":"37.78N","longitude":"6.10W"}
{"date":"2010-12-01","average_temperature":"-3.3680000000000003","city":"Iasi","latitude":"47.42N","longitude":"27.24E"}
{"date":"2010-09-01","average_temperature":"17.962","city":"Ibarra","latitude":"0.80N","longitude":"77.95W"}
{"date":"2013-09-01","city":"Ilesha","latitude":"8.84N","longitude":"4.05E"}
{"date":"2011-09-01","average_temperature":"18.408","city":"Indianapolis","latitude":"39.38N","longitude":"85.32W"}
{"date":"2010-07-01","average_temperature":"23.636","city":"Inglewood","latitude":"34.56N","longitude":"118.70W"}
{"date":"2012-08-01","average_temperature":"19.23","city":"Ingolstadt","latitude":"49.03N","longitude":"12.24E"}
{"date":"2010-05-01","average_temperature":"11.328","city":"Ipswich","latitude":"52.24N","longitude":"0.00W"}
{"date":"2010-08-01","average_temperature":"27.449","city":"Iráklion","latitude":"34.56N","longitude":"25.30E"}
{"date":"2012-09-01","average_temperature":"25.088","city":"Iráklion","latitude":"34.56N","longitude":"25.30E"}
{"date":"2013-08-01","average_temperature":"26.364","city":"Iruma","latitude":"36.17N","longitude":"139.23E"}
{"date":"2011-10-01","average_temperature":"22.244","city":"Isiro","latitude":"2.41N","longitude":"28.13E"}
{"date":"2011-02-01","average_temperature":"5.457999999999999","city":"Istanbul","latitude":"40.99N","longitude":"29.82E"}
{"date":"2013-01-01","average_temperature":"19.998","city":"Itagüí","latitude":"5.63N","longitude":"75.87W"}
{"date":"2010-09-01","average_temperature":"20.97","city":"Itapetininga","latitude":"23.31S","longitude":"48.06W"}
{"date":"2013-08-01","average_temperature":"16.912","city":"Izhevsk","latitude":"57.05N","longitude":"54.59E"}
{"date":"2012-10-01","average_temperature":"18.723","city":"Izmit","latitude":"40.99N","longitude":"29.82E"}
{"date":"2011-10-01","average_temperature":"23.989","city":"Jaú","latitude":"21.70S","longitude":"49.33W"}
{"date":"2013-05-01","average_temperature":"21.503","city":"Jaú","latitude":"21.70S","longitude":"49.33W"}
{"date":"2010-05-01","average_temperature":"18.679000000000002","city":"Jacareí","latitude":"23.31S","longitude":"46.31W"}
{"date":"2010-05-01","average_temperature":"24.671","city":"Jackson","latitude":"32.95N","longitude":"90.96W"}
{"date":"2010-11-01","average_temperature":"20.269","city":"Jalandhar","latitude":"31.35N","longitude":"75.39E"}
{"date":"2010-02-01","average_temperature":"20.996","city":"Jamalpur","latitude":"24.92N","longitude":"90.44E"}
{"date":"2012-01-01","average_temperature":"19.718","city":"Jamnagar","latitude":"21.70N","longitude":"70.10E"}
{"date":"2012-04-01","average_temperature":"30.581","city":"Jamshedpur","latitude":"23.31N","longitude":"86.50E"}
{"date":"2011-05-01","average_temperature":"20.984","city":"Jaraguá Do Sul","latitude":"26.52S","longitude":"48.36W"}
{"date":"2013-03-01","average_temperature":"15.52","city":"Jaramana","latitude":"32.95N","longitude":"35.43E"}
{"date":"2011-01-01","average_temperature":"-4.463","city":"Jersey City","latitude":"40.99N","longitude":"74.56W"}
{"date":"2013-04-01","average_temperature":"29.165","city":"Jetpur","latitude":"21.70N","longitude":"70.10E"}
{"date":"2011-02-01","average_temperature":"9.495","city":"Jian","latitude":"26.52N","longitude":"114.63E"}
{"date":"2011-10-01","average_temperature":"19.726","city":"Jiaojiang","latitude":"28.13N","longitude":"120.91E"}
{"date":"2011-05-01","average_temperature":"19.226","city":"Jiaozhou","latitude":"36.17N","longitude":"119.34E"}
{"date":"2011-01-01","average_temperature":"0.7000000000000002","city":"Jiaxing","latitude":"31.35N","longitude":"120.63E"}
{"date":"2012-04-01","average_temperature":"27.206999999999997","city":"Jiddah","latitude":"21.70N","longitude":"38.94E"}
{"date":"2012-10-01","average_temperature":"23.471","city":"Jieshi","latitude":"23.31N","longitude":"116.21E"}
{"date":"2011-04-01","average_temperature":"23.160999999999998","city":"Jimma","latitude":"7.23N","longitude":"36.49E"}
{"date":"2012-07-01","average_temperature":"29.098000000000003","city":"Jinhua","latitude":"29.74N","longitude":"120.00E"}
{"date":"2011-06-01","average_temperature":"24.741999999999997","city":"Jiujiang","latitude":"29.74N","longitude":"116.31E"}
{"date":"2010-12-01","average_temperature":"26.673000000000002","city":"Johor Bahru","latitude":"0.80N","longitude":"103.66E"}
{"date":"2013-01-01","average_temperature":"23.456","city":"Joinville","latitude":"26.52S","longitude":"48.36W"}
{"date":"2013-09-01","average_temperature":"19.898","city":"Joliet","latitude":"40.99N","longitude":"87.34W"}
{"date":"2012-12-01","average_temperature":"27.612","city":"Jombang","latitude":"7.23S","longitude":"112.70E"}
{"date":"2012-01-01","average_temperature":"7.0710000000000015","city":"Juarez","latitude":"31.35N","longitude":"105.55W"}
{"date":"2010-09-01","average_temperature":"5.265","city":"Juliaca","latitude":"15.27S","longitude":"70.83W"}
{"date":"2010-04-01","average_temperature":"29.085","city":"Kabankalan","latitude":"10.45N","longitude":"123.55E"}
{"date":"2010-05-01","average_temperature":"20.891","city":"Kabul","latitude":"34.56N","longitude":"70.05E"}
{"date":"2011-02-01","average_temperature":"29.141","city":"Kaduna","latitude":"10.45N","longitude":"7.36E"}
{"date":"2012-07-01","average_temperature":"28.996","city":"Kaifeng","latitude":"34.56N","longitude":"114.81E"}
{"date":"2010-09-01","average_temperature":"22.369","city":"Kakamigahara","latitude":"36.17N","longitude":"137.24E"}
{"date":"2012-01-01","average_temperature":"-0.5880000000000001","city":"Kakamigahara","latitude":"36.17N","longitude":"137.24E"}
{"date":"2011-07-01","average_temperature":"16.989","city":"Kaliningrad","latitude":"55.45N","longitude":"19.84E"}
{"date":"2012-03-01","average_temperature":"-3.2509999999999994","city":"Kaluga","latitude":"53.84N","longitude":"36.82E"}
{"date":"2013-07-01","average_temperature":"21.307","city":"Kamyshin","latitude":"50.63N","longitude":"44.37E"}
{"date":"2011-12-01","average_temperature":"2.32","city":"Kansas City","latitude":"39.38N","longitude":"93.64W"}
{"date":"2013-08-01","average_temperature":"25.401","city":"Karaj","latitude":"36.17N","longitude":"51.71E"}
{"date":"2012-10-01","average_temperature":"26.825","city":"Karang Tengah","latitude":"7.23S","longitude":"106.22E"}
{"date":"2013-06-01","average_temperature":"27.879","city":"Karawang","latitude":"5.63S","longitude":"106.55E"}
{"date":"2013-07-01","average_temperature":"26.915000000000006","city":"Kashihara","latitude":"34.56N","longitude":"136.22E"}
{"date":"2012-07-01","average_temperature":"19.203","city":"Kaunas","latitude":"55.45N","longitude":"22.68E"}
{"date":"2013-03-01","average_temperature":"7.955","city":"Kawaguchi","latitude":"36.17N","longitude":"139.23E"}
{"date":"2012-11-01","average_temperature":"6.857","city":"Kayseri","latitude":"39.38N","longitude":"35.38E"}
{"date":"2010-06-01","average_temperature":"21.008000000000003","city":"Kazan","latitude":"55.45N","longitude":"48.19E"}
{"date":"2013-06-01","average_temperature":"19.879","city":"Kazan","latitude":"55.45N","longitude":"48.19E"}
{"date":"2012-04-01","average_temperature":"15.152999999999999","city":"Kenitra","latitude":"34.56N","longitude":"5.84W"}
{"date":"2010-04-01","average_temperature":"1.6760000000000002","city":"Khabarovsk","latitude":"49.03N","longitude":"134.69E"}
{"date":"2011-11-01","average_temperature":"-7.8980000000000015","city":"Khabarovsk","latitude":"49.03N","longitude":"134.69E"}
{"date":"2013-08-01","average_temperature":"33.254000000000005","city":"Khairpur","latitude":"28.13N","longitude":"68.18E"}
{"date":"2010-06-01","average_temperature":"32.371","city":"Khandwa","latitude":"21.70N","longitude":"77.02E"}
{"date":"2012-06-01","average_temperature":"32.231","city":"Khandwa","latitude":"21.70N","longitude":"77.02E"}
{"date":"2010-09-01","average_temperature":"28.593000000000004","city":"Khanna","latitude":"31.35N","longitude":"75.39E"}
{"date":"2011-05-01","average_temperature":"34.291","city":"Khartoum","latitude":"15.27N","longitude":"32.50E"}
{"date":"2011-06-01","average_temperature":"36.769","city":"Khorramshahr","latitude":"29.74N","longitude":"48.00E"}
{"date":"2013-05-01","average_temperature":"14.187999999999999","city":"Khoy","latitude":"37.78N","longitude":"44.75E"}
{"date":"2010-06-01","average_temperature":"22.05","city":"Khujand","latitude":"40.99N","longitude":"70.30E"}
{"date":"2012-04-01","average_temperature":"7.747999999999998","city":"Kiel","latitude":"53.84N","longitude":"9.55E"}
{"date":"2012-06-01","average_temperature":"19.8","city":"Kiev","latitude":"50.63N","longitude":"31.69E"}
{"date":"2012-04-01","average_temperature":"21.478","city":"Killeen","latitude":"31.35N","longitude":"98.01W"}
{"date":"2012-11-01","average_temperature":"15.584000000000001","city":"Killeen","latitude":"31.35N","longitude":"98.01W"}
{"date":"2011-04-01","average_temperature":"27.885","city":"Kindia","latitude":"10.45N","longitude":"12.27W"}
{"date":"2012-06-01","average_temperature":"18.843","city":"Kingston","latitude":"44.20N","longitude":"76.02W"}
{"date":"2013-02-01","average_temperature":"2.7560000000000002","city":"Kingston Upon Hull","latitude":"53.84N","longitude":"1.36W"}
{"date":"2010-07-01","average_temperature":"22.49","city":"Kirov","latitude":"58.66N","longitude":"49.23E"}
{"date":"2012-05-01","average_temperature":"19.28","city":"Kisarazu","latitude":"34.56N","longitude":"140.11E"}
{"date":"2012-09-01","average_temperature":"23.141","city":"Kitwe","latitude":"12.05S","longitude":"27.95E"}
{"date":"2011-12-01","average_temperature":"26.724","city":"Klaten","latitude":"7.23S","longitude":"111.08E"}
{"date":"2010-05-01","average_temperature":"28.283","city":"Kluang","latitude":"2.41N","longitude":"103.66E"}
{"date":"2012-04-01","average_temperature":"14.454","city":"Knoxville","latitude":"36.17N","longitude":"83.54W"}
{"date":"2013-08-01","average_temperature":"28.529","city":"Kobe","latitude":"34.56N","longitude":"134.27E"}
{"date":"2013-01-01","average_temperature":"27.593000000000004","city":"Kochi","latitude":"10.45N","longitude":"76.09E"}
{"date":"2011-08-01","average_temperature":"31.218000000000004","city":"Kohat","latitude":"32.95N","longitude":"71.81E"}
{"date":"2010-05-01","average_temperature":"27.154","city":"Koidu","latitude":"8.84N","longitude":"10.54W"}
{"date":"2010-04-01","average_temperature":"29.500999999999998","city":"Kollam","latitude":"8.84N","longitude":"77.03E"}
{"date":"2010-04-01","average_temperature":"10.896999999999998","city":"Konya","latitude":"37.78N","longitude":"32.54E"}
{"date":"2013-04-01","average_temperature":"11.31","city":"Koshigaya","latitude":"36.17N","longitude":"139.23E"}
{"date":"2010-11-01","average_temperature":"23.447","city":"Kota","latitude":"24.92N","longitude":"76.26E"}
{"date":"2010-11-01","average_temperature":"25.403","city":"Kota Kinabalu","latitude":"5.63N","longitude":"116.23E"}
{"date":"2012-08-01","average_temperature":"26.031","city":"Kota Kinabalu","latitude":"5.63N","longitude":"116.23E"}
{"date":"2013-09-01","city":"Kroonstad","latitude":"28.13S","longitude":"26.36E"}
{"date":"2010-01-01","average_temperature":"19.507","city":"Krugersdorp","latitude":"26.52S","longitude":"28.66E"}
{"date":"2011-05-01","average_temperature":"27.107","city":"Kumba","latitude":"4.02N","longitude":"8.84E"}
{"date":"2013-09-01","city":"Kwekwe","latitude":"18.48S","longitude":"30.42E"}
{"date":"2012-11-01","average_temperature":"5.399","city":"Lübeck","latitude":"53.84N","longitude":"9.55E"}
{"date":"2010-11-01","average_temperature":"25.866999999999997","city":"La Romana","latitude":"18.48N","longitude":"69.30W"}
{"date":"2012-03-01","average_temperature":"20.623","city":"Lafayette","latitude":"29.74N","longitude":"92.31W"}
{"date":"2012-11-01","average_temperature":"26.981","city":"Lahad Datu","latitude":"5.63N","longitude":"117.85E"}
{"date":"2011-08-01","average_temperature":"31.273000000000003","city":"Lahore","latitude":"31.35N","longitude":"73.51E"}
{"date":"2010-12-01","average_temperature":"3.625","city":"Laiyang","latitude":"36.17N","longitude":"121.33E"}
{"date":"2012-09-01","average_temperature":"20.082","city":"Lalitpur","latitude":"28.13N","longitude":"84.55E"}
{"date":"2010-07-01","average_temperature":"27.847","city":"Lapu Lapu","latitude":"10.45N","longitude":"123.55E"}
{"date":"2010-03-01","average_temperature":"28.041999999999998","city":"Larkana","latitude":"28.13N","longitude":"68.18E"}
{"date":"2012-10-01","average_temperature":"-0.583","city":"Lasa","latitude":"29.74N","longitude":"90.46E"}
{"date":"2012-05-01","average_temperature":"33.126999999999995","city":"Latur","latitude":"18.48N","longitude":"76.06E"}
{"date":"2013-06-01","average_temperature":"19.861","city":"Leghorn","latitude":"44.20N","longitude":"11.18E"}
{"date":"2013-09-01","city":"Legnica","latitude":"50.63N","longitude":"16.48E"}
{"date":"2010-03-01","average_temperature":"3.7","city":"Leipzig","latitude":"50.63N","longitude":"11.41E"}
{"date":"2011-11-01","average_temperature":"15.35","city":"Lengshuijiang","latitude":"28.13N","longitude":"111.82E"}
{"date":"2012-05-01","average_temperature":"27.262","city":"Leuwiliang","latitude":"7.23S","longitude":"106.22E"}
{"date":"2013-09-01","city":"Liaocheng","latitude":"36.17N","longitude":"115.36E"}
{"date":"2010-02-01","average_temperature":"-7.1110000000000015","city":"Liaoyang","latitude":"40.99N","longitude":"123.55E"}
{"date":"2012-11-01","average_temperature":"23.346","city":"Likasi","latitude":"10.45S","longitude":"27.00E"}
{"date":"2011-10-01","average_temperature":"23.319000000000003","city":"Limeira","latitude":"21.70S","longitude":"47.60W"}
{"date":"2010-10-01","average_temperature":"11.241","city":"Limoges","latitude":"45.81N","longitude":"1.15E"}
{"date":"2012-10-01","average_temperature":"12.563","city":"Limoges","latitude":"45.81N","longitude":"1.15E"}
{"date":"2011-05-01","average_temperature":"20.336","city":"Linhai","latitude":"28.13N","longitude":"120.91E"}
{"date":"2011-07-01","average_temperature":"24.355999999999998","city":"Lira","latitude":"2.41N","longitude":"32.95E"}
{"date":"2011-12-01","average_temperature":"24.965999999999998","city":"Lira","latitude":"2.41N","longitude":"32.95E"}
{"date":"2012-04-01","average_temperature":"6.796","city":"Liverpool","latitude":"53.84N","longitude":"4.09W"}
{"date":"2011-07-01","average_temperature":"27.046","city":"Loa Janan","latitude":"0.80S","longitude":"116.52E"}
{"date":"2011-06-01","average_temperature":"17.456","city":"Londrina","latitude":"23.31S","longitude":"51.55W"}
{"date":"2013-06-01","average_temperature":"18.632","city":"Long Beach","latitude":"32.95N","longitude":"117.77W"}
{"date":"2010-08-01","average_temperature":"21.115","city":"Longjiang","latitude":"47.42N","longitude":"124.34E"}
{"date":"2012-11-01","average_temperature":"13.902999999999999","city":"Los Angeles","latitude":"34.56N","longitude":"118.70W"}
{"date":"2013-06-01","average_temperature":"18.924","city":"Los Reyes","latitude":"20.09N","longitude":"98.96W"}
{"date":"2010-08-01","average_temperature":"19.005000000000006","city":"Luanshya","latitude":"13.66S","longitude":"28.90E"}
{"date":"2010-01-01","average_temperature":"4.1370000000000005","city":"Lubbock","latitude":"32.95N","longitude":"102.45W"}
{"date":"2011-01-01","average_temperature":"11.537","city":"Ludhiana","latitude":"31.35N","longitude":"75.39E"}
{"date":"2010-03-01","average_temperature":"8.691","city":"Luohe","latitude":"32.95N","longitude":"113.94E"}
{"date":"2013-05-01","average_temperature":"21.826999999999998","city":"Luoyang","latitude":"34.56N","longitude":"112.86E"}
{"date":"2012-08-01","average_temperature":"28.044","city":"Luzhou","latitude":"29.74N","longitude":"105.23E"}
{"date":"2010-01-01","average_temperature":"-8.354","city":"Lvov","latitude":"50.63N","longitude":"24.08E"}
{"date":"2011-07-01","average_temperature":"22.434","city":"Lyubertsy","latitude":"55.45N","longitude":"36.85E"}
{"date":"2011-06-01","average_temperature":"19.625","city":"Móstoles","latitude":"40.99N","longitude":"4.26W"}
{"date":"2012-09-01","average_temperature":"24.607000000000006","city":"Maba","latitude":"24.92N","longitude":"113.50E"}
{"date":"2012-10-01","average_temperature":"28.258000000000006","city":"Madiun","latitude":"7.23S","longitude":"111.08E"}
{"date":"2013-02-01","average_temperature":"28.578000000000003","city":"Magangué","latitude":"8.84N","longitude":"75.41W"}
{"date":"2010-12-01","average_temperature":"4.92","city":"Mahabad","latitude":"36.17N","longitude":"45.75E"}
{"date":"2012-09-01","average_temperature":"26.54","city":"Mahajanga","latitude":"15.27S","longitude":"45.83E"}
{"date":"2012-08-01","average_temperature":"30.312","city":"Maicao","latitude":"12.05N","longitude":"72.33W"}
{"date":"2010-10-01","average_temperature":"29.873","city":"Maiduguri","latitude":"12.05N","longitude":"13.15E"}
{"date":"2011-11-01","average_temperature":"26.342","city":"Maiduguri","latitude":"12.05N","longitude":"13.15E"}
{"date":"2010-01-01","average_temperature":"-3.5540000000000003","city":"Mainz","latitude":"50.63N","longitude":"8.87E"}
{"date":"2011-12-01","average_temperature":"23.001","city":"Maisuru","latitude":"12.05N","longitude":"77.26E"}
{"date":"2012-05-01","average_temperature":"28.447000000000006","city":"Maisuru","latitude":"12.05N","longitude":"77.26E"}
{"date":"2011-02-01","average_temperature":"29.791999999999998","city":"Makurdi","latitude":"7.23N","longitude":"8.92E"}
{"date":"2011-04-01","average_temperature":"26.965","city":"Malabo","latitude":"4.02N","longitude":"8.84E"}
{"date":"2012-01-01","average_temperature":"25.537","city":"Managua","latitude":"12.05N","longitude":"85.48W"}
{"date":"2010-09-01","average_temperature":"28.123","city":"Manbij","latitude":"36.17N","longitude":"37.79E"}
{"date":"2010-12-01","average_temperature":"9.496","city":"Manbij","latitude":"36.17N","longitude":"37.79E"}
{"date":"2011-10-01","average_temperature":"19.195","city":"Manbij","latitude":"36.17N","longitude":"37.79E"}
{"date":"2011-12-01","average_temperature":"13.095999999999998","city":"Mandi Bahauddin","latitude":"32.95N","longitude":"73.72E"}
{"date":"2012-02-01","average_temperature":"25.849","city":"Manta","latitude":"0.80S","longitude":"81.16W"}
{"date":"2013-08-01","average_temperature":"28.491999999999997","city":"Manzanillo","latitude":"20.09N","longitude":"76.78W"}
{"date":"2010-09-01","average_temperature":"12.896","city":"Mar Del Plata","latitude":"37.78S","longitude":"56.95W"}
{"date":"2013-02-01","average_temperature":"20.514","city":"Mar Del Plata","latitude":"37.78S","longitude":"56.95W"}
{"date":"2013-04-01","average_temperature":"27.526","city":"Maracanaú","latitude":"4.02S","longitude":"39.38W"}
{"date":"2011-01-01","average_temperature":"26.143","city":"Marawi","latitude":"7.23N","longitude":"124.05E"}
{"date":"2012-06-01","average_temperature":"27.22","city":"Mariara","latitude":"10.45N","longitude":"67.91W"}
{"date":"2012-03-01","average_temperature":"4.196999999999999","city":"Marivan","latitude":"36.17N","longitude":"45.75E"}
{"date":"2012-04-01","average_temperature":"15.481","city":"Marrakesh","latitude":"31.35N","longitude":"7.54W"}
{"date":"2012-10-01","average_temperature":"19.167","city":"Mataró","latitude":"40.99N","longitude":"2.13E"}
{"date":"2013-07-01","average_temperature":"26.915000000000006","city":"Matsubara","latitude":"34.56N","longitude":"136.22E"}
{"date":"2013-01-01","average_temperature":"25.325","city":"Mawlamyine","latitude":"16.87N","longitude":"97.12E"}
{"date":"2012-07-01","average_temperature":"24.659000000000002","city":"Mbandaka","latitude":"0.80N","longitude":"18.48E"}
{"date":"2013-09-01","city":"Mbandaka","latitude":"0.80N","longitude":"18.48E"}
{"date":"2010-06-01","average_temperature":"18.098","city":"Mbeya","latitude":"8.84S","longitude":"33.24E"}
{"date":"2012-09-01","average_temperature":"22.596999999999998","city":"Mbouda","latitude":"5.63N","longitude":"9.69E"}
{"date":"2010-01-01","average_temperature":"27.366","city":"Melaka","latitude":"2.41N","longitude":"102.05E"}
{"date":"2013-02-01","average_temperature":"25.201","city":"Mendoza","latitude":"32.95S","longitude":"67.98W"}
{"date":"2011-11-01","average_temperature":"23.44","city":"Mercedes","latitude":"32.95S","longitude":"66.06W"}
{"date":"2012-09-01","average_temperature":"16.998","city":"Mercedes","latitude":"32.95S","longitude":"66.06W"}
{"date":"2013-03-01","average_temperature":"28.764","city":"Mergui","latitude":"12.05N","longitude":"98.63E"}
{"date":"2010-02-01","average_temperature":"4.924","city":"Mesquite","latitude":"32.95N","longitude":"96.70W"}
{"date":"2013-06-01","average_temperature":"26.981","city":"Metro","latitude":"5.63S","longitude":"104.93E"}
{"date":"2010-12-01","average_temperature":"19.248","city":"Middelburg","latitude":"26.52S","longitude":"28.66E"}
{"date":"2010-03-01","average_temperature":"17.578","city":"Miramar","latitude":"26.52N","longitude":"80.60W"}
{"date":"2012-02-01","average_temperature":"26.295","city":"Miri","latitude":"4.02N","longitude":"113.30E"}
{"date":"2010-03-01","average_temperature":"6.103","city":"Mitaka","latitude":"36.17N","longitude":"139.23E"}
{"date":"2010-10-01","average_temperature":"15.880999999999998","city":"Mitaka","latitude":"36.17N","longitude":"139.23E"}
{"date":"2013-09-01","average_temperature":"21.815","city":"Mixco","latitude":"15.27N","longitude":"90.83W"}
{"date":"2010-09-01","average_temperature":"13.821","city":"Montevideo","latitude":"34.56S","longitude":"56.43W"}
{"date":"2012-06-01","average_temperature":"18.364","city":"Montreal","latitude":"45.81N","longitude":"72.69W"}
{"date":"2010-12-01","average_temperature":"15.405","city":"Morena","latitude":"26.52N","longitude":"78.81E"}
{"date":"2010-11-01","average_temperature":"11.181","city":"Moreno Valley","latitude":"34.56N","longitude":"116.76W"}
{"date":"2013-04-01","average_temperature":"30.61","city":"Morvi","latitude":"23.31N","longitude":"70.78E"}
{"date":"2011-05-01","average_temperature":"27.715","city":"Mossoró","latitude":"5.63S","longitude":"37.13W"}
{"date":"2010-03-01","average_temperature":"25.439","city":"Muzaffarpur","latitude":"26.52N","longitude":"85.97E"}
{"date":"2013-06-01","average_temperature":"29.33","city":"Muzaffarpur","latitude":"26.52N","longitude":"85.97E"}
{"date":"2012-12-01","average_temperature":"23.226","city":"Mwanza","latitude":"2.41S","longitude":"32.95E"}
{"date":"2013-08-01","average_temperature":"26.49","city":"Nagaoka","latitude":"37.78N","longitude":"138.31E"}
{"date":"2012-12-01","average_temperature":"26.986","city":"Nagercoil","latitude":"8.84N","longitude":"77.03E"}
{"date":"2011-06-01","average_temperature":"30.006","city":"Nagpur","latitude":"21.70N","longitude":"78.75E"}
{"date":"2012-12-01","average_temperature":"20.465","city":"Nagpur","latitude":"21.70N","longitude":"78.75E"}
{"date":"2013-08-01","average_temperature":"25.93","city":"Nagpur","latitude":"21.70N","longitude":"78.75E"}
{"date":"2011-09-01","average_temperature":"29.092","city":"Naihati","latitude":"23.31N","longitude":"88.25E"}
{"date":"2013-06-01","average_temperature":"29.188","city":"Nakhon Ratchasima","latitude":"15.27N","longitude":"102.50E"}
{"date":"2011-06-01","average_temperature":"28.386999999999997","city":"Nakhon Si Thammarat","latitude":"8.84N","longitude":"99.73E"}
{"date":"2013-03-01","average_temperature":"1.257","city":"Nanpiao","latitude":"40.99N","longitude":"121.42E"}
{"date":"2012-11-01","average_temperature":"7.9769999999999985","city":"Nantes","latitude":"47.42N","longitude":"1.18W"}
{"date":"2012-02-01","average_temperature":"3.158","city":"Nanyang","latitude":"32.95N","longitude":"112.02E"}
{"date":"2011-05-01","average_temperature":"19.180999999999997","city":"Nashville","latitude":"36.17N","longitude":"87.51W"}
{"date":"2013-02-01","average_temperature":"22.776","city":"Nassau","latitude":"24.92N","longitude":"78.03W"}
{"date":"2010-01-01","average_temperature":"27.37","city":"Natal","latitude":"5.63S","longitude":"35.52W"}
{"date":"2011-05-01","average_temperature":"26.016","city":"Natal","latitude":"5.63S","longitude":"35.52W"}
{"date":"2013-08-01","average_temperature":"17.881999999999994","city":"Naucalpan","latitude":"20.09N","longitude":"98.96W"}
{"date":"2011-12-01","average_temperature":"19.767000000000003","city":"Navadwip","latitude":"23.31N","longitude":"88.25E"}
{"date":"2011-02-01","average_temperature":"22.982","city":"Navsari","latitude":"20.09N","longitude":"73.36E"}
{"date":"2012-03-01","average_temperature":"26.191999999999997","city":"Navsari","latitude":"20.09N","longitude":"73.36E"}
{"date":"2013-05-01","average_temperature":"20.773000000000003","city":"Nazilli","latitude":"37.78N","longitude":"28.47E"}
{"date":"2010-07-01","average_temperature":"21.21","city":"Nehe","latitude":"49.03N","longitude":"124.90E"}
{"date":"2012-07-01","average_temperature":"21.844","city":"Nehe","latitude":"49.03N","longitude":"124.90E"}
{"date":"2012-12-01","average_temperature":"18.432000000000002","city":"Neuquen","latitude":"39.38S","longitude":"68.67W"}
{"date":"2013-02-01","average_temperature":"3.143","city":"Newport","latitude":"52.24N","longitude":"2.63W"}
{"date":"2010-06-01","average_temperature":"32.832","city":"Nguru","latitude":"13.66N","longitude":"10.73E"}
{"date":"2011-02-01","average_temperature":"14.557","city":"Nicolás Romero","latitude":"20.09N","longitude":"98.96W"}
{"date":"2012-03-01","average_temperature":"5.617000000000001","city":"Niiza","latitude":"36.17N","longitude":"139.23E"}
{"date":"2010-07-01","average_temperature":"21.179000000000002","city":"Nis","latitude":"42.59N","longitude":"21.82E"}
{"date":"2010-08-01","average_temperature":"22.443","city":"Nis","latitude":"42.59N","longitude":"21.82E"}
{"date":"2012-05-01","average_temperature":"15.282","city":"Nizhnekamsk","latitude":"55.45N","longitude":"51.02E"}
{"date":"2013-02-01","average_temperature":"29.249000000000002","city":"Nkpor","latitude":"5.63N","longitude":"6.46E"}
{"date":"2013-06-01","average_temperature":"25.375999999999998","city":"Nossa Senhora Do Socorro","latitude":"10.45S","longitude":"36.82W"}
{"date":"2013-09-01","city":"Nouakchott","latitude":"18.48N","longitude":"15.21W"}
{"date":"2011-09-01","average_temperature":"20.012999999999998","city":"Nova Friburgo","latitude":"21.70S","longitude":"42.40W"}
{"date":"2012-12-01","average_temperature":"24.851","city":"Novo Hamburgo","latitude":"29.74S","longitude":"51.69W"}
{"date":"2011-08-01","average_temperature":"14.707","city":"Novosibirsk","latitude":"55.45N","longitude":"82.20E"}
{"date":"2013-08-01","average_temperature":"21.793000000000003","city":"Nyíregyháza","latitude":"47.42N","longitude":"22.50E"}
{"date":"2011-08-01","average_temperature":"24.701999999999998","city":"Obuasi","latitude":"5.63N","longitude":"1.61W"}
{"date":"2013-04-01","average_temperature":"13.069","city":"Ogaki","latitude":"34.56N","longitude":"136.22E"}
{"date":"2012-01-01","average_temperature":"-0.6729999999999999","city":"Omaha","latitude":"40.99N","longitude":"95.86W"}
{"date":"2012-10-01","average_temperature":"6.562","city":"Orekhovo Zuevo","latitude":"55.45N","longitude":"39.69E"}
{"date":"2012-05-01","average_temperature":"27.198","city":"Orizaba","latitude":"18.48N","longitude":"96.34W"}
{"date":"2012-08-01","average_temperature":"25.621","city":"Orizaba","latitude":"18.48N","longitude":"96.34W"}
{"date":"2012-06-01","average_temperature":"26.541999999999998","city":"Oron","latitude":"5.63N","longitude":"8.07E"}
{"date":"2012-02-01","average_temperature":"11.413","city":"Oruro","latitude":"18.48S","longitude":"67.61W"}
{"date":"2013-04-01","average_temperature":"11.31","city":"Ota","latitude":"36.17N","longitude":"139.23E"}
{"date":"2011-11-01","average_temperature":"26.921999999999997","city":"Owo","latitude":"7.23N","longitude":"5.68E"}
{"date":"2013-09-01","city":"Pécs","latitude":"45.81N","longitude":"17.31E"}
{"date":"2013-02-01","average_temperature":"20.214000000000002","city":"Paarl","latitude":"34.56S","longitude":"19.46E"}
{"date":"2011-12-01","average_temperature":"19.654","city":"Pabna","latitude":"23.31N","longitude":"90.00E"}
{"date":"2012-06-01","average_temperature":"29.892","city":"Pabna","latitude":"23.31N","longitude":"90.00E"}
{"date":"2011-01-01","average_temperature":"17.063","city":"Palanpur","latitude":"24.92N","longitude":"72.71E"}
{"date":"2012-04-01","average_temperature":"29.096","city":"Palanpur","latitude":"24.92N","longitude":"72.71E"}
{"date":"2011-08-01","average_temperature":"28.651999999999997","city":"Palma Soriano","latitude":"20.09N","longitude":"76.78W"}
{"date":"2013-01-01","average_temperature":"8.812999999999999","city":"Palmdale","latitude":"34.56N","longitude":"118.70W"}
{"date":"2011-02-01","average_temperature":"25.416999999999998","city":"Palo Negro","latitude":"10.45N","longitude":"67.91W"}
{"date":"2011-03-01","average_temperature":"23.864","city":"Palwal","latitude":"28.13N","longitude":"77.27E"}
{"date":"2010-11-01","average_temperature":"26.562","city":"Pamanukan","latitude":"5.63S","longitude":"108.16E"}
{"date":"2010-02-01","average_temperature":"4.986000000000001","city":"Pamplona","latitude":"42.59N","longitude":"2.18W"}
{"date":"2012-05-01","average_temperature":"14.86","city":"Paris","latitude":"49.03N","longitude":"2.45E"}
{"date":"2013-07-01","average_temperature":"27.750999999999998","city":"Parnaíba","latitude":"2.41S","longitude":"40.98W"}
{"date":"2010-08-01","average_temperature":"25.016","city":"Parnamirim","latitude":"5.63S","longitude":"35.52W"}
{"date":"2011-08-01","average_temperature":"25.081999999999997","city":"Parnamirim","latitude":"5.63S","longitude":"35.52W"}
{"date":"2013-04-01","average_temperature":"27.642","city":"Parung","latitude":"5.63S","longitude":"106.55E"}
{"date":"2011-06-01","average_temperature":"29.319000000000003","city":"Pasadena","latitude":"29.74N","longitude":"96.00W"}
{"date":"2012-01-01","average_temperature":"14.181","city":"Pasadena","latitude":"29.74N","longitude":"96.00W"}
{"date":"2010-09-01","average_temperature":"12.704","city":"Pavlodar","latitude":"52.24N","longitude":"76.20E"}
{"date":"2012-02-01","average_temperature":"-1.835","city":"Peking","latitude":"39.38N","longitude":"116.53E"}
{"date":"2012-01-01","average_temperature":"24.851","city":"Pelotas","latitude":"31.35S","longitude":"52.77W"}
{"date":"2013-02-01","average_temperature":"26.842","city":"Pemalang","latitude":"7.23S","longitude":"109.46E"}
{"date":"2012-10-01","average_temperature":"23.183000000000003","city":"Peoria","latitude":"32.95N","longitude":"112.02W"}
{"date":"2013-06-01","average_temperature":"17.01","city":"Perpignan","latitude":"42.59N","longitude":"2.18E"}
{"date":"2012-04-01","average_temperature":"8.214","city":"Pervouralsk","latitude":"57.05N","longitude":"60.49E"}
{"date":"2010-12-01","average_temperature":"9.904","city":"Pescara","latitude":"42.59N","longitude":"15.27E"}
{"date":"2012-06-01","average_temperature":"23.859","city":"Pescara","latitude":"42.59N","longitude":"15.27E"}
{"date":"2012-07-01","average_temperature":"30.305999999999997","city":"Peshawar","latitude":"34.56N","longitude":"72.00E"}
{"date":"2013-04-01","average_temperature":"27.956999999999997","city":"Petaling Jaya","latitude":"2.41N","longitude":"102.05E"}
{"date":"2010-06-01","average_temperature":"21.572","city":"Petapa","latitude":"15.27N","longitude":"90.83W"}
{"date":"2011-04-01","average_temperature":"26.805","city":"Petrolina","latitude":"8.84S","longitude":"39.73W"}
{"date":"2013-07-01","average_temperature":"15.607000000000001","city":"Petrozavodsk","latitude":"61.88N","longitude":"35.66E"}
{"date":"2011-10-01","average_temperature":"9.488999999999999","city":"Pforzheim","latitude":"49.03N","longitude":"9.80E"}
{"date":"2011-03-01","average_temperature":"25.025","city":"Phalaborwa","latitude":"23.31S","longitude":"30.58E"}
{"date":"2010-01-01","average_temperature":"26.722","city":"Phan Thiet","latitude":"10.45N","longitude":"107.18E"}
{"date":"2010-06-01","average_temperature":"30.215999999999998","city":"Phitsanulok","latitude":"16.87N","longitude":"100.47E"}
{"date":"2010-04-01","average_temperature":"32.438","city":"Pilibhit","latitude":"28.13N","longitude":"79.09E"}
{"date":"2012-08-01","average_temperature":"27.934","city":"Pinar Del Río","latitude":"21.70N","longitude":"83.94W"}
{"date":"2010-04-01","average_temperature":"20.855","city":"Pindamonhangaba","latitude":"23.31S","longitude":"46.31W"}
{"date":"2010-09-01","average_temperature":"21.117","city":"Pingdingshan","latitude":"34.56N","longitude":"112.86E"}
{"date":"2011-01-01","average_temperature":"1.7559999999999998","city":"Pingxiang","latitude":"28.13N","longitude":"113.64E"}
{"date":"2010-05-01","average_temperature":"24.023000000000003","city":"Plano","latitude":"32.95N","longitude":"96.70W"}
{"date":"2011-11-01","average_temperature":"2.625","city":"Pleven","latitude":"44.20N","longitude":"24.60E"}
{"date":"2013-05-01","average_temperature":"19.564","city":"Pleven","latitude":"44.20N","longitude":"24.60E"}
{"date":"2010-06-01","average_temperature":"18.083","city":"Poços De Caldas","latitude":"21.70S","longitude":"45.87W"}
{"date":"2011-09-01","average_temperature":"30.6","city":"Pondicherry","latitude":"12.05N","longitude":"80.55E"}
{"date":"2012-07-01","average_temperature":"29.111","city":"Port Au Prince","latitude":"18.48N","longitude":"72.68W"}
{"date":"2013-01-01","average_temperature":"27.279","city":"Port Harcourt","latitude":"4.02N","longitude":"7.23E"}
{"date":"2010-04-01","average_temperature":"22.778000000000002","city":"Port Saint Lucie","latitude":"26.52N","longitude":"80.60W"}
{"date":"2010-10-01","average_temperature":"24.095","city":"Potgietersrus","latitude":"23.31S","longitude":"28.83E"}
{"date":"2013-05-01","average_temperature":"8.096","city":"Potosí","latitude":"20.09S","longitude":"66.54W"}
{"date":"2010-12-01","average_temperature":"23.895","city":"Pouso Alegre","latitude":"21.70S","longitude":"45.87W"}
{"date":"2010-06-01","average_temperature":"25.864","city":"Prabumulih","latitude":"4.02S","longitude":"103.66E"}
{"date":"2011-06-01","average_temperature":"26.144000000000002","city":"Prabumulih","latitude":"4.02S","longitude":"103.66E"}
{"date":"2013-01-01","average_temperature":"-0.09299999999999996","city":"Pristina","latitude":"42.59N","longitude":"21.82E"}
{"date":"2013-09-01","city":"Pristina","latitude":"42.59N","longitude":"21.82E"}
{"date":"2013-02-01","average_temperature":"-14.465","city":"Prokopyevsk","latitude":"53.84N","longitude":"85.91E"}
{"date":"2010-08-01","average_temperature":"29.205","city":"Pudukkottai","latitude":"10.45N","longitude":"79.36E"}
{"date":"2010-07-01","average_temperature":"3.465","city":"Puerto Montt","latitude":"40.99S","longitude":"72.43W"}
{"date":"2010-10-01","average_temperature":"28.722","city":"Puerto Plata","latitude":"20.09N","longitude":"69.95W"}
{"date":"2011-02-01","average_temperature":"-1.7719999999999998","city":"Pulandian","latitude":"39.38N","longitude":"122.77E"}
{"date":"2011-09-01","average_temperature":"27.253","city":"Purwodadi","latitude":"7.23S","longitude":"111.08E"}
{"date":"2010-08-01","average_temperature":"26.378","city":"Qarchak","latitude":"36.17N","longitude":"51.71E"}
{"date":"2012-07-01","average_temperature":"23.989","city":"Qianguo","latitude":"45.81N","longitude":"125.77E"}
{"date":"2010-12-01","average_temperature":"3.625","city":"Qingdao","latitude":"36.17N","longitude":"121.33E"}
{"date":"2013-01-01","average_temperature":"-5.82","city":"Qinhuangdao","latitude":"39.38N","longitude":"118.61E"}
{"date":"2012-03-01","average_temperature":"23.712","city":"Rae Bareli","latitude":"26.52N","longitude":"80.60E"}
{"date":"2012-02-01","average_temperature":"20.89","city":"Raiganj","latitude":"24.92N","longitude":"88.67E"}
{"date":"2012-02-01","average_temperature":"23.413","city":"Raigarh","latitude":"21.70N","longitude":"83.94E"}
{"date":"2010-07-01","average_temperature":"27.855","city":"Raipur","latitude":"21.70N","longitude":"82.21E"}
{"date":"2011-11-01","average_temperature":"26.843000000000004","city":"Rajkot","latitude":"21.70N","longitude":"70.10E"}
{"date":"2010-08-01","average_temperature":"13.4","city":"Randfontein","latitude":"26.52S","longitude":"26.87E"}
{"date":"2011-06-01","average_temperature":"21.944000000000006","city":"Ranghulu","latitude":"47.42N","longitude":"124.34E"}
{"date":"2012-08-01","average_temperature":"26.84","city":"Ratlam","latitude":"23.31N","longitude":"74.27E"}
{"date":"2010-06-01","average_temperature":"20.088","city":"Ravenna","latitude":"44.20N","longitude":"11.18E"}
{"date":"2013-01-01","average_temperature":"23.094","city":"Ribeirão Das Neves","latitude":"20.09S","longitude":"44.36W"}
{"date":"2013-04-01","average_temperature":"20.194000000000006","city":"Richards Bay","latitude":"28.13S","longitude":"31.82E"}
{"date":"2010-04-01","average_temperature":"18.656","city":"Richardson","latitude":"32.95N","longitude":"96.70W"}
{"date":"2010-10-01","average_temperature":"16.186","city":"Rio Cuarto","latitude":"32.95S","longitude":"64.15W"}
{"date":"2011-04-01","average_temperature":"26.131","city":"Rio De Janeiro","latitude":"23.31S","longitude":"42.82W"}
{"date":"2011-03-01","average_temperature":"12.272","city":"Riverside","latitude":"34.56N","longitude":"116.76W"}
{"date":"2012-04-01","average_temperature":"9.844","city":"Rivne","latitude":"50.63N","longitude":"26.62E"}
{"date":"2012-03-01","average_temperature":"5.1190000000000015","city":"Rizhao","latitude":"36.17N","longitude":"119.34E"}
{"date":"2010-09-01","average_temperature":"17.19","city":"Rongcheng","latitude":"26.52N","longitude":"103.88E"}
{"date":"2011-03-01","average_temperature":"5.917000000000001","city":"Rotterdam","latitude":"52.24N","longitude":"5.26E"}
{"date":"2011-06-01","average_temperature":"16.364","city":"Rouen","latitude":"49.03N","longitude":"0.00W"}
{"date":"2011-04-01","average_temperature":"10.872","city":"Ruda Slaska","latitude":"50.63N","longitude":"19.01E"}
{"date":"2012-01-01","average_temperature":"-1.101","city":"Ruda Slaska","latitude":"50.63N","longitude":"19.01E"}
{"date":"2012-05-01","average_temperature":"22.115","city":"Ruiru","latitude":"0.80S","longitude":"37.77E"}
{"date":"2010-11-01","average_temperature":"23.529","city":"São Gonçalo","latitude":"23.31S","longitude":"42.82W"}
{"date":"2011-11-01","average_temperature":"22.294","city":"São João De Meriti","latitude":"23.31S","longitude":"42.82W"}
{"date":"2010-10-01","average_temperature":"19.398","city":"São Vicente","latitude":"23.31S","longitude":"46.31W"}
{"date":"2012-04-01","average_temperature":"21.351999999999997","city":"São Vicente","latitude":"23.31S","longitude":"46.31W"}
{"date":"2010-03-01","average_temperature":"12.308","city":"Sacramento","latitude":"37.78N","longitude":"122.03W"}
{"date":"2013-07-01","average_temperature":"20.656999999999996","city":"Sacramento","latitude":"37.78N","longitude":"122.03W"}
{"date":"2013-04-01","average_temperature":"30.247","city":"Sagar","latitude":"23.31N","longitude":"79.51E"}
{"date":"2012-10-01","average_temperature":"22.522","city":"Saint Denis","latitude":"21.70S","longitude":"56.25E"}
{"date":"2011-08-01","average_temperature":"16.426000000000002","city":"Saint Petersburg","latitude":"60.27N","longitude":"29.19E"}
{"date":"2012-12-01","average_temperature":"2.9609999999999994","city":"Saitama","latitude":"36.17N","longitude":"139.23E"}
{"date":"2011-01-01","average_temperature":"4.321000000000001","city":"Sakura","latitude":"36.17N","longitude":"141.22E"}
{"date":"2012-10-01","average_temperature":"11.175999999999998","city":"Salem","latitude":"44.20N","longitude":"122.98W"}
{"date":"2012-10-01","average_temperature":"17.372999999999998","city":"Salinas","latitude":"36.17N","longitude":"121.33W"}
{"date":"2013-03-01","average_temperature":"5.968999999999999","city":"Salt Lake City","latitude":"40.99N","longitude":"112.90W"}
{"date":"2012-02-01","average_temperature":"18.958","city":"Salta","latitude":"24.92S","longitude":"65.62W"}
{"date":"2011-05-01","average_temperature":"11.167","city":"Salzburg","latitude":"47.42N","longitude":"13.03E"}
{"date":"2013-08-01","average_temperature":"15.383","city":"Salzburg","latitude":"47.42N","longitude":"13.03E"}
{"date":"2012-08-01","average_temperature":"27.211","city":"Samarinda","latitude":"0.80S","longitude":"116.52E"}
{"date":"2013-01-01","average_temperature":"26.355","city":"Samut Prakan","latitude":"13.66N","longitude":"99.91E"}
{"date":"2013-08-01","average_temperature":"28.351000000000006","city":"Samut Prakan","latitude":"13.66N","longitude":"99.91E"}
{"date":"2010-05-01","average_temperature":"27.803","city":"San Cristóbal","latitude":"18.48N","longitude":"69.30W"}
{"date":"2010-03-01","average_temperature":"14.462","city":"San Diego","latitude":"32.95N","longitude":"117.77W"}
{"date":"2011-09-01","average_temperature":"19.904","city":"San Diego","latitude":"32.95N","longitude":"117.77W"}
{"date":"2010-01-01","average_temperature":"11.154000000000002","city":"San Luis Potosí","latitude":"21.70N","longitude":"101.25W"}
{"date":"2010-02-01","average_temperature":"11.7","city":"San Luis Potosí","latitude":"21.70N","longitude":"101.25W"}
{"date":"2010-06-01","average_temperature":"28.514","city":"San Mateo","latitude":"15.27N","longitude":"120.83E"}
{"date":"2011-10-01","average_temperature":"25.778000000000002","city":"San Pédro","latitude":"5.63N","longitude":"6.46W"}
{"date":"2010-07-01","average_temperature":"27.653000000000002","city":"San Pablo","latitude":"13.66N","longitude":"121.38E"}
{"date":"2013-08-01","average_temperature":"27.433000000000003","city":"San Pedro","latitude":"13.66N","longitude":"121.38E"}
{"date":"2011-01-01","average_temperature":"25.129","city":"San Pedro De Macorís","latitude":"18.48N","longitude":"69.30W"}
{"date":"2011-04-01","average_temperature":"22.290000000000006","city":"Sanbu","latitude":"21.70N","longitude":"113.37E"}
{"date":"2011-07-01","average_temperature":"26.517","city":"Sanda","latitude":"34.56N","longitude":"134.27E"}
{"date":"2010-02-01","average_temperature":"2.16","city":"Sanmenxia","latitude":"34.56N","longitude":"110.92E"}
{"date":"2010-04-01","average_temperature":"10.79","city":"Sanmenxia","latitude":"34.56N","longitude":"110.92E"}
{"date":"2011-05-01","average_temperature":"27.546","city":"Santa Ana","latitude":"13.66N","longitude":"90.00W"}
{"date":"2013-09-01","average_temperature":"21.391","city":"Santa Ana","latitude":"32.95N","longitude":"117.77W"}
{"date":"2013-09-01","average_temperature":"28.619","city":"Santa Clara","latitude":"21.70N","longitude":"80.48W"}
{"date":"2010-07-01","average_temperature":"19.191","city":"Santa Clara","latitude":"37.78N","longitude":"122.03W"}
{"date":"2012-07-01","average_temperature":"12.217","city":"Santa Cruz Do Sul","latitude":"29.74S","longitude":"51.69W"}
{"date":"2013-09-01","city":"Santa Fe","latitude":"31.35S","longitude":"60.31W"}
{"date":"2011-06-01","average_temperature":"27.416999999999998","city":"Santa Marta","latitude":"10.45N","longitude":"74.45W"}
{"date":"2012-10-01","average_temperature":"26.353","city":"Santa Rita","latitude":"7.23S","longitude":"34.86W"}
{"date":"2011-03-01","average_temperature":"21.92","city":"Santo André","latitude":"23.31S","longitude":"46.31W"}
{"date":"2013-01-01","average_temperature":"24.773000000000003","city":"Santo Domingo","latitude":"18.48N","longitude":"69.30W"}
{"date":"2010-03-01","average_temperature":"29.451","city":"Satkhira","latitude":"23.31N","longitude":"88.25E"}
{"date":"2011-01-01","average_temperature":"-1.719","city":"Satu Mare","latitude":"47.42N","longitude":"22.50E"}
{"date":"2012-05-01","average_temperature":"16.477999999999998","city":"Satu Mare","latitude":"47.42N","longitude":"22.50E"}
{"date":"2013-01-01","average_temperature":"26.741999999999997","city":"Serang","latitude":"5.63S","longitude":"106.55E"}
{"date":"2010-05-01","average_temperature":"16.284000000000002","city":"Serpukhov","latitude":"55.45N","longitude":"36.85E"}
{"date":"2011-12-01","average_temperature":"-13.687999999999999","city":"Seversk","latitude":"57.05N","longitude":"84.10E"}
{"date":"2010-08-01","average_temperature":"24.953000000000007","city":"Shahreza","latitude":"31.35N","longitude":"52.77E"}
{"date":"2010-03-01","average_temperature":"12.853","city":"Shaowu","latitude":"28.13N","longitude":"117.27E"}
{"date":"2011-02-01","average_temperature":"14.876","city":"Shaping","latitude":"23.31N","longitude":"112.72E"}
{"date":"2010-08-01","average_temperature":"36.26300000000001","city":"Sharjah","latitude":"24.92N","longitude":"54.98E"}
{"date":"2011-12-01","average_temperature":"20.234","city":"Sharjah","latitude":"24.92N","longitude":"54.98E"}
{"date":"2012-04-01","average_temperature":"6.742000000000001","city":"Sheffield","latitude":"53.84N","longitude":"1.36W"}
{"date":"2012-11-01","average_temperature":"-0.448","city":"Sherbrooke","latitude":"45.81N","longitude":"72.69W"}
{"date":"2011-01-01","average_temperature":"14.073","city":"Shikarpur","latitude":"28.13N","longitude":"68.18E"}
{"date":"2010-07-01","average_temperature":"26.908","city":"Shiliguri","latitude":"26.52N","longitude":"87.76E"}
{"date":"2013-03-01","average_temperature":"24.618","city":"Shillong","latitude":"24.92N","longitude":"92.22E"}
{"date":"2012-01-01","average_temperature":"11.238","city":"Shilong","latitude":"23.31N","longitude":"114.47E"}
{"date":"2011-06-01","average_temperature":"19.81","city":"Shimla","latitude":"31.35N","longitude":"77.28E"}
{"date":"2012-12-01","average_temperature":"23.273000000000003","city":"Shinyanga","latitude":"4.02S","longitude":"32.95E"}
{"date":"2012-06-01","average_temperature":"26.539","city":"Shishou","latitude":"29.74N","longitude":"112.62E"}
{"date":"2012-01-01","average_temperature":"-21.47","city":"Shuangyashan","latitude":"47.42N","longitude":"131.45E"}
{"date":"2010-07-01","average_temperature":"28.586","city":"Shulin","latitude":"24.92N","longitude":"120.59E"}
{"date":"2013-08-01","average_temperature":"28.659","city":"Shulin","latitude":"24.92N","longitude":"120.59E"}
{"date":"2011-01-01","average_temperature":"25.813000000000002","city":"Si Racha","latitude":"13.66N","longitude":"101.56E"}
{"date":"2013-02-01","average_temperature":"-1.6149999999999998","city":"Siauliai","latitude":"55.45N","longitude":"22.68E"}
{"date":"2011-02-01","average_temperature":"2.093","city":"Siirt","latitude":"37.78N","longitude":"42.71E"}
{"date":"2013-05-01","average_temperature":"17.14","city":"Siirt","latitude":"37.78N","longitude":"42.71E"}
{"date":"2010-01-01","average_temperature":"17.268","city":"Silchar","latitude":"24.92N","longitude":"92.22E"}
{"date":"2010-02-01","average_temperature":"10.353","city":"Simi Valley","latitude":"34.56N","longitude":"118.70W"}
{"date":"2012-10-01","average_temperature":"29.979","city":"Sinnar","latitude":"13.66N","longitude":"33.85E"}
{"date":"2010-07-01","average_temperature":"21.179000000000002","city":"Skopje","latitude":"42.59N","longitude":"21.82E"}
{"date":"2011-04-01","average_temperature":"12.071","city":"Slough","latitude":"52.24N","longitude":"0.00W"}
{"date":"2011-03-01","average_temperature":"19.843","city":"Sogamoso","latitude":"5.63N","longitude":"72.65W"}
{"date":"2012-08-01","average_temperature":"32.08","city":"Sohag","latitude":"26.52N","longitude":"32.24E"}
{"date":"2011-01-01","average_temperature":"0.8170000000000001","city":"Soka","latitude":"36.17N","longitude":"139.23E"}
{"date":"2012-04-01","average_temperature":"29.096","city":"Sokodé","latitude":"8.84N","longitude":"0.81E"}
{"date":"2011-04-01","average_temperature":"2.342","city":"Solikamsk","latitude":"60.27N","longitude":"58.38E"}
{"date":"2012-09-01","average_temperature":"13.822","city":"Solingen","latitude":"50.63N","longitude":"6.34E"}
{"date":"2010-02-01","average_temperature":"23.186999999999998","city":"Songea","latitude":"10.45S","longitude":"35.18E"}
{"date":"2011-10-01","average_temperature":"27.343000000000004","city":"Sorong","latitude":"0.80S","longitude":"130.98E"}
{"date":"2012-09-01","average_temperature":"25.531","city":"Soubré","latitude":"5.63N","longitude":"6.46W"}
{"date":"2010-04-01","average_temperature":"29.22","city":"Srikakulam","latitude":"18.48N","longitude":"84.51E"}
{"date":"2011-05-01","average_temperature":"9.475","city":"Stavanger","latitude":"58.66N","longitude":"6.15E"}
{"date":"2011-06-01","average_temperature":"17.683","city":"Stavropol","latitude":"44.20N","longitude":"42.48E"}
{"date":"2011-12-01","average_temperature":"1.086","city":"Sterling Heights","latitude":"42.59N","longitude":"82.91W"}
{"date":"2013-06-01","average_temperature":"20.026","city":"Sterling Heights","latitude":"42.59N","longitude":"82.91W"}
{"date":"2011-10-01","average_temperature":"17.294999999999998","city":"Stockton","latitude":"37.78N","longitude":"122.03W"}
{"date":"2012-04-01","average_temperature":"8.933","city":"Strasbourg","latitude":"49.03N","longitude":"7.35E"}
{"date":"2010-01-01","average_temperature":"26.254","city":"Sukaraja","latitude":"7.23S","longitude":"106.22E"}
{"date":"2011-05-01","average_temperature":"28.695999999999998","city":"Sungai Petani","latitude":"5.63N","longitude":"100.09E"}
{"date":"2012-01-01","average_temperature":"9.993","city":"Sunnyvale","latitude":"37.78N","longitude":"122.03W"}
{"date":"2011-07-01","average_temperature":"27.83","city":"Sur","latitude":"32.95N","longitude":"35.43E"}
{"date":"2011-03-01","average_temperature":"28.169","city":"Surat","latitude":"21.70N","longitude":"73.56E"}
{"date":"2011-07-01","average_temperature":"29.182","city":"Surendranagar","latitude":"23.31N","longitude":"72.52E"}
{"date":"2012-09-01","average_temperature":"16.430999999999997","city":"Sydney","latitude":"34.56S","longitude":"151.78E"}
{"date":"2010-06-01","average_temperature":"21.77","city":"Syracuse","latitude":"37.78N","longitude":"16.27E"}
{"date":"2011-01-01","average_temperature":"-6.1339999999999995","city":"Syracuse","latitude":"42.59N","longitude":"76.36W"}
{"date":"2012-02-01","average_temperature":"-2.752","city":"Székesfehérvár","latitude":"47.42N","longitude":"17.76E"}
{"date":"2012-07-01","average_temperature":"24.952","city":"Szeged","latitude":"45.81N","longitude":"19.62E"}
{"date":"2011-11-01","average_temperature":"24.26","city":"Tabora","latitude":"5.63S","longitude":"32.29E"}
{"date":"2010-08-01","average_temperature":"33.146","city":"Tabuk","latitude":"28.13N","longitude":"37.27E"}
{"date":"2011-09-01","average_temperature":"17.842","city":"Tacna","latitude":"18.48S","longitude":"70.99W"}
{"date":"2012-12-01","average_temperature":"26.217","city":"Tagum","latitude":"7.23N","longitude":"125.68E"}
{"date":"2012-05-01","average_temperature":"27.381","city":"Taicheng","latitude":"21.70N","longitude":"113.37E"}
{"date":"2012-05-01","average_temperature":"24.708000000000002","city":"Taipei","latitude":"24.92N","longitude":"122.36E"}
{"date":"2012-05-01","average_temperature":"28.373","city":"Taiping","latitude":"4.02N","longitude":"100.45E"}
{"date":"2010-09-01","average_temperature":"24.894","city":"Takarazuka","latitude":"34.56N","longitude":"136.22E"}
{"date":"2010-02-01","average_temperature":"26.84","city":"Talara","latitude":"4.02S","longitude":"81.16W"}
{"date":"2012-04-01","average_temperature":"11.565","city":"Talca","latitude":"36.17S","longitude":"71.60W"}
{"date":"2012-04-01","average_temperature":"28.745","city":"Talisay","latitude":"10.45N","longitude":"123.55E"}
{"date":"2010-06-01","average_temperature":"28.361","city":"Tallahassee","latitude":"29.74N","longitude":"84.92W"}
{"date":"2010-02-01","average_temperature":"19.06","city":"Tando Adam","latitude":"26.52N","longitude":"68.06E"}
{"date":"2013-07-01","average_temperature":"34.693000000000005","city":"Tando Adam","latitude":"26.52N","longitude":"68.06E"}
{"date":"2012-01-01","average_temperature":"14.267000000000001","city":"Tanshui","latitude":"24.92N","longitude":"120.59E"}
{"date":"2012-02-01","average_temperature":"13.98","city":"Tanta","latitude":"31.35N","longitude":"30.16E"}
{"date":"2010-12-01","average_temperature":"22.58","city":"Tapachula","latitude":"15.27N","longitude":"92.50W"}
{"date":"2013-02-01","average_temperature":"8.092","city":"Taranto","latitude":"40.99N","longitude":"17.04E"}
{"date":"2011-04-01","average_temperature":"9.537","city":"Tarsus","latitude":"37.78N","longitude":"34.58E"}
{"date":"2011-09-01","average_temperature":"13.124","city":"Tartu","latitude":"58.66N","longitude":"27.69E"}
{"date":"2011-10-01","average_temperature":"22.142","city":"Tartus","latitude":"34.56N","longitude":"35.03E"}
{"date":"2013-09-01","city":"Teófilo Otoni","latitude":"18.48S","longitude":"42.25W"}
{"date":"2011-10-01","average_temperature":"26.913","city":"Tebingtinggi","latitude":"4.02N","longitude":"98.84E"}
{"date":"2010-08-01","average_temperature":"26.774","city":"Tekirdag","latitude":"40.99N","longitude":"27.69E"}
{"date":"2010-12-01","average_temperature":"26.601999999999997","city":"Teluknaga","latitude":"5.63S","longitude":"106.55E"}
{"date":"2013-05-01","average_temperature":"21.875","city":"Tengzhou","latitude":"34.56N","longitude":"116.76E"}
{"date":"2012-01-01","average_temperature":"18.592","city":"Tepic","latitude":"21.70N","longitude":"104.71W"}
{"date":"2011-11-01","average_temperature":"21.544","city":"Teresópolis","latitude":"21.70S","longitude":"42.40W"}
{"date":"2012-07-01","average_temperature":"29.143","city":"Termiz","latitude":"37.78N","longitude":"67.12E"}
{"date":"2012-11-01","average_temperature":"27.162000000000006","city":"Ternate","latitude":"0.80N","longitude":"127.77E"}
{"date":"2010-10-01","average_temperature":"12.714","city":"Terni","latitude":"42.59N","longitude":"13.09E"}
{"date":"2013-07-01","average_temperature":"18.090999999999998","city":"Texcoco","latitude":"20.09N","longitude":"98.96W"}
{"date":"2013-06-01","average_temperature":"26.682","city":"Tianmen","latitude":"31.35N","longitude":"113.09E"}
{"date":"2010-02-01","average_temperature":"-19.493","city":"Tieli","latitude":"47.42N","longitude":"129.08E"}
{"date":"2011-09-01","average_temperature":"11.614","city":"Tieli","latitude":"47.42N","longitude":"129.08E"}
{"date":"2011-05-01","average_temperature":"15.419","city":"Timisoara","latitude":"45.81N","longitude":"21.92E"}
{"date":"2011-09-01","average_temperature":"26.570999999999998","city":"Tirunelveli","latitude":"8.84N","longitude":"77.03E"}
{"date":"2012-08-01","average_temperature":"26.226999999999997","city":"Tirunelveli","latitude":"8.84N","longitude":"77.03E"}
{"date":"2010-03-01","average_temperature":"29.802","city":"Tiruvannamalai","latitude":"12.05N","longitude":"78.90E"}
{"date":"2013-09-01","city":"Tiruvannamalai","latitude":"12.05N","longitude":"78.90E"}
{"date":"2011-07-01","average_temperature":"25.288","city":"Tokyo","latitude":"36.17N","longitude":"139.23E"}
{"date":"2010-09-01","average_temperature":"21.711","city":"Toluca","latitude":"18.48N","longitude":"99.72W"}
{"date":"2010-01-01","average_temperature":"0.406","city":"Toms River","latitude":"39.38N","longitude":"74.91W"}
{"date":"2012-04-01","average_temperature":"14.908","city":"Tongchuan","latitude":"34.56N","longitude":"108.97E"}
{"date":"2012-04-01","average_temperature":"29.954","city":"Tonk","latitude":"26.52N","longitude":"75.22E"}
{"date":"2013-02-01","average_temperature":"26.75","city":"Toungoo","latitude":"18.48N","longitude":"96.34E"}
{"date":"2012-03-01","average_temperature":"10.079","city":"Toyohashi","latitude":"34.56N","longitude":"138.16E"}
{"date":"2013-01-01","average_temperature":"3.917","city":"Toyota","latitude":"34.56N","longitude":"136.22E"}
{"date":"2013-08-01","average_temperature":"7.540999999999999","city":"Trelew","latitude":"42.59S","longitude":"65.45W"}
{"date":"2012-11-01","average_temperature":"6.822","city":"Trento","latitude":"45.81N","longitude":"10.38E"}
{"date":"2012-05-01","average_temperature":"15.241","city":"Trier","latitude":"49.03N","longitude":"7.35E"}
{"date":"2011-05-01","average_temperature":"30.984","city":"Trincomalee","latitude":"8.84N","longitude":"81.89E"}
{"date":"2013-08-01","average_temperature":"28.659","city":"Tucheng","latitude":"24.92N","longitude":"120.59E"}
{"date":"2011-05-01","average_temperature":"20.029","city":"Tucson","latitude":"31.35N","longitude":"111.20W"}
{"date":"2012-01-01","average_temperature":"24.059","city":"Tuguegarao","latitude":"18.48N","longitude":"121.69E"}
{"date":"2011-04-01","average_temperature":"9.088","city":"Turhal","latitude":"40.99N","longitude":"36.21E"}
{"date":"2012-02-01","average_temperature":"-6.3260000000000005","city":"Turku","latitude":"60.27N","longitude":"22.70E"}
{"date":"2011-11-01","average_temperature":"-0.3019999999999998","city":"Tver","latitude":"57.05N","longitude":"36.89E"}
{"date":"2012-08-01","average_temperature":"16.436","city":"Tver","latitude":"57.05N","longitude":"36.89E"}
{"date":"2013-06-01","average_temperature":"21.644000000000002","city":"Ube","latitude":"34.56N","longitude":"130.38E"}
{"date":"2011-08-01","average_temperature":"25.201999999999998","city":"Ueda","latitude":"36.17N","longitude":"139.23E"}
{"date":"2013-08-01","average_temperature":"25.587000000000003","city":"Ugep","latitude":"5.63N","longitude":"8.07E"}
{"date":"2011-06-01","average_temperature":"15.440999999999999","city":"Ulan Ude","latitude":"52.24N","longitude":"107.74E"}
{"date":"2012-07-01","average_temperature":"31.119","city":"Umm Durman","latitude":"15.27N","longitude":"32.50E"}
{"date":"2012-09-01","average_temperature":"23.275","city":"Urayasu","latitude":"36.17N","longitude":"139.23E"}
{"date":"2010-04-01","average_temperature":"9.202","city":"Uzhhorod","latitude":"49.03N","longitude":"22.04E"}
{"date":"2010-03-01","average_temperature":"6.6720000000000015","city":"Valladolid","latitude":"40.99N","longitude":"4.26W"}
{"date":"2013-02-01","average_temperature":"17.657999999999994","city":"Valparaiso","latitude":"32.95S","longitude":"71.81W"}
{"date":"2011-07-01","average_temperature":"27.955","city":"Van","latitude":"37.78N","longitude":"42.71E"}
{"date":"2012-01-01","average_temperature":"0.431","city":"Vancouver","latitude":"49.03N","longitude":"122.45W"}
{"date":"2011-05-01","average_temperature":"12.107000000000001","city":"Velikie Luki","latitude":"57.05N","longitude":"30.98E"}
{"date":"2012-08-01","average_temperature":"28.959","city":"Velluru","latitude":"12.05N","longitude":"78.90E"}
{"date":"2010-11-01","average_temperature":"21.39","city":"Veracruz","latitude":"18.48N","longitude":"96.34W"}
{"date":"2013-06-01","average_temperature":"30.543000000000006","city":"Veraval","latitude":"21.70N","longitude":"70.10E"}
{"date":"2013-07-01","average_temperature":"9.755","city":"Verwoerdburg","latitude":"26.52S","longitude":"28.66E"}
{"date":"2010-03-01","average_temperature":"10.544","city":"Vigo","latitude":"42.59N","longitude":"8.73W"}
{"date":"2011-04-01","average_temperature":"27.75","city":"Vihari","latitude":"29.74N","longitude":"72.00E"}
{"date":"2010-02-01","average_temperature":"21.022","city":"Vinh","latitude":"18.48N","longitude":"106.48E"}
{"date":"2010-12-01","average_temperature":"26.872","city":"Vinh Long","latitude":"10.45N","longitude":"105.55E"}
{"date":"2012-11-01","average_temperature":"28.647","city":"Vinh Long","latitude":"10.45N","longitude":"105.55E"}
{"date":"2012-11-01","average_temperature":"10.706","city":"Virginia Beach","latitude":"36.17N","longitude":"75.58W"}
{"date":"2010-02-01","average_temperature":"9.418","city":"Visalia","latitude":"36.17N","longitude":"119.34W"}
{"date":"2010-10-01","average_temperature":"8.346","city":"Volgodonsk","latitude":"47.42N","longitude":"41.45E"}
{"date":"2011-11-01","average_temperature":"-1.933","city":"Vologda","latitude":"58.66N","longitude":"40.00E"}
{"date":"2011-05-01","average_temperature":"16.237000000000002","city":"Voronezh","latitude":"52.24N","longitude":"39.42E"}
{"date":"2011-03-01","average_temperature":"9.477","city":"Wanxian","latitude":"31.35N","longitude":"109.32E"}
{"date":"2011-01-01","average_temperature":"-1.709","city":"Washington","latitude":"39.38N","longitude":"76.99W"}
{"date":"2011-09-01","average_temperature":"20.646","city":"Washington","latitude":"39.38N","longitude":"76.99W"}
{"date":"2012-03-01","average_temperature":"11.47","city":"Washington","latitude":"39.38N","longitude":"76.99W"}
{"date":"2013-01-01","average_temperature":"-1.713","city":"Weihai","latitude":"37.78N","longitude":"122.03E"}
{"date":"2010-01-01","average_temperature":"1.14","city":"West Bromwich","latitude":"52.24N","longitude":"2.63W"}
{"date":"2013-08-01","average_temperature":"24.845","city":"West Valley City","latitude":"40.99N","longitude":"112.90W"}
{"date":"2012-04-01","average_temperature":"19.249","city":"Windhoek","latitude":"23.31S","longitude":"16.60E"}
{"date":"2012-11-01","average_temperature":"7.672000000000001","city":"Winston Salem","latitude":"36.17N","longitude":"79.56W"}
{"date":"2013-06-01","average_temperature":"9.982000000000001","city":"Witbank","latitude":"26.52S","longitude":"28.66E"}
{"date":"2012-07-01","average_temperature":"17.677","city":"Witten","latitude":"52.24N","longitude":"7.88E"}
{"date":"2012-08-01","average_temperature":"19.611","city":"Wloclawek","latitude":"52.24N","longitude":"18.39E"}
{"date":"2012-05-01","average_temperature":"14.459000000000001","city":"Wolfsburg","latitude":"52.24N","longitude":"10.51E"}
{"date":"2010-07-01","average_temperature":"14.895","city":"Wollongong","latitude":"34.56S","longitude":"151.78E"}
{"date":"2013-02-01","average_temperature":"20.026","city":"Wollongong","latitude":"34.56S","longitude":"151.78E"}
{"date":"2011-04-01","average_temperature":"8.164","city":"Worcester","latitude":"42.59N","longitude":"72.00W"}
{"date":"2010-07-01","average_temperature":"27.944000000000003","city":"Xiamen","latitude":"24.92N","longitude":"118.82E"}
{"date":"2012-07-01","average_temperature":"28.013","city":"Xiamen","latitude":"24.92N","longitude":"118.82E"}
{"date":"2012-08-01","average_temperature":"22.104","city":"Xingyi","latitude":"24.92N","longitude":"104.63E"}
{"date":"2010-08-01","average_temperature":"14.841","city":"Xining","latitude":"36.17N","longitude":"101.44E"}
{"date":"2012-02-01","average_temperature":"0.498","city":"Xintai","latitude":"36.17N","longitude":"117.35E"}
{"date":"2011-03-01","average_temperature":"5.398","city":"Xinxiang","latitude":"36.17N","longitude":"113.37E"}
{"date":"2012-05-01","average_temperature":"22.696","city":"Xinyang","latitude":"32.95N","longitude":"113.94E"}
{"date":"2011-07-01","average_temperature":"28.622","city":"Xuanzhou","latitude":"31.35N","longitude":"118.74E"}
{"date":"2010-07-01","average_temperature":"20.165","city":"Yakeshi","latitude":"49.03N","longitude":"120.00E"}
{"date":"2011-11-01","average_temperature":"26.305","city":"Yamoussoukro","latitude":"7.23N","longitude":"5.68W"}
{"date":"2013-06-01","average_temperature":"19.692999999999998","city":"Yantai","latitude":"37.78N","longitude":"122.03E"}
{"date":"2010-04-01","average_temperature":"12.306","city":"Yao","latitude":"34.56N","longitude":"136.22E"}
{"date":"2010-12-01","average_temperature":"-4.347","city":"Yelets","latitude":"52.24N","longitude":"39.42E"}
{"date":"2011-08-01","average_temperature":"25.261999999999997","city":"Yibin","latitude":"28.13N","longitude":"104.55E"}
{"date":"2012-06-01","average_temperature":"26.675","city":"Yogyakarta","latitude":"7.23S","longitude":"111.08E"}
{"date":"2013-07-01","average_temperature":"26.7","city":"Yungkang","latitude":"23.31N","longitude":"121.46E"}
{"date":"2010-07-01","average_temperature":"27.659000000000002","city":"Yuyao","latitude":"29.74N","longitude":"121.85E"}
{"date":"2012-12-01","average_temperature":"4.303","city":"Zaanstad","latitude":"52.24N","longitude":"5.26E"}
{"date":"2010-03-01","average_temperature":"5.249","city":"Zagreb","latitude":"45.81N","longitude":"15.00E"}
{"date":"2011-11-01","average_temperature":"3.962","city":"Zagreb","latitude":"45.81N","longitude":"15.00E"}
{"date":"2012-07-01","average_temperature":"24.127","city":"Zanjan","latitude":"36.17N","longitude":"47.73E"}
{"date":"2013-04-01","average_temperature":"26.914","city":"Zanzibar","latitude":"5.63S","longitude":"38.74E"}
{"date":"2013-03-01","average_temperature":"10.084","city":"Zaozhuang","latitude":"34.56N","longitude":"116.76E"}
{"date":"2011-02-01","average_temperature":"18.868","city":"Zapopan","latitude":"20.09N","longitude":"104.08W"}
{"date":"2011-03-01","average_temperature":"-2.9079999999999995","city":"Zelenograd","latitude":"55.45N","longitude":"36.85E"}
{"date":"2013-08-01","average_temperature":"27.978","city":"Zhangdian","latitude":"36.17N","longitude":"117.35E"}
{"date":"2010-06-01","average_temperature":"26.379","city":"Zhaoqing","latitude":"23.31N","longitude":"112.72E"}
{"date":"2011-12-01","average_temperature":"3.321","city":"Zhenjiang","latitude":"32.95N","longitude":"119.68E"}
{"date":"2012-09-01","average_temperature":"22.18","city":"Zhenjiang","latitude":"32.95N","longitude":"119.68E"}
{"date":"2012-12-01","average_temperature":"-1.651","city":"Zhoucun","latitude":"36.17N","longitude":"117.35E"}
{"date":"2012-09-01","average_temperature":"21.296","city":"Zhoukou","latitude":"32.95N","longitude":"113.94E"}
{"date":"2013-02-01","average_temperature":"18.328","city":"Zhuhai","latitude":"21.70N","longitude":"113.37E"}
{"date":"2013-08-01","average_temperature":"27.054","city":"Zhuozhou","latitude":"39.38N","longitude":"116.53E"}
{"date":"2011-02-01","average_temperature":"25.046","city":"Ziguinchor","latitude":"12.05N","longitude":"16.44W"}
{"date":"2011-05-01","average_temperature":"26.549","city":"Ziguinchor","latitude":"12.05N","longitude":"16.44W"}
{"date":"2013-09-01","city":"Zunyi","latitude":"28.13N","longitude":"106.36E"}
{"date":"2011-09-01","average_temperature":"27.305","city":"Zuwarah","latitude":"32.95N","longitude":"12.45E"}
{"date":"2010-02-01","average_temperature":"1.1819999999999995","city":"Zwolle","latitude":"52.24N","longitude":"5.26E"}
