{"date":"2013-09-01","city":"Århus","latitude":"57.05N","longitude":"10.33E"}
{"date":"2011-07-01","average_temperature":"15.847000000000001","city":"Aachen","latitude":"50.63N","longitude":"6.34E"}
{"date":"2010-02-01","average_temperature":"-2.6910000000000003","city":"Aalborg","latitude":"57.05N","longitude":"10.33E"}
{"date":"2010-04-01","average_temperature":"1.514","city":"Abakan","latitude":"53.84N","longitude":"91.36E"}
{"date":"2012-01-01","average_temperature":"0.431","city":"Abbotsford","latitude":"49.03N","longitude":"122.45W"}
{"date":"2012-02-01","average_temperature":"8.434","city":"Abilene","latitude":"32.95N","longitude":"100.53W"}
{"date":"2012-11-01","average_temperature":"-9.92","city":"Achinsk","latitude":"57.05N","longitude":"90.00E"}
{"date":"2012-08-01","average_temperature":"21.088","city":"Aguascalientes","latitude":"21.70N","longitude":"102.98W"}
{"date":"2011-02-01","average_temperature":"23.113000000000003","city":"Ahmadnagar","latitude":"18.48N","longitude":"74.37E"}
{"date":"2011-08-01","average_temperature":"37.883","city":"Ahvaz","latitude":"31.35N","longitude":"49.01E"}
{"date":"2012-10-01","average_temperature":"15.419","city":"Akita","latitude":"39.38N","longitude":"139.42E"}
{"date":"2012-05-01","average_temperature":"26.185","city":"Alagoinhas","latitude":"12.05S","longitude":"37.81W"}
{"date":"2010-08-01","average_temperature":"7.178","city":"Albury","latitude":"36.17S","longitude":"147.18E"}
{"date":"2012-02-01","average_temperature":"20.394000000000002","city":"Albury","latitude":"36.17S","longitude":"147.18E"}
{"date":"2010-09-01","average_temperature":"13.899","city":"Almaty","latitude":"42.59N","longitude":"76.36E"}
{"date":"2011-09-01","average_temperature":"25.921","city":"Ambon","latitude":"4.02S","longitude":"127.77E"}
{"date":"2010-03-01","average_temperature":"7.221999999999999","city":"Amiens","latitude":"49.03N","longitude":"2.45E"}
{"date":"2011-05-01","average_temperature":"33.161","city":"Amritsar","latitude":"31.35N","longitude":"75.39E"}
{"date":"2010-09-01","average_temperature":"13.661","city":"Amsterdam","latitude":"52.24N","longitude":"5.26E"}
{"date":"2011-03-01","average_temperature":"27.599","city":"Ananindeua","latitude":"0.80S","longitude":"49.02W"}
{"date":"2011-01-01","average_temperature":"24.914","city":"Angra Dos Reis","latitude":"23.31S","longitude":"44.56W"}
{"date":"2011-09-01","average_temperature":"18.586","city":"Ankara","latitude":"39.38N","longitude":"33.29E"}
{"date":"2011-04-01","average_temperature":"21.482","city":"Antananarivo","latitude":"18.48S","longitude":"47.32E"}
{"date":"2011-05-01","average_temperature":"19.796","city":"Antsirabe","latitude":"20.09S","longitude":"47.77E"}
{"date":"2011-06-01","average_temperature":"17.456","city":"Apucarana","latitude":"23.31S","longitude":"51.55W"}
{"date":"2012-01-01","average_temperature":"-0.5289999999999997","city":"Arad","latitude":"45.81N","longitude":"21.92E"}
{"date":"2011-01-01","average_temperature":"20.868","city":"Arequipa","latitude":"16.87S","longitude":"72.00W"}
{"date":"2010-01-01","average_temperature":"-15.032","city":"Arkhangelsk","latitude":"65.09N","longitude":"40.21E"}
{"date":"2011-10-01","average_temperature":"12.853","city":"Arlington","latitude":"39.38N","longitude":"76.99W"}
{"date":"2013-05-01","average_temperature":"5.944","city":"Arvada","latitude":"39.38N","longitude":"106.13W"}
{"date":"2013-06-01","average_temperature":"14.825999999999999","city":"Asahikawa","latitude":"44.20N","longitude":"143.11E"}
{"date":"2011-07-01","average_temperature":"25.288","city":"Asaka","latitude":"36.17N","longitude":"139.23E"}
{"date":"2012-09-01","average_temperature":"28.349","city":"Asansol","latitude":"23.31N","longitude":"86.50E"}
{"date":"2010-09-01","average_temperature":"26.772","city":"Ashdod","latitude":"31.35N","longitude":"33.93E"}
{"date":"2012-04-01","average_temperature":"22.614","city":"Asunción","latitude":"24.92S","longitude":"58.52W"}
{"date":"2013-05-01","average_temperature":"18.317","city":"Atibaia","latitude":"23.31S","longitude":"46.31W"}
{"date":"2010-11-01","average_temperature":"9.515","city":"Atsugi","latitude":"36.17N","longitude":"139.23E"}
{"date":"2011-08-01","average_temperature":"22.906","city":"Aurora","latitude":"40.99N","longitude":"87.34W"}
{"date":"2011-11-01","average_temperature":"7.391","city":"Aurora","latitude":"40.99N","longitude":"87.34W"}
{"date":"2010-02-01","average_temperature":"26.685","city":"Avadi","latitude":"13.66N","longitude":"80.09E"}
{"date":"2013-03-01","average_temperature":"29.07","city":"Avadi","latitude":"13.66N","longitude":"80.09E"}
{"date":"2012-01-01","average_temperature":"22.106","city":"Azare","latitude":"12.05N","longitude":"9.86E"}
{"date":"2012-10-01","average_temperature":"27.802","city":"Bac Lieu","latitude":"8.84N","longitude":"106.22E"}
{"date":"2010-09-01","average_temperature":"14.439","city":"Bacau","latitude":"45.81N","longitude":"26.54E"}
{"date":"2012-02-01","average_temperature":"22.408","city":"Baharampur","latitude":"23.31N","longitude":"88.25E"}
{"date":"2012-08-01","average_temperature":"31.98","city":"Bahawalnagar","latitude":"29.74N","longitude":"73.85E"}
{"date":"2010-08-01","average_temperature":"26.094","city":"Baku","latitude":"40.99N","longitude":"48.99E"}
{"date":"2011-07-01","average_temperature":"29.473000000000003","city":"Bally","latitude":"23.31N","longitude":"88.25E"}
{"date":"2012-05-01","average_temperature":"20.116","city":"Baltimore","latitude":"39.38N","longitude":"76.99W"}
{"date":"2013-08-01","average_temperature":"22.721999999999998","city":"Baltimore","latitude":"39.38N","longitude":"76.99W"}
{"date":"2011-08-01","average_temperature":"27.586","city":"Bama","latitude":"12.05N","longitude":"13.15E"}
{"date":"2013-05-01","average_temperature":"30.869","city":"Bamako","latitude":"12.05N","longitude":"8.22W"}
{"date":"2012-11-01","average_temperature":"10.847000000000001","city":"Bandar E Anzali","latitude":"37.78N","longitude":"48.81E"}
{"date":"2010-08-01","average_temperature":"20.589000000000002","city":"Banja Luka","latitude":"44.20N","longitude":"17.89E"}
{"date":"2012-02-01","average_temperature":"8.477","city":"Barcelona","latitude":"40.99N","longitude":"2.13E"}
{"date":"2011-12-01","average_temperature":"-14.512","city":"Barnaul","latitude":"53.84N","longitude":"83.18E"}
{"date":"2013-01-01","average_temperature":"26.316","city":"Barrancabermeja","latitude":"7.23N","longitude":"73.78W"}
{"date":"2012-06-01","average_temperature":"30.441999999999997","city":"Barsi","latitude":"18.48N","longitude":"76.06E"}
{"date":"2010-02-01","average_temperature":"16.980999999999998","city":"Batala","latitude":"31.35N","longitude":"75.39E"}
{"date":"2013-07-01","average_temperature":"31.599","city":"Batala","latitude":"31.35N","longitude":"75.39E"}
{"date":"2011-07-01","average_temperature":"26.175","city":"Bataysk","latitude":"47.42N","longitude":"39.08E"}
{"date":"2011-03-01","average_temperature":"25.53","city":"Baturaja","latitude":"4.02S","longitude":"103.66E"}
{"date":"2010-03-01","average_temperature":"25.48","city":"Bauru","latitude":"21.70S","longitude":"49.33W"}
{"date":"2012-01-01","average_temperature":"12.174000000000001","city":"Beirut","latitude":"34.56N","longitude":"35.03E"}
{"date":"2013-01-01","average_temperature":"13.365","city":"Beirut","latitude":"34.56N","longitude":"35.03E"}
{"date":"2011-06-01","average_temperature":"27.247","city":"Belém","latitude":"0.80S","longitude":"49.02W"}
{"date":"2012-04-01","average_temperature":"27.47","city":"Belém","latitude":"0.80S","longitude":"49.02W"}
{"date":"2011-06-01","average_temperature":"28.427","city":"Belawan","latitude":"4.02N","longitude":"98.84E"}
{"date":"2013-09-01","city":"Bellary","latitude":"15.27N","longitude":"77.50E"}
{"date":"2013-08-01","average_temperature":"20.087000000000003","city":"Bello","latitude":"5.63N","longitude":"75.87W"}
{"date":"2010-02-01","average_temperature":"13.738","city":"Bene Beraq","latitude":"32.95N","longitude":"35.43E"}
{"date":"2011-12-01","average_temperature":"11.921","city":"Bene Beraq","latitude":"32.95N","longitude":"35.43E"}
{"date":"2012-11-01","average_temperature":"5.785","city":"Berlin","latitude":"52.24N","longitude":"13.14E"}
{"date":"2012-12-01","average_temperature":"0.19400000000000006","city":"Bern","latitude":"47.42N","longitude":"8.29E"}
{"date":"2011-06-01","average_temperature":"23.910999999999998","city":"Bertoua","latitude":"4.02N","longitude":"13.66E"}
{"date":"2011-08-01","average_temperature":"29.226000000000006","city":"Bettiah","latitude":"26.52N","longitude":"84.18E"}
{"date":"2012-01-01","average_temperature":"17.252","city":"Bhairab Bazar","latitude":"24.92N","longitude":"90.44E"}
{"date":"2012-06-01","average_temperature":"31.667","city":"Bhavnagar","latitude":"21.70N","longitude":"71.83E"}
{"date":"2011-10-01","average_temperature":"26.194000000000003","city":"Bhilwara","latitude":"24.92N","longitude":"74.48E"}
{"date":"2011-03-01","average_temperature":"5.541","city":"Bielefeld","latitude":"52.24N","longitude":"7.88E"}
{"date":"2010-08-01","average_temperature":"19.062","city":"Bielsko Biala","latitude":"50.63N","longitude":"19.01E"}
{"date":"2012-11-01","average_temperature":"22.256","city":"Bikaner","latitude":"28.13N","longitude":"73.64E"}
{"date":"2012-05-01","average_temperature":"35.138000000000005","city":"Bilaspur","latitude":"21.70N","longitude":"82.21E"}
{"date":"2012-04-01","average_temperature":"26.883000000000003","city":"Bintulu","latitude":"2.41N","longitude":"113.30E"}
{"date":"2013-05-01","average_temperature":"21.677","city":"Binzhou","latitude":"37.78N","longitude":"117.97E"}
{"date":"2011-02-01","average_temperature":"9.867","city":"Birmingham","latitude":"32.95N","longitude":"87.13W"}
{"date":"2010-12-01","average_temperature":"25.066999999999997","city":"Birnin Kebbi","latitude":"12.05N","longitude":"4.93E"}
{"date":"2011-08-01","average_temperature":"26.71","city":"Bitung","latitude":"0.80N","longitude":"124.55E"}
{"date":"2010-01-01","average_temperature":"3.669","city":"Blackpool","latitude":"53.84N","longitude":"4.09W"}
{"date":"2011-09-01","average_temperature":"26.346","city":"Bohicon","latitude":"7.23N","longitude":"2.43E"}
{"date":"2011-06-01","average_temperature":"16.945999999999998","city":"Bottrop","latitude":"52.24N","longitude":"7.88E"}
{"date":"2011-02-01","average_temperature":"24.412","city":"Bragança Paulista","latitude":"23.31S","longitude":"46.31W"}
{"date":"2013-08-01","average_temperature":"18.215","city":"Bragança Paulista","latitude":"23.31S","longitude":"46.31W"}
{"date":"2013-09-01","city":"Brahmapur","latitude":"18.48N","longitude":"84.51E"}
{"date":"2010-11-01","average_temperature":"-7.821000000000001","city":"Bratsk","latitude":"55.45N","longitude":"102.05E"}
{"date":"2011-04-01","average_temperature":"11.614","city":"Bristol","latitude":"52.24N","longitude":"2.63W"}
{"date":"2012-06-01","average_temperature":"26.539","city":"Buhe","latitude":"29.74N","longitude":"112.62E"}
{"date":"2013-03-01","average_temperature":"28.264","city":"Bulaon","latitude":"15.27N","longitude":"120.83E"}
{"date":"2011-01-01","average_temperature":"21.469","city":"Bulawayo","latitude":"20.09S","longitude":"29.00E"}
{"date":"2011-07-01","average_temperature":"21.487","city":"Butembo","latitude":"0.80N","longitude":"29.73E"}
{"date":"2013-03-01","average_temperature":"-0.56","city":"Bytom","latitude":"50.63N","longitude":"19.01E"}
{"date":"2013-02-01","average_temperature":"9.005","city":"Córdoba","latitude":"37.78N","longitude":"4.07W"}
{"date":"2011-12-01","average_temperature":"24.56","city":"Cúa","latitude":"10.45N","longitude":"66.27W"}
{"date":"2012-01-01","average_temperature":"26.837","city":"Cabimas","latitude":"10.45N","longitude":"71.18W"}
{"date":"2011-06-01","average_temperature":"19.636","city":"Cachoeiro De Itapemirim","latitude":"20.09S","longitude":"40.95W"}
{"date":"2011-06-01","average_temperature":"27.508000000000003","city":"Cagua","latitude":"10.45N","longitude":"67.91W"}
{"date":"2012-12-01","average_temperature":"27.135","city":"Calabar","latitude":"5.63N","longitude":"8.07E"}
{"date":"2012-01-01","average_temperature":"26.519","city":"Camaragibe","latitude":"7.23S","longitude":"34.86W"}
{"date":"2012-03-01","average_temperature":"15.043","city":"Canberra","latitude":"36.17S","longitude":"149.17E"}
{"date":"2012-10-01","average_temperature":"18.434","city":"Carrollton","latitude":"32.95N","longitude":"96.70W"}
{"date":"2012-06-01","average_temperature":"25.27","city":"Cartagena","latitude":"37.78N","longitude":"0.00W"}
{"date":"2011-06-01","average_temperature":"15.835","city":"Cascavel","latitude":"24.92S","longitude":"53.20W"}
{"date":"2013-01-01","average_temperature":"26.974","city":"Castanhal","latitude":"0.80S","longitude":"47.41W"}
{"date":"2010-09-01","average_temperature":"26.328000000000003","city":"Catia La Mar","latitude":"10.45N","longitude":"66.27W"}
{"date":"2013-04-01","average_temperature":"6.652000000000001","city":"Cedar Rapids","latitude":"42.59N","longitude":"91.64W"}
{"date":"2011-04-01","average_temperature":"16.022000000000002","city":"Changzhou","latitude":"31.35N","longitude":"120.63E"}
{"date":"2013-07-01","average_temperature":"25.096","city":"Chaoyang","latitude":"40.99N","longitude":"121.42E"}
{"date":"2010-04-01","average_temperature":"18.882","city":"Charleston","latitude":"32.95N","longitude":"79.47W"}
{"date":"2010-08-01","average_temperature":"28.426","city":"Chavakachcheri","latitude":"8.84N","longitude":"80.27E"}
{"date":"2010-10-01","average_temperature":"10.466","city":"Chelmsford","latitude":"52.24N","longitude":"0.00W"}
{"date":"2010-09-01","average_temperature":"16.464000000000002","city":"Chengde","latitude":"40.99N","longitude":"117.16E"}
{"date":"2010-05-01","average_temperature":"15.476","city":"Chengdu","latitude":"31.35N","longitude":"103.66E"}
{"date":"2011-01-01","average_temperature":"19.078000000000007","city":"Chillan","latitude":"36.17S","longitude":"71.60W"}
{"date":"2012-04-01","average_temperature":"-0.6969999999999998","city":"Chita","latitude":"52.24N","longitude":"112.99E"}
{"date":"2010-06-01","average_temperature":"33.57","city":"Chittaurgarh","latitude":"24.92N","longitude":"74.48E"}
{"date":"2013-01-01","average_temperature":"16.125","city":"Chittaurgarh","latitude":"24.92N","longitude":"74.48E"}
{"date":"2012-12-01","average_temperature":"16.13","city":"Chungho","latitude":"24.92N","longitude":"120.59E"}
{"date":"2013-07-01","average_temperature":"24.891","city":"Ciamis","latitude":"7.23S","longitude":"107.84E"}
{"date":"2011-12-01","average_temperature":"25.669","city":"Cianjur","latitude":"7.23S","longitude":"107.84E"}
{"date":"2013-04-01","average_temperature":"27.642","city":"Cibinong","latitude":"5.63S","longitude":"106.55E"}
{"date":"2010-03-01","average_temperature":"23.212","city":"Ciego De Ávila","latitude":"21.70N","longitude":"78.75W"}
{"date":"2012-06-01","average_temperature":"25.409000000000002","city":"Cimahi","latitude":"7.23S","longitude":"107.84E"}
{"date":"2010-03-01","average_temperature":"27.899","city":"Cisarua","latitude":"5.63S","longitude":"106.55E"}
{"date":"2011-09-01","average_temperature":"26.983","city":"Ciudad Guayana","latitude":"8.84N","longitude":"62.43W"}
{"date":"2010-12-01","average_temperature":"21.866999999999997","city":"Coatzacoalcos","latitude":"18.48N","longitude":"94.65W"}
{"date":"2011-12-01","average_temperature":"20.572","city":"Colombo","latitude":"24.92S","longitude":"49.66W"}
{"date":"2012-05-01","average_temperature":"15.854000000000001","city":"Colombo","latitude":"24.92S","longitude":"49.66W"}
{"date":"2011-02-01","average_temperature":"-2.821","city":"Colorado Springs","latitude":"39.38N","longitude":"104.05W"}
{"date":"2012-01-01","average_temperature":"9.993","city":"Concord","latitude":"37.78N","longitude":"122.03W"}
{"date":"2012-03-01","average_temperature":"11.503","city":"Concord","latitude":"37.78N","longitude":"122.03W"}
{"date":"2010-03-01","average_temperature":"24.158","city":"Concordia","latitude":"31.35S","longitude":"58.43W"}
{"date":"2012-04-01","average_temperature":"13.45","city":"Constantine","latitude":"36.17N","longitude":"5.97E"}
{"date":"2011-09-01","average_temperature":"29.334000000000003","city":"Coro","latitude":"12.05N","longitude":"69.04W"}
{"date":"2010-11-01","average_temperature":"18.584","city":"Corpus Christi","latitude":"28.13N","longitude":"97.27W"}
{"date":"2012-12-01","average_temperature":"27.229000000000006","city":"Corrientes","latitude":"28.13S","longitude":"59.09W"}
{"date":"2012-10-01","average_temperature":"19.892","city":"Costa Mesa","latitude":"32.95N","longitude":"117.77W"}
{"date":"2012-07-01","average_temperature":"26.775","city":"Cotabato","latitude":"7.23N","longitude":"124.05E"}
{"date":"2013-04-01","average_temperature":"9.088","city":"Cottbus","latitude":"52.24N","longitude":"13.14E"}
{"date":"2010-07-01","average_temperature":"17.668","city":"Cuautitlán Izcalli","latitude":"20.09N","longitude":"98.96W"}
{"date":"2012-02-01","average_temperature":"24.468","city":"Cubatão","latitude":"23.31S","longitude":"46.31W"}
{"date":"2012-03-01","average_temperature":"22.706999999999997","city":"Cubatão","latitude":"23.31S","longitude":"46.31W"}
{"date":"2011-01-01","average_temperature":"19.098000000000006","city":"Cuernavaca","latitude":"18.48N","longitude":"99.72W"}
{"date":"2012-09-01","average_temperature":"28.077","city":"Cuiabá","latitude":"15.27S","longitude":"55.83W"}
{"date":"2012-10-01","average_temperature":"12.83","city":"Cusco","latitude":"13.66S","longitude":"71.83W"}
{"date":"2010-04-01","average_temperature":"9.074","city":"Dabrowa Gornicza","latitude":"50.63N","longitude":"19.01E"}
{"date":"2011-09-01","average_temperature":"25.64","city":"Dagupan","latitude":"16.87N","longitude":"120.56E"}
{"date":"2013-08-01","average_temperature":"25.007","city":"Daloa","latitude":"7.23N","longitude":"5.68W"}
{"date":"2011-05-01","average_temperature":"24.947","city":"Danshui","latitude":"23.31N","longitude":"114.47E"}
{"date":"2010-05-01","average_temperature":"23.685","city":"Dasoguz","latitude":"40.99N","longitude":"59.64E"}
{"date":"2011-03-01","average_temperature":"21.821","city":"Dehra Dun","latitude":"29.74N","longitude":"77.54E"}
{"date":"2011-01-01","average_temperature":"11.835999999999999","city":"Dera Ismail Khan","latitude":"31.35N","longitude":"71.62E"}
{"date":"2012-03-01","average_temperature":"2.4659999999999997","city":"Derbent","latitude":"42.59N","longitude":"48.00E"}
{"date":"2012-08-01","average_temperature":"20.613000000000003","city":"Deyang","latitude":"31.35N","longitude":"103.66E"}
{"date":"2010-04-01","average_temperature":"32.134","city":"Dhule","latitude":"20.09N","longitude":"75.07E"}
{"date":"2012-03-01","average_temperature":"-4.688","city":"Didao","latitude":"45.81N","longitude":"130.38E"}
{"date":"2011-05-01","average_temperature":"14.909","city":"Dimitrovgrad","latitude":"53.84N","longitude":"50.45E"}
{"date":"2013-01-01","average_temperature":"27.676","city":"Divo","latitude":"5.63N","longitude":"4.84W"}
{"date":"2011-08-01","average_temperature":"23.877","city":"Dongling","latitude":"40.99N","longitude":"123.55E"}
{"date":"2012-03-01","average_temperature":"8.017999999999999","city":"Dortmund","latitude":"52.24N","longitude":"7.88E"}
{"date":"2011-05-01","average_temperature":"21.706","city":"Dos Hermanas","latitude":"37.78N","longitude":"6.10W"}
{"date":"2011-02-01","average_temperature":"25.751","city":"Dourados","latitude":"21.70S","longitude":"54.52W"}
{"date":"2012-06-01","average_temperature":"15.101","city":"Duisburg","latitude":"50.63N","longitude":"6.34E"}
{"date":"2010-06-01","average_temperature":"31.075","city":"Dum Dum","latitude":"23.31N","longitude":"88.25E"}
{"date":"2011-11-01","average_temperature":"10.493","city":"Duma","latitude":"32.95N","longitude":"37.34E"}
{"date":"2011-05-01","average_temperature":"20.153","city":"Durham","latitude":"36.17N","longitude":"79.56W"}
{"date":"2011-10-01","average_temperature":"14.337","city":"Durham","latitude":"36.17N","longitude":"79.56W"}
{"date":"2012-08-01","average_temperature":"26.566","city":"Durrës","latitude":"40.99N","longitude":"19.17E"}
{"date":"2013-05-01","average_temperature":"13.742","city":"Dushanbe","latitude":"39.38N","longitude":"68.67E"}
{"date":"2013-03-01","average_temperature":"3.852","city":"Eastbourne","latitude":"50.63N","longitude":"1.27E"}
{"date":"2011-12-01","average_temperature":"-2.8939999999999997","city":"Ebetsu","latitude":"42.59N","longitude":"141.82E"}
{"date":"2012-06-01","average_temperature":"14.219000000000001","city":"Ebetsu","latitude":"42.59N","longitude":"141.82E"}
{"date":"2011-02-01","average_temperature":"4.21","city":"Eindhoven","latitude":"52.24N","longitude":"5.26E"}
{"date":"2011-04-01","average_temperature":"9.885000000000002","city":"Ekibastuz","latitude":"52.24N","longitude":"76.20E"}
{"date":"2010-04-01","average_temperature":"32.769","city":"Eluru","latitude":"16.87N","longitude":"80.37E"}
{"date":"2013-06-01","average_temperature":"18.124000000000002","city":"Embu","latitude":"23.31S","longitude":"46.31W"}
{"date":"2013-06-01","average_temperature":"15.811","city":"Enschede","latitude":"52.24N","longitude":"7.88E"}
{"date":"2011-03-01","average_temperature":"27.308000000000003","city":"Erode","latitude":"12.05N","longitude":"77.26E"}
{"date":"2013-03-01","average_temperature":"15.344","city":"Escondido","latitude":"32.95N","longitude":"117.77W"}
{"date":"2010-11-01","average_temperature":"18.254","city":"Escuintla","latitude":"15.27N","longitude":"90.83W"}
{"date":"2011-05-01","average_temperature":"22.108","city":"Escuintla","latitude":"15.27N","longitude":"90.83W"}
{"date":"2010-05-01","average_temperature":"18.169","city":"Esenyurt","latitude":"40.99N","longitude":"27.69E"}
{"date":"2010-05-01","average_temperature":"17.604","city":"Esfahan","latitude":"32.95N","longitude":"50.74E"}
{"date":"2010-12-01","average_temperature":"15.405","city":"Etawah","latitude":"26.52N","longitude":"78.81E"}
{"date":"2012-06-01","average_temperature":"36.372","city":"Etawah","latitude":"26.52N","longitude":"78.81E"}
{"date":"2013-06-01","average_temperature":"18.124000000000002","city":"Ferraz De Vasconcelos","latitude":"23.31S","longitude":"46.31W"}
{"date":"2010-09-01","average_temperature":"28.522","city":"Firozabad","latitude":"26.52N","longitude":"78.81E"}
{"date":"2010-04-01","average_temperature":"11.083","city":"Flint","latitude":"42.59N","longitude":"82.91W"}
{"date":"2010-10-01","average_temperature":"18.517","city":"Florencia","latitude":"2.41N","longitude":"76.34W"}
{"date":"2011-02-01","average_temperature":"-3.484","city":"Focsani","latitude":"45.81N","longitude":"26.54E"}
{"date":"2013-01-01","average_temperature":"6.757000000000001","city":"Fontana","latitude":"34.56N","longitude":"116.76W"}
{"date":"2011-07-01","average_temperature":"22.06","city":"Forlì","latitude":"44.20N","longitude":"11.18E"}
{"date":"2012-05-01","average_temperature":"15.685","city":"Forlì","latitude":"44.20N","longitude":"11.18E"}
{"date":"2013-06-01","average_temperature":"27.011999999999997","city":"Fortaleza","latitude":"4.02S","longitude":"40.98W"}
{"date":"2013-06-01","average_temperature":"18.124000000000002","city":"Franco Da Rocha","latitude":"23.31S","longitude":"46.31W"}
{"date":"2010-03-01","average_temperature":"6.103","city":"Fuchu","latitude":"36.17N","longitude":"139.23E"}
{"date":"2013-05-01","average_temperature":"18.707","city":"Fuji","latitude":"34.56N","longitude":"138.16E"}
{"date":"2012-04-01","average_temperature":"23.726999999999997","city":"Gómez Palacio","latitude":"24.92N","longitude":"102.86W"}
{"date":"2013-07-01","average_temperature":"18.05","city":"Göteborg","latitude":"58.66N","longitude":"12.31E"}
{"date":"2013-01-01","average_temperature":"24.271","city":"Gadag","latitude":"15.27N","longitude":"75.83E"}
{"date":"2013-08-01","average_temperature":"25.24","city":"Gandajika","latitude":"7.23S","longitude":"23.51E"}
{"date":"2010-04-01","average_temperature":"33.126000000000005","city":"Gandhinagar","latitude":"23.31N","longitude":"72.52E"}
{"date":"2010-07-01","average_temperature":"30.293000000000003","city":"Gaya","latitude":"24.92N","longitude":"85.12E"}
{"date":"2011-09-01","average_temperature":"26.976999999999997","city":"Gboko","latitude":"7.23N","longitude":"8.92E"}
{"date":"2010-05-01","average_temperature":"11.729","city":"Gdynia","latitude":"53.84N","longitude":"17.73E"}
{"date":"2010-05-01","average_temperature":"27.199","city":"General Escobedo","latitude":"26.52N","longitude":"100.30W"}
{"date":"2011-10-01","average_temperature":"27.711","city":"Georgetown","latitude":"7.23N","longitude":"57.57W"}
{"date":"2012-03-01","average_temperature":"23.686","city":"Ghaziabad","latitude":"28.13N","longitude":"77.27E"}
{"date":"2013-09-01","city":"Gijón","latitude":"44.20N","longitude":"6.71W"}
{"date":"2011-03-01","average_temperature":"7.439","city":"Gillingham","latitude":"50.63N","longitude":"1.27E"}
{"date":"2012-08-01","average_temperature":"29.799","city":"Gizeh","latitude":"29.74N","longitude":"31.38E"}
{"date":"2010-06-01","average_temperature":"14.623","city":"Glasgow","latitude":"55.45N","longitude":"2.83W"}
{"date":"2013-03-01","average_temperature":"20.229","city":"Gojra","latitude":"31.35N","longitude":"73.51E"}
{"date":"2010-01-01","average_temperature":"20.096","city":"Goma","latitude":"2.41S","longitude":"29.73E"}
{"date":"2011-03-01","average_temperature":"15.534","city":"Grand Prairie","latitude":"32.95N","longitude":"96.70W"}
{"date":"2013-09-01","average_temperature":"27.986","city":"Grand Prairie","latitude":"32.95N","longitude":"96.70W"}
{"date":"2011-02-01","average_temperature":"7.138999999999999","city":"Greensboro","latitude":"36.17N","longitude":"79.56W"}
{"date":"2011-04-01","average_temperature":"22.826","city":"Guadalajara","latitude":"20.09N","longitude":"104.08W"}
{"date":"2012-10-01","average_temperature":"24.011999999999997","city":"Guanare","latitude":"8.84N","longitude":"70.54W"}
{"date":"2012-11-01","average_temperature":"24.368000000000002","city":"Guanare","latitude":"8.84N","longitude":"70.54W"}
{"date":"2013-08-01","average_temperature":"28.462","city":"Guantánamo","latitude":"20.09N","longitude":"75.07W"}
{"date":"2010-09-01","average_temperature":"26.328000000000003","city":"Guarenas","latitude":"10.45N","longitude":"66.27W"}
{"date":"2010-08-01","average_temperature":"20.961","city":"Guatemala City","latitude":"15.27N","longitude":"90.83W"}
{"date":"2010-06-01","average_temperature":"21.706999999999997","city":"Guayaquil","latitude":"2.41S","longitude":"79.55W"}
{"date":"2013-08-01","average_temperature":"28.576","city":"Gudivada","latitude":"16.87N","longitude":"80.37E"}
{"date":"2010-11-01","average_temperature":"3.0490000000000004","city":"Guelph","latitude":"44.20N","longitude":"80.50W"}
{"date":"2013-04-01","average_temperature":"32.33","city":"Gulbarga","latitude":"16.87N","longitude":"77.02E"}
{"date":"2011-05-01","average_temperature":"34.298","city":"Gurgaon","latitude":"28.13N","longitude":"77.27E"}
{"date":"2010-08-01","average_temperature":"27.97","city":"Guwahati","latitude":"26.52N","longitude":"91.34E"}
{"date":"2010-09-01","average_temperature":"28.522","city":"Gwalior","latitude":"26.52N","longitude":"78.81E"}
{"date":"2013-06-01","average_temperature":"29.204","city":"Hòa Bình","latitude":"20.09N","longitude":"105.78E"}
{"date":"2013-05-01","average_temperature":"26.543000000000006","city":"Ha Noi","latitude":"21.70N","longitude":"106.44E"}
{"date":"2012-10-01","average_temperature":"10.358","city":"Haarlem","latitude":"52.24N","longitude":"5.26E"}
{"date":"2011-07-01","average_temperature":"16.02","city":"Haarlemmermeer","latitude":"52.24N","longitude":"5.26E"}
{"date":"2013-01-01","average_temperature":"-2.968","city":"Hachinohe","latitude":"40.99N","longitude":"140.59E"}
{"date":"2012-01-01","average_temperature":"22.106","city":"Hadejia","latitude":"12.05N","longitude":"9.86E"}
{"date":"2012-02-01","average_temperature":"-0.234","city":"Hagen","latitude":"52.24N","longitude":"7.88E"}
{"date":"2012-09-01","average_temperature":"15.818","city":"Haibowan","latitude":"39.38N","longitude":"106.13E"}
{"date":"2011-04-01","average_temperature":"7.416","city":"Hakodate","latitude":"40.99N","longitude":"140.59E"}
{"date":"2012-09-01","average_temperature":"29.243000000000002","city":"Haldia","latitude":"21.70N","longitude":"87.40E"}
{"date":"2011-09-01","average_temperature":"16.375","city":"Halifax","latitude":"44.20N","longitude":"62.61W"}
{"date":"2012-09-01","average_temperature":"15.953","city":"Hami","latitude":"42.59N","longitude":"93.82E"}
{"date":"2010-10-01","average_temperature":"17.065","city":"Hangzhou","latitude":"29.74N","longitude":"120.00E"}
{"date":"2010-01-01","average_temperature":"15.888","city":"Hanoi","latitude":"21.70N","longitude":"106.44E"}
{"date":"2010-10-01","average_temperature":"26.996","city":"Hanumangarh","latitude":"29.74N","longitude":"73.85E"}
{"date":"2011-02-01","average_temperature":"22.438000000000002","city":"Hargeysa","latitude":"8.84N","longitude":"44.59E"}
{"date":"2012-05-01","average_temperature":"28.565","city":"Hat Yai","latitude":"7.23N","longitude":"99.73E"}
{"date":"2011-12-01","average_temperature":"4.022","city":"Hefei","latitude":"31.35N","longitude":"116.86E"}
{"date":"2011-10-01","average_temperature":"24.294","city":"Hermosillo","latitude":"29.74N","longitude":"110.77W"}
{"date":"2013-05-01","average_temperature":"27.461","city":"Higüey","latitude":"18.48N","longitude":"69.30W"}
{"date":"2011-12-01","average_temperature":"6.399","city":"Himeji","latitude":"34.56N","longitude":"134.27E"}
{"date":"2012-07-01","average_temperature":"24.444000000000006","city":"Hiratsuka","latitude":"36.17N","longitude":"139.23E"}
{"date":"2012-02-01","average_temperature":"-10.535","city":"Hohhot","latitude":"40.99N","longitude":"110.77E"}
{"date":"2010-02-01","average_temperature":"24.677","city":"Holguín","latitude":"20.09N","longitude":"76.78W"}
{"date":"2012-11-01","average_temperature":"11.284","city":"Honghu","latitude":"29.74N","longitude":"112.62E"}
{"date":"2012-01-01","average_temperature":"17.000999999999998","city":"Hoshangabad","latitude":"23.31N","longitude":"77.77E"}
{"date":"2012-07-01","average_temperature":"24.823","city":"Houma","latitude":"36.17N","longitude":"111.38E"}
{"date":"2012-06-01","average_temperature":"24.543000000000003","city":"Huaiyin","latitude":"32.95N","longitude":"119.68E"}
{"date":"2010-05-01","average_temperature":"22.225","city":"Huangzhou","latitude":"29.74N","longitude":"114.46E"}
{"date":"2012-04-01","average_temperature":"29.233","city":"Hubli","latitude":"15.27N","longitude":"75.83E"}
{"date":"2011-10-01","average_temperature":"18.371","city":"Huzhou","latitude":"31.35N","longitude":"120.63E"}
{"date":"2011-02-01","average_temperature":"21.219","city":"Hyderabad","latitude":"24.92N","longitude":"69.16E"}
{"date":"2011-09-01","average_temperature":"25.77","city":"Ife","latitude":"7.23N","longitude":"4.05E"}
{"date":"2013-03-01","average_temperature":"21.868","city":"Iguala","latitude":"18.48N","longitude":"99.72W"}
{"date":"2012-12-01","average_temperature":"1.297","city":"Iida","latitude":"36.17N","longitude":"137.24E"}
{"date":"2013-04-01","average_temperature":"10.14","city":"Iida","latitude":"36.17N","longitude":"137.24E"}
{"date":"2012-02-01","average_temperature":"28.636000000000006","city":"Ijero","latitude":"7.23N","longitude":"5.68E"}
{"date":"2012-06-01","average_temperature":"25.911","city":"Ikere","latitude":"7.23N","longitude":"5.68E"}
{"date":"2012-10-01","average_temperature":"26.206999999999997","city":"Ikirun","latitude":"7.23N","longitude":"4.05E"}
{"date":"2012-04-01","average_temperature":"13.708","city":"Ikoma","latitude":"34.56N","longitude":"136.22E"}
{"date":"2013-08-01","average_temperature":"24.156","city":"Ikorodu","latitude":"7.23N","longitude":"4.05E"}
{"date":"2013-05-01","average_temperature":"26.542","city":"Ila","latitude":"7.23N","longitude":"5.68E"}
{"date":"2011-04-01","average_temperature":"28.71","city":"Ilobu","latitude":"7.23N","longitude":"4.05E"}
{"date":"2013-02-01","average_temperature":"29.84","city":"Ilorin","latitude":"8.84N","longitude":"4.05E"}
{"date":"2011-05-01","average_temperature":"33.73","city":"Indore","latitude":"23.31N","longitude":"76.02E"}
{"date":"2012-02-01","average_temperature":"0.331","city":"Inegol","latitude":"39.38N","longitude":"29.13E"}
{"date":"2012-02-01","average_temperature":"10.609000000000002","city":"Inglewood","latitude":"34.56N","longitude":"118.70W"}
{"date":"2012-03-01","average_temperature":"11.576","city":"Inglewood","latitude":"34.56N","longitude":"118.70W"}
{"date":"2012-04-01","average_temperature":"18.699","city":"Irbid","latitude":"32.95N","longitude":"35.43E"}
{"date":"2010-07-01","average_temperature":"16.909000000000002","city":"Irkutsk","latitude":"52.24N","longitude":"105.11E"}
{"date":"2012-11-01","average_temperature":"14.470999999999998","city":"Irving","latitude":"32.95N","longitude":"96.70W"}
{"date":"2010-12-01","average_temperature":"27.396","city":"Iseyin","latitude":"7.23N","longitude":"4.05E"}
{"date":"2012-10-01","average_temperature":"13.800999999999998","city":"Ishinomaki","latitude":"39.38N","longitude":"141.50E"}
{"date":"2010-06-01","average_temperature":"25.182","city":"Iskenderun","latitude":"36.17N","longitude":"35.80E"}
{"date":"2012-02-01","average_temperature":"26.19","city":"Itabuna","latitude":"15.27S","longitude":"39.17W"}
{"date":"2010-12-01","average_temperature":"23.216","city":"Itapevi","latitude":"23.31S","longitude":"46.31W"}
{"date":"2010-08-01","average_temperature":"27.191","city":"Iwaki","latitude":"37.78N","longitude":"140.34E"}
{"date":"2010-06-01","average_temperature":"22.686","city":"Iwakuni","latitude":"34.56N","longitude":"132.32E"}
{"date":"2011-11-01","average_temperature":"12.876","city":"Jaén","latitude":"37.78N","longitude":"4.07W"}
{"date":"2010-12-01","average_temperature":"23.216","city":"Jacareí","latitude":"23.31S","longitude":"46.31W"}
{"date":"2012-06-01","average_temperature":"26.778000000000002","city":"Jackson","latitude":"32.95N","longitude":"90.96W"}
{"date":"2012-04-01","average_temperature":"29.873","city":"Jacobabad","latitude":"28.13N","longitude":"68.18E"}
{"date":"2012-11-01","average_temperature":"22.629","city":"Jacobabad","latitude":"28.13N","longitude":"68.18E"}
{"date":"2011-02-01","average_temperature":"16.454","city":"Jagadhri","latitude":"29.74N","longitude":"77.54E"}
{"date":"2011-10-01","average_temperature":"27.515","city":"Jamalpur","latitude":"24.92N","longitude":"86.90E"}
{"date":"2012-08-01","average_temperature":"27.535","city":"Jambi","latitude":"0.80S","longitude":"103.66E"}
{"date":"2013-08-01","average_temperature":"29.666999999999998","city":"Jaunpur","latitude":"26.52N","longitude":"82.39E"}
{"date":"2012-05-01","average_temperature":"20.614","city":"Jerez","latitude":"36.17N","longitude":"5.97W"}
{"date":"2012-04-01","average_temperature":"29.309","city":"Jetpur","latitude":"21.70N","longitude":"70.10E"}
{"date":"2013-08-01","average_temperature":"30.11","city":"Jhunjhunun","latitude":"28.13N","longitude":"75.45E"}
{"date":"2011-12-01","average_temperature":"-16.512999999999998","city":"Jiaohe","latitude":"44.20N","longitude":"127.45E"}
{"date":"2012-09-01","average_temperature":"14.608","city":"Jiaohe","latitude":"44.20N","longitude":"127.45E"}
{"date":"2012-04-01","average_temperature":"29.094","city":"Jibuti","latitude":"12.05N","longitude":"42.74E"}
{"date":"2011-11-01","average_temperature":"-4.73","city":"Jinchang","latitude":"37.78N","longitude":"101.69E"}
{"date":"2013-06-01","average_temperature":"17.858","city":"Jining","latitude":"40.99N","longitude":"112.90E"}
{"date":"2012-07-01","average_temperature":"24.636","city":"Jinzhou","latitude":"40.99N","longitude":"121.42E"}
{"date":"2011-05-01","average_temperature":"21.316","city":"Jishou","latitude":"28.13N","longitude":"110.00E"}
{"date":"2012-12-01","average_temperature":"-19.577","city":"Jishu","latitude":"44.20N","longitude":"127.45E"}
{"date":"2011-05-01","average_temperature":"21.378","city":"Jiujiang","latitude":"29.74N","longitude":"116.31E"}
{"date":"2013-03-01","average_temperature":"19.033","city":"Johannesburg","latitude":"26.52S","longitude":"28.66E"}
{"date":"2012-09-01","average_temperature":"17.968999999999994","city":"Joliet","latitude":"40.99N","longitude":"87.34W"}
{"date":"2011-07-01","average_temperature":"17.365","city":"Juiz De Fora","latitude":"21.70S","longitude":"44.13W"}
{"date":"2010-01-01","average_temperature":"4.745","city":"Kadoma","latitude":"34.56N","longitude":"136.22E"}
{"date":"2012-07-01","average_temperature":"24.625","city":"Kaduna","latitude":"10.45N","longitude":"7.36E"}
{"date":"2012-08-01","average_temperature":"26.496","city":"Kaifeng","latitude":"34.56N","longitude":"114.81E"}
{"date":"2011-01-01","average_temperature":"10.866","city":"Kallithéa","latitude":"37.78N","longitude":"24.41E"}
{"date":"2011-06-01","average_temperature":"21.085","city":"Kamagaya","latitude":"36.17N","longitude":"139.23E"}
{"date":"2011-03-01","average_temperature":"27.394","city":"Kanchrapara","latitude":"23.31N","longitude":"88.25E"}
{"date":"2013-02-01","average_temperature":"0.053999999999999986","city":"Kansas City","latitude":"39.38N","longitude":"93.64W"}
{"date":"2012-09-01","average_temperature":"27.348000000000003","city":"Kaohsiung","latitude":"23.31N","longitude":"119.71E"}
{"date":"2010-12-01","average_temperature":"22.234","city":"Kapra","latitude":"16.87N","longitude":"78.70E"}
{"date":"2011-09-01","average_temperature":"21.52","city":"Karaj","latitude":"36.17N","longitude":"51.71E"}
{"date":"2010-06-01","average_temperature":"21.521","city":"Kashiwa","latitude":"36.17N","longitude":"139.23E"}
{"date":"2012-08-01","average_temperature":"26.680999999999997","city":"Kashiwa","latitude":"36.17N","longitude":"139.23E"}
{"date":"2013-02-01","average_temperature":"8.399999999999999","city":"Kathmandu","latitude":"28.13N","longitude":"84.55E"}
{"date":"2012-05-01","average_temperature":"33.317","city":"Katsina","latitude":"13.66N","longitude":"7.43E"}
{"date":"2011-08-01","average_temperature":"25.969","city":"Kenitra","latitude":"34.56N","longitude":"5.84W"}
{"date":"2011-06-01","average_temperature":"25.432","city":"Kermanshah","latitude":"34.56N","longitude":"46.70E"}
{"date":"2011-12-01","average_temperature":"24.221999999999998","city":"Khammam","latitude":"16.87N","longitude":"80.37E"}
{"date":"2010-04-01","average_temperature":"12.637999999999998","city":"Khomeynishahr","latitude":"32.95N","longitude":"50.74E"}
{"date":"2012-01-01","average_temperature":"-0.981","city":"Khomeynishahr","latitude":"32.95N","longitude":"50.74E"}
{"date":"2012-07-01","average_temperature":"27.726000000000006","city":"Khon Kaen","latitude":"16.87N","longitude":"102.14E"}
{"date":"2011-04-01","average_temperature":"24.706999999999997","city":"Khushab","latitude":"32.95N","longitude":"71.81E"}
{"date":"2010-12-01","average_temperature":"20.837000000000003","city":"Kigoma","latitude":"4.02S","longitude":"29.73E"}
{"date":"2012-08-01","average_temperature":"21.308000000000003","city":"Kingston","latitude":"44.20N","longitude":"76.02W"}
{"date":"2011-01-01","average_temperature":"25.793000000000003","city":"Kingston","latitude":"18.48N","longitude":"76.06W"}
{"date":"2011-12-01","average_temperature":"4.819","city":"Kingston Upon Hull","latitude":"53.84N","longitude":"1.36W"}
{"date":"2013-08-01","average_temperature":"16.473","city":"Kingston Upon Hull","latitude":"53.84N","longitude":"1.36W"}
{"date":"2012-07-01","average_temperature":"21.753","city":"Kinshasa","latitude":"4.02S","longitude":"15.27E"}
{"date":"2011-01-01","average_temperature":"7.565000000000001","city":"Kisarazu","latitude":"34.56N","longitude":"140.11E"}
{"date":"2012-02-01","average_temperature":"27.905","city":"Kochi","latitude":"10.45N","longitude":"76.09E"}
{"date":"2013-06-01","average_temperature":"34.187","city":"Kohat","latitude":"32.95N","longitude":"71.81E"}
{"date":"2012-10-01","average_temperature":"26.11","city":"Kolar","latitude":"13.66N","longitude":"78.44E"}
{"date":"2011-04-01","average_temperature":"28.429","city":"Kolhapur","latitude":"16.87N","longitude":"73.67E"}
{"date":"2010-10-01","average_temperature":"26.273000000000003","city":"Kollam","latitude":"8.84N","longitude":"77.03E"}
{"date":"2013-03-01","average_temperature":"-8.177999999999999","city":"Kolpino","latitude":"60.27N","longitude":"29.19E"}
{"date":"2013-04-01","average_temperature":"2.167","city":"Kolpino","latitude":"60.27N","longitude":"29.19E"}
{"date":"2012-05-01","average_temperature":"15.764000000000001","city":"Konan","latitude":"36.17N","longitude":"137.24E"}
{"date":"2012-05-01","average_temperature":"16.669999999999998","city":"Koshigaya","latitude":"36.17N","longitude":"139.23E"}
{"date":"2011-03-01","average_temperature":"21.653","city":"Kot Addu","latitude":"29.74N","longitude":"70.15E"}
{"date":"2012-08-01","average_temperature":"12.859000000000002","city":"Krugersdorp","latitude":"26.52S","longitude":"28.66E"}
{"date":"2010-09-01","average_temperature":"27.572","city":"Kuala Terengganu","latitude":"5.63N","longitude":"103.32E"}
{"date":"2010-01-01","average_temperature":"27.834","city":"Kulim","latitude":"5.63N","longitude":"100.09E"}
{"date":"2013-01-01","average_temperature":"26.839000000000002","city":"Kumba","latitude":"4.02N","longitude":"8.84E"}
{"date":"2013-03-01","average_temperature":"1.5140000000000002","city":"Kuytun","latitude":"44.20N","longitude":"84.97E"}
{"date":"2012-07-01","average_temperature":"15.406","city":"Kwekwe","latitude":"18.48S","longitude":"30.42E"}
{"date":"2010-01-01","average_temperature":"11.607000000000001","city":"López Mateos","latitude":"20.09N","longitude":"98.96W"}
{"date":"2013-08-01","average_temperature":"17.881999999999994","city":"López Mateos","latitude":"20.09N","longitude":"98.96W"}
{"date":"2012-09-01","average_temperature":"30.147","city":"La Paz","latitude":"24.92N","longitude":"109.95W"}
{"date":"2012-05-01","average_temperature":"16.180999999999994","city":"La Plata","latitude":"34.56S","longitude":"58.38W"}
{"date":"2012-04-01","average_temperature":"25.221","city":"La Vega","latitude":"18.48N","longitude":"70.99W"}
{"date":"2013-08-01","average_temperature":"25.689","city":"Lagos","latitude":"5.63N","longitude":"3.23E"}
{"date":"2011-12-01","average_temperature":"14.259","city":"Lahore","latitude":"31.35N","longitude":"73.51E"}
{"date":"2010-07-01","average_temperature":"27.660999999999998","city":"Laiwu","latitude":"36.17N","longitude":"117.35E"}
{"date":"2011-09-01","average_temperature":"19.567999999999998","city":"Laiwu","latitude":"36.17N","longitude":"117.35E"}
{"date":"2012-08-01","average_temperature":"25.19","city":"Laiyang","latitude":"36.17N","longitude":"121.33E"}
{"date":"2010-10-01","average_temperature":"26.538","city":"Lalitpur","latitude":"24.92N","longitude":"78.03E"}
{"date":"2011-10-01","average_temperature":"26.08","city":"Lalitpur","latitude":"24.92N","longitude":"78.03E"}
{"date":"2010-05-01","average_temperature":"17.942999999999998","city":"Lambaré","latitude":"24.92S","longitude":"58.52W"}
{"date":"2011-07-01","average_temperature":"23.428","city":"Las Palmas","latitude":"28.13N","longitude":"15.45W"}
{"date":"2010-07-01","average_temperature":"27.541","city":"Lawang","latitude":"7.23S","longitude":"112.70E"}
{"date":"2010-09-01","average_temperature":"15.232","city":"Le Havre","latitude":"49.03N","longitude":"0.00W"}
{"date":"2010-04-01","average_temperature":"11.436","city":"Le Mans","latitude":"47.42N","longitude":"1.18E"}
{"date":"2013-02-01","average_temperature":"0.121","city":"Liège","latitude":"50.63N","longitude":"6.34E"}
{"date":"2013-05-01","average_temperature":"27.35","city":"Liancheng","latitude":"21.70N","longitude":"109.90E"}
{"date":"2010-12-01","average_temperature":"26.771","city":"Libreville","latitude":"0.80N","longitude":"8.84E"}
{"date":"2010-03-01","average_temperature":"23.76","city":"Lichinga","latitude":"13.66S","longitude":"35.50E"}
{"date":"2010-11-01","average_temperature":"4.754","city":"Lincoln","latitude":"40.99N","longitude":"95.86W"}
{"date":"2010-03-01","average_temperature":"5.462999999999999","city":"Linfen","latitude":"36.17N","longitude":"111.38E"}
{"date":"2012-04-01","average_temperature":"22.82","city":"Livingstone","latitude":"18.48S","longitude":"25.35E"}
{"date":"2012-07-01","average_temperature":"26.384","city":"Loa Janan","latitude":"0.80S","longitude":"116.52E"}
{"date":"2012-12-01","average_temperature":"13.530999999999999","city":"Long Beach","latitude":"32.95N","longitude":"117.77W"}
{"date":"2013-07-01","average_temperature":"18.090999999999998","city":"Los Reyes","latitude":"20.09N","longitude":"98.96W"}
{"date":"2010-10-01","average_temperature":"29.311","city":"Louga","latitude":"15.27N","longitude":"15.83W"}
{"date":"2012-02-01","average_temperature":"25.073","city":"Louga","latitude":"15.27N","longitude":"15.83W"}
{"date":"2012-03-01","average_temperature":"5.832000000000001","city":"Luancheng","latitude":"37.78N","longitude":"113.90E"}
{"date":"2011-04-01","average_temperature":"21.008000000000003","city":"Lubumbashi","latitude":"12.05S","longitude":"27.95E"}
{"date":"2010-01-01","average_temperature":"28.226","city":"Luque","latitude":"24.92S","longitude":"56.75W"}
{"date":"2011-08-01","average_temperature":"19.724","city":"Luque","latitude":"24.92S","longitude":"56.75W"}
{"date":"2010-04-01","average_temperature":"13.122","city":"Maanshan","latitude":"31.35N","longitude":"118.74E"}
{"date":"2012-05-01","average_temperature":"19.03","city":"Macaé","latitude":"21.70S","longitude":"42.40W"}
{"date":"2012-10-01","average_temperature":"20.573","city":"Machala","latitude":"4.02S","longitude":"79.55W"}
{"date":"2011-04-01","average_temperature":"11.175","city":"Machida","latitude":"36.17N","longitude":"139.23E"}
{"date":"2010-02-01","average_temperature":"26.548","city":"Madiun","latitude":"7.23S","longitude":"111.08E"}
{"date":"2013-08-01","average_temperature":"30.513","city":"Madras","latitude":"13.66N","longitude":"80.09E"}
{"date":"2011-11-01","average_temperature":"5.0470000000000015","city":"Magdeburg","latitude":"52.24N","longitude":"10.51E"}
{"date":"2010-10-01","average_temperature":"26.793000000000003","city":"Magelang","latitude":"7.23S","longitude":"109.46E"}
{"date":"2012-02-01","average_temperature":"28.256","city":"Maiduguri","latitude":"12.05N","longitude":"13.15E"}
{"date":"2013-03-01","average_temperature":"28.057","city":"Maisuru","latitude":"12.05N","longitude":"77.26E"}
{"date":"2013-04-01","average_temperature":"27.491999999999997","city":"Makasar","latitude":"5.63S","longitude":"119.46E"}
{"date":"2013-04-01","average_temperature":"10.292000000000002","city":"Makhachkala","latitude":"42.59N","longitude":"48.00E"}
{"date":"2011-12-01","average_temperature":"4.819","city":"Manchester","latitude":"53.84N","longitude":"1.36W"}
{"date":"2013-03-01","average_temperature":"28.54","city":"Mandaue","latitude":"10.45N","longitude":"123.55E"}
{"date":"2010-05-01","average_temperature":"11.698","city":"Mannheim","latitude":"49.03N","longitude":"7.35E"}
{"date":"2013-04-01","average_temperature":"24.249000000000002","city":"Manzanillo","latitude":"18.48N","longitude":"104.79W"}
{"date":"2010-10-01","average_temperature":"22.255","city":"Manzini","latitude":"26.52S","longitude":"32.24E"}
{"date":"2010-05-01","average_temperature":"20.888","city":"Maputo","latitude":"26.52S","longitude":"32.24E"}
{"date":"2012-05-01","average_temperature":"28.590999999999998","city":"Maracaibo","latitude":"10.45N","longitude":"71.18W"}
{"date":"2013-08-01","average_temperature":"22.781","city":"Maragheh","latitude":"37.78N","longitude":"46.78E"}
{"date":"2010-01-01","average_temperature":"0.8019999999999996","city":"Marand","latitude":"39.38N","longitude":"45.78E"}
{"date":"2010-09-01","average_temperature":"15.257","city":"Maseru","latitude":"29.74S","longitude":"27.69E"}
{"date":"2013-03-01","average_temperature":"18.948","city":"Maseru","latitude":"29.74S","longitude":"27.69E"}
{"date":"2012-05-01","average_temperature":"18.069000000000003","city":"Matsubara","latitude":"34.56N","longitude":"136.22E"}
{"date":"2011-06-01","average_temperature":"21.085","city":"Matsudo","latitude":"36.17N","longitude":"139.23E"}
{"date":"2013-07-01","average_temperature":"25.562","city":"Matsumoto","latitude":"36.17N","longitude":"137.24E"}
{"date":"2010-10-01","average_temperature":"22.055000000000003","city":"Mazatlán","latitude":"23.31N","longitude":"105.73W"}
{"date":"2013-06-01","average_temperature":"17.971999999999994","city":"Mbeya","latitude":"8.84S","longitude":"33.24E"}
{"date":"2013-03-01","average_temperature":"19.964000000000002","city":"Melbourne","latitude":"37.78S","longitude":"144.41E"}
{"date":"2012-02-01","average_temperature":"14.095999999999998","city":"Mexico","latitude":"20.09N","longitude":"98.96W"}
{"date":"2010-10-01","average_temperature":"17.893","city":"Miandoab","latitude":"36.17N","longitude":"45.75E"}
{"date":"2010-07-01","average_temperature":"19.473","city":"Miass","latitude":"55.45N","longitude":"59.53E"}
{"date":"2013-05-01","average_temperature":"12.154000000000002","city":"Middelburg","latitude":"26.52S","longitude":"28.66E"}
{"date":"2012-09-01","average_temperature":"20.919","city":"Milagro","latitude":"2.41S","longitude":"79.55W"}
{"date":"2012-08-01","average_temperature":"25.13","city":"Minna","latitude":"8.84N","longitude":"7.30E"}
{"date":"2010-04-01","average_temperature":"9.319","city":"Moers","latitude":"50.63N","longitude":"6.34E"}
{"date":"2013-07-01","average_temperature":"26.738000000000003","city":"Mojokerto","latitude":"7.23S","longitude":"112.70E"}
{"date":"2012-11-01","average_temperature":"27.128","city":"Monrovia","latitude":"7.23N","longitude":"10.54W"}
{"date":"2011-09-01","average_temperature":"13.99","city":"Montevideo","latitude":"34.56S","longitude":"56.43W"}
{"date":"2010-06-01","average_temperature":"28.209","city":"Monywa","latitude":"21.70N","longitude":"94.33E"}
{"date":"2011-01-01","average_temperature":"19.515","city":"Monywa","latitude":"21.70N","longitude":"94.33E"}
{"date":"2013-02-01","average_temperature":"23.471","city":"Monywa","latitude":"21.70N","longitude":"94.33E"}
{"date":"2011-04-01","average_temperature":"12.548","city":"Moriguchi","latitude":"34.56N","longitude":"136.22E"}
{"date":"2012-10-01","average_temperature":"26.098000000000006","city":"Morogoro","latitude":"7.23S","longitude":"38.11E"}
{"date":"2010-02-01","average_temperature":"-0.966","city":"Mulhouse","latitude":"47.42N","longitude":"8.29E"}
{"date":"2013-05-01","average_temperature":"33.457","city":"Muridke","latitude":"31.35N","longitude":"73.51E"}
{"date":"2011-10-01","average_temperature":"15.488","city":"Musashino","latitude":"36.17N","longitude":"139.23E"}
{"date":"2013-09-01","city":"Musashino","latitude":"36.17N","longitude":"139.23E"}
{"date":"2011-03-01","average_temperature":"22.697000000000006","city":"Musoma","latitude":"0.80S","longitude":"34.55E"}
{"date":"2011-06-01","average_temperature":"28.56","city":"Muzaffarpur","latitude":"26.52N","longitude":"85.97E"}
{"date":"2010-01-01","average_temperature":"23.558000000000003","city":"Mwanza","latitude":"2.41S","longitude":"32.95E"}
{"date":"2011-07-01","average_temperature":"27.540000000000006","city":"Naga","latitude":"13.66N","longitude":"123.03E"}
{"date":"2011-06-01","average_temperature":"26.493","city":"Nagercoil","latitude":"8.84N","longitude":"77.03E"}
{"date":"2013-07-01","average_temperature":"15.24","city":"Nairobi","latitude":"0.80S","longitude":"36.16E"}
{"date":"2013-02-01","average_temperature":"-19.343","city":"Nancha","latitude":"47.42N","longitude":"129.08E"}
{"date":"2013-04-01","average_temperature":"29.304000000000002","city":"Nangloi Jat","latitude":"28.13N","longitude":"77.27E"}
{"date":"2010-10-01","average_temperature":"16.916999999999998","city":"Nanjing","latitude":"31.35N","longitude":"118.74E"}
{"date":"2010-06-01","average_temperature":"25.06","city":"Nantou","latitude":"23.31N","longitude":"121.46E"}
{"date":"2013-09-01","city":"Nantou","latitude":"23.31N","longitude":"121.46E"}
{"date":"2010-08-01","average_temperature":"24.592","city":"Naperville","latitude":"40.99N","longitude":"87.34W"}
{"date":"2011-07-01","average_temperature":"27.755000000000006","city":"Nashville","latitude":"36.17N","longitude":"87.51W"}
{"date":"2013-07-01","average_temperature":"24.365","city":"Nashville","latitude":"36.17N","longitude":"87.51W"}
{"date":"2013-06-01","average_temperature":"25.995","city":"Natal","latitude":"5.63S","longitude":"35.52W"}
{"date":"2012-08-01","average_temperature":"33.337999999999994","city":"Nawabshah","latitude":"26.52N","longitude":"68.06E"}
{"date":"2012-07-01","average_temperature":"16.89","city":"Ndola","latitude":"13.66S","longitude":"28.90E"}
{"date":"2011-08-01","average_temperature":"12.269","city":"Nefteyugansk","latitude":"61.88N","longitude":"73.02E"}
{"date":"2012-04-01","average_temperature":"19.974","city":"Neijiang","latitude":"29.74N","longitude":"105.23E"}
{"date":"2010-09-01","average_temperature":"17.942","city":"Newcastle","latitude":"28.13S","longitude":"30.00E"}
{"date":"2012-08-01","average_temperature":"16.572","city":"Newport","latitude":"52.24N","longitude":"2.63W"}
{"date":"2011-01-01","average_temperature":"13.116","city":"Nezahualcóyotl","latitude":"20.09N","longitude":"98.96W"}
{"date":"2010-05-01","average_temperature":"15.030999999999999","city":"Niigata","latitude":"37.78N","longitude":"138.31E"}
{"date":"2012-09-01","average_temperature":"23.186","city":"Niterói","latitude":"23.31S","longitude":"42.82W"}
{"date":"2013-02-01","average_temperature":"27.19","city":"Niterói","latitude":"23.31S","longitude":"42.82W"}
{"date":"2012-01-01","average_temperature":"-20.484","city":"Nizhnevartovsk","latitude":"60.27N","longitude":"77.84E"}
{"date":"2011-06-01","average_temperature":"26.901","city":"Nnewi","latitude":"5.63N","longitude":"6.46E"}
{"date":"2010-09-01","average_temperature":"22.414","city":"Noda","latitude":"36.17N","longitude":"139.23E"}
{"date":"2011-08-01","average_temperature":"28.296","city":"Nogales","latitude":"31.35N","longitude":"111.20W"}
{"date":"2011-10-01","average_temperature":"27.317","city":"Nonthaburi","latitude":"13.66N","longitude":"99.91E"}
{"date":"2011-02-01","average_temperature":"-29.783","city":"Norilsk","latitude":"69.92N","longitude":"88.83E"}
{"date":"2013-05-01","average_temperature":"31.959","city":"Nouakchott","latitude":"18.48N","longitude":"15.21W"}
{"date":"2011-08-01","average_temperature":"19.942","city":"Nova Friburgo","latitude":"21.70S","longitude":"42.40W"}
{"date":"2012-11-01","average_temperature":"-0.5220000000000002","city":"Novocheboksarsk","latitude":"55.45N","longitude":"48.19E"}
{"date":"2013-02-01","average_temperature":"0.27699999999999925","city":"Novocherkassk","latitude":"47.42N","longitude":"39.08E"}
{"date":"2010-10-01","average_temperature":"26.515","city":"Nsukka","latitude":"7.23N","longitude":"7.30E"}
{"date":"2012-12-01","average_temperature":"-1.848","city":"Nyíregyháza","latitude":"47.42N","longitude":"22.50E"}
{"date":"2011-10-01","average_temperature":"25.296999999999997","city":"Nzérékoré","latitude":"7.23N","longitude":"8.92W"}
{"date":"2011-10-01","average_temperature":"17.294999999999998","city":"Oakland","latitude":"37.78N","longitude":"122.03W"}
{"date":"2010-02-01","average_temperature":"1.158","city":"Oberhausen","latitude":"50.63N","longitude":"6.34E"}
{"date":"2012-09-01","average_temperature":"19.62","city":"Obihiro","latitude":"42.59N","longitude":"144.00E"}
{"date":"2012-11-01","average_temperature":"1.0759999999999998","city":"Obninsk","latitude":"55.45N","longitude":"36.85E"}
{"date":"2011-06-01","average_temperature":"26.125","city":"Obuasi","latitude":"5.63N","longitude":"1.61W"}
{"date":"2012-01-01","average_temperature":"0.7150000000000001","city":"Odawara","latitude":"36.17N","longitude":"139.23E"}
{"date":"2011-10-01","average_temperature":"11.255999999999998","city":"Odesa","latitude":"45.81N","longitude":"31.15E"}
{"date":"2013-05-01","average_temperature":"18.358","city":"Ogaki","latitude":"34.56N","longitude":"136.22E"}
{"date":"2011-01-01","average_temperature":"2.9789999999999996","city":"Oldham","latitude":"53.84N","longitude":"1.36W"}
{"date":"2012-11-01","average_temperature":"6.006","city":"Oldham","latitude":"53.84N","longitude":"1.36W"}
{"date":"2012-12-01","average_temperature":"-23.548","city":"Omsk","latitude":"55.45N","longitude":"73.70E"}
{"date":"2013-05-01","average_temperature":"27.426","city":"Opobo","latitude":"4.02N","longitude":"7.23E"}
{"date":"2012-12-01","average_temperature":"20.763","city":"Orizaba","latitude":"18.48N","longitude":"96.34W"}
{"date":"2011-03-01","average_temperature":"10.597000000000001","city":"Oruro","latitude":"18.48S","longitude":"67.61W"}
{"date":"2013-06-01","average_temperature":"4.215","city":"Oruro","latitude":"18.48S","longitude":"67.61W"}
{"date":"2011-08-01","average_temperature":"12.838","city":"Oslo","latitude":"60.27N","longitude":"9.73E"}
{"date":"2013-02-01","average_temperature":"-6.8260000000000005","city":"Oslo","latitude":"60.27N","longitude":"9.73E"}
{"date":"2013-03-01","average_temperature":"-0.6629999999999999","city":"Otaru","latitude":"42.59N","longitude":"141.82E"}
{"date":"2013-04-01","average_temperature":"29.42","city":"Otukpo","latitude":"7.23N","longitude":"8.92E"}
{"date":"2012-04-01","average_temperature":"14.760000000000002","city":"Overland Park","latitude":"39.38N","longitude":"93.64W"}
{"date":"2013-01-01","average_temperature":"1.06","city":"Paderborn","latitude":"52.24N","longitude":"7.88E"}
{"date":"2012-07-01","average_temperature":"27.585","city":"Palanpur","latitude":"24.92N","longitude":"72.71E"}
{"date":"2010-01-01","average_temperature":"11.167","city":"Palma","latitude":"39.38N","longitude":"2.08E"}
{"date":"2012-12-01","average_temperature":"22.065","city":"Palmira","latitude":"4.02N","longitude":"76.34W"}
{"date":"2012-09-01","average_temperature":"13.149000000000001","city":"Panevezys","latitude":"55.45N","longitude":"25.51E"}
{"date":"2010-09-01","average_temperature":"29.536","city":"Panihati","latitude":"23.31N","longitude":"88.25E"}
{"date":"2010-07-01","average_temperature":"27.905","city":"Parsabad","latitude":"39.38N","longitude":"47.86E"}
{"date":"2013-08-01","average_temperature":"27.372","city":"Pasir Gudang","latitude":"0.80N","longitude":"103.66E"}
{"date":"2012-12-01","average_temperature":"6.361000000000001","city":"Pathankot","latitude":"32.95N","longitude":"75.64E"}
{"date":"2013-08-01","average_temperature":"29.531","city":"Patna","latitude":"24.92N","longitude":"85.12E"}
{"date":"2011-06-01","average_temperature":"19.723","city":"Patos De Minas","latitude":"18.48S","longitude":"47.32W"}
{"date":"2013-08-01","average_temperature":"21.914","city":"Patos De Minas","latitude":"18.48S","longitude":"47.32W"}
{"date":"2010-09-01","average_temperature":"13.619000000000002","city":"Penza","latitude":"53.84N","longitude":"45.00E"}
{"date":"2013-06-01","average_temperature":"28.952","city":"Perbaungan","latitude":"4.02N","longitude":"98.84E"}
{"date":"2012-10-01","average_temperature":"4.617","city":"Petropavl","latitude":"55.45N","longitude":"68.03E"}
{"date":"2013-01-01","average_temperature":"24.930999999999997","city":"Phitsanulok","latitude":"16.87N","longitude":"100.47E"}
{"date":"2012-02-01","average_temperature":"13.139","city":"Phoenix","latitude":"32.95N","longitude":"112.02W"}
{"date":"2012-06-01","average_temperature":"16.883","city":"Pinsk","latitude":"52.24N","longitude":"26.28E"}
{"date":"2012-12-01","average_temperature":"2.938","city":"Pittsburgh","latitude":"40.99N","longitude":"80.95W"}
{"date":"2010-07-01","average_temperature":"29.474","city":"Plano","latitude":"32.95N","longitude":"96.70W"}
{"date":"2012-12-01","average_temperature":"0.127","city":"Plzen","latitude":"50.63N","longitude":"13.94E"}
{"date":"2010-02-01","average_temperature":"24.83","city":"Poá","latitude":"23.31S","longitude":"46.31W"}
{"date":"2011-03-01","average_temperature":"11.985","city":"Pomona","latitude":"34.56N","longitude":"118.70W"}
{"date":"2010-07-01","average_temperature":"26.326999999999998","city":"Ponnani","latitude":"10.45N","longitude":"76.09E"}
{"date":"2013-02-01","average_temperature":"28.139000000000006","city":"Ponnani","latitude":"10.45N","longitude":"76.09E"}
{"date":"2011-02-01","average_temperature":"21.982","city":"Ponta Grossa","latitude":"24.92S","longitude":"49.66W"}
{"date":"2010-08-01","average_temperature":"16.335","city":"Poole","latitude":"50.63N","longitude":"1.27W"}
{"date":"2011-02-01","average_temperature":"27.247","city":"Port Harcourt","latitude":"4.02N","longitude":"7.23E"}
{"date":"2011-10-01","average_temperature":"26.344","city":"Port Harcourt","latitude":"4.02N","longitude":"7.23E"}
{"date":"2013-03-01","average_temperature":"7.622000000000001","city":"Portland","latitude":"45.81N","longitude":"123.46W"}
{"date":"2012-04-01","average_temperature":"19.842","city":"Potgietersrus","latitude":"23.31S","longitude":"28.83E"}
{"date":"2013-09-01","average_temperature":"29.031","city":"Puerto Plata","latitude":"20.09N","longitude":"69.95W"}
{"date":"2010-06-01","average_temperature":"-0.456","city":"Punta Arenas","latitude":"52.24S","longitude":"70.95W"}
{"date":"2011-11-01","average_temperature":"25.775","city":"Purwakarta","latitude":"7.23S","longitude":"107.84E"}
{"date":"2010-05-01","average_temperature":"27.41","city":"Purwokerto","latitude":"7.23S","longitude":"109.46E"}
{"date":"2010-05-01","average_temperature":"14.342","city":"Pyatigorsk","latitude":"44.20N","longitude":"42.48E"}
{"date":"2010-05-01","average_temperature":"26.286","city":"Qalyub","latitude":"29.74N","longitude":"31.38E"}
{"date":"2012-12-01","average_temperature":"-20.079","city":"Qianguo","latitude":"45.81N","longitude":"125.77E"}
{"date":"2012-06-01","average_temperature":"26.539","city":"Qianjiang","latitude":"29.74N","longitude":"112.62E"}
{"date":"2012-10-01","average_temperature":"25.174","city":"Qinzhou","latitude":"21.70N","longitude":"108.17E"}
{"date":"2013-01-01","average_temperature":"28.023000000000003","city":"Quelimane","latitude":"18.48S","longitude":"37.18E"}
{"date":"2010-03-01","average_temperature":"12.263","city":"Queluz","latitude":"39.38N","longitude":"8.32W"}
{"date":"2012-04-01","average_temperature":"20.691","city":"Quetzaltenango","latitude":"15.27N","longitude":"90.83W"}
{"date":"2013-02-01","average_temperature":"25.113000000000003","city":"Qui Nhon","latitude":"13.66N","longitude":"109.82E"}
{"date":"2012-07-01","average_temperature":"30.578000000000003","city":"Rae Bareli","latitude":"26.52N","longitude":"80.60E"}
{"date":"2012-05-01","average_temperature":"22.703000000000007","city":"Rafsanjan","latitude":"29.74N","longitude":"55.38E"}
{"date":"2010-08-01","average_temperature":"28.191000000000006","city":"Raigarh","latitude":"21.70N","longitude":"83.94E"}
{"date":"2012-04-01","average_temperature":"28.916","city":"Rajapalaiyam","latitude":"8.84N","longitude":"77.03E"}
{"date":"2010-01-01","average_temperature":"2.13","city":"Raleigh","latitude":"36.17N","longitude":"79.56W"}
{"date":"2013-09-01","average_temperature":"25.185","city":"Rancho Cucamonga","latitude":"34.56N","longitude":"116.76W"}
{"date":"2012-08-01","average_temperature":"27.049","city":"Rangkasbitung","latitude":"5.63S","longitude":"106.55E"}
{"date":"2013-05-01","average_temperature":"17.366","city":"Rasht","latitude":"37.78N","longitude":"48.81E"}
{"date":"2012-01-01","average_temperature":"17.495","city":"Ratlam","latitude":"23.31N","longitude":"74.27E"}
{"date":"2010-03-01","average_temperature":"6.638999999999999","city":"Reading","latitude":"50.63N","longitude":"1.27W"}
{"date":"2012-02-01","average_temperature":"28.488000000000003","city":"Resistencia","latitude":"28.13S","longitude":"59.09W"}
{"date":"2012-02-01","average_temperature":"19.435","city":"Rewa","latitude":"24.92N","longitude":"81.58E"}
{"date":"2010-08-01","average_temperature":"16.840999999999998","city":"Richards Bay","latitude":"28.13S","longitude":"31.82E"}
{"date":"2011-02-01","average_temperature":"5.877999999999999","city":"Richmond","latitude":"37.78N","longitude":"77.29W"}
{"date":"2010-10-01","average_temperature":"26.361","city":"Rio Branco","latitude":"10.45S","longitude":"67.91W"}
{"date":"2010-10-01","average_temperature":"28.071","city":"Rishra","latitude":"23.31N","longitude":"88.25E"}
{"date":"2013-02-01","average_temperature":"-0.036000000000000004","city":"Rostock","latitude":"53.84N","longitude":"12.27E"}
{"date":"2012-05-01","average_temperature":"14.169","city":"Rotterdam","latitude":"52.24N","longitude":"5.26E"}
{"date":"2010-10-01","average_temperature":"11.357999999999999","city":"Rouen","latitude":"49.03N","longitude":"0.00W"}
{"date":"2010-03-01","average_temperature":"28.023000000000003","city":"Roxas","latitude":"12.05N","longitude":"123.29E"}
{"date":"2012-01-01","average_temperature":"-21.75","city":"Rubtsovsk","latitude":"52.24N","longitude":"81.46E"}
{"date":"2011-08-01","average_temperature":"28.006","city":"Ruian","latitude":"28.13N","longitude":"120.91E"}
{"date":"2010-08-01","average_temperature":"22.677","city":"São João De Meriti","latitude":"23.31S","longitude":"42.82W"}
{"date":"2011-12-01","average_temperature":"22.244","city":"São José Dos Campos","latitude":"23.31S","longitude":"46.31W"}
{"date":"2011-02-01","average_temperature":"21.982","city":"São José Dos Pinhais","latitude":"24.92S","longitude":"49.66W"}
{"date":"2011-05-01","average_temperature":"26.982","city":"São Luís","latitude":"2.41S","longitude":"44.20W"}
{"date":"2012-11-01","average_temperature":"13.367","city":"Sacramento","latitude":"37.78N","longitude":"122.03W"}
{"date":"2010-01-01","average_temperature":"12.42","city":"Saharanpur","latitude":"29.74N","longitude":"77.54E"}
{"date":"2010-10-01","average_temperature":"27.029","city":"Sahiwal","latitude":"31.35N","longitude":"73.51E"}
{"date":"2012-04-01","average_temperature":"13.899000000000001","city":"Saint Louis","latitude":"39.38N","longitude":"89.48W"}
{"date":"2011-03-01","average_temperature":"20.047","city":"Saint Petersburg","latitude":"28.13N","longitude":"82.73W"}
{"date":"2011-11-01","average_temperature":"2.449","city":"Salihorsk","latitude":"52.24N","longitude":"26.28E"}
{"date":"2013-08-01","average_temperature":"24.845","city":"Salt Lake City","latitude":"40.99N","longitude":"112.90W"}
{"date":"2012-05-01","average_temperature":"34.113","city":"Sambhal","latitude":"28.13N","longitude":"79.09E"}
{"date":"2011-11-01","average_temperature":"16.891","city":"San Antonio","latitude":"29.74N","longitude":"97.85W"}
{"date":"2010-08-01","average_temperature":"18.781","city":"San Jose","latitude":"37.78N","longitude":"122.03W"}
{"date":"2012-10-01","average_temperature":"19.61","city":"San Juan","latitude":"31.35S","longitude":"67.85W"}
{"date":"2011-03-01","average_temperature":"18.622","city":"San Luis Río Colorado","latitude":"32.95N","longitude":"113.94W"}
{"date":"2011-11-01","average_temperature":"22.742","city":"San Nicolas","latitude":"32.95S","longitude":"60.32W"}
{"date":"2010-12-01","average_temperature":"26.576999999999998","city":"San Pédro","latitude":"5.63N","longitude":"6.46W"}
{"date":"2011-12-01","average_temperature":"13.267000000000001","city":"San Pablo De Las Salinas","latitude":"20.09N","longitude":"98.96W"}
{"date":"2013-02-01","average_temperature":"25.215999999999998","city":"San Pedro De Macorís","latitude":"18.48N","longitude":"69.30W"}
{"date":"2012-11-01","average_temperature":"10.787","city":"Sanandaj","latitude":"34.56N","longitude":"46.70E"}
{"date":"2011-04-01","average_temperature":"26.549","city":"Santa Ana","latitude":"13.66N","longitude":"90.00W"}
{"date":"2010-11-01","average_temperature":"26.673","city":"Santa Rosa","latitude":"13.66N","longitude":"121.38E"}
{"date":"2011-04-01","average_temperature":"12.419","city":"Saqqez","latitude":"36.17N","longitude":"45.75E"}
{"date":"2013-03-01","average_temperature":"-6.966","city":"Saransk","latitude":"53.84N","longitude":"45.00E"}
{"date":"2012-11-01","average_temperature":"-2.633","city":"Sarapul","latitude":"57.05N","longitude":"54.59E"}
{"date":"2012-01-01","average_temperature":"-10.458000000000002","city":"Saratov","latitude":"52.24N","longitude":"47.30E"}
{"date":"2012-01-01","average_temperature":"-1.084","city":"Satu Mare","latitude":"47.42N","longitude":"22.50E"}
{"date":"2012-03-01","average_temperature":"27.691000000000006","city":"Sawangan","latitude":"5.63S","longitude":"106.55E"}
{"date":"2010-12-01","average_temperature":"5.7189999999999985","city":"Sayama","latitude":"36.17N","longitude":"139.23E"}
{"date":"2012-12-01","average_temperature":"11.169","city":"Scottsdale","latitude":"32.95N","longitude":"112.02W"}
{"date":"2010-07-01","average_temperature":"27.356","city":"Sekudai","latitude":"0.80N","longitude":"103.66E"}
{"date":"2011-10-01","average_temperature":"26.878","city":"Sekudai","latitude":"0.80N","longitude":"103.66E"}
{"date":"2011-05-01","average_temperature":"16.563","city":"Seoul","latitude":"37.78N","longitude":"126.10E"}
{"date":"2013-05-01","average_temperature":"7.56","city":"Severodvinsk","latitude":"65.09N","longitude":"40.21E"}
{"date":"2011-03-01","average_temperature":"29.609","city":"Shagamu","latitude":"7.23N","longitude":"4.05E"}
{"date":"2011-12-01","average_temperature":"26.616","city":"Shah Alam","latitude":"2.41N","longitude":"102.05E"}
{"date":"2010-06-01","average_temperature":"25.875","city":"Shahreza","latitude":"31.35N","longitude":"52.77E"}
{"date":"2010-01-01","average_temperature":"28.237","city":"Shaki","latitude":"8.84N","longitude":"4.05E"}
{"date":"2013-03-01","average_temperature":"30.644","city":"Shaki","latitude":"8.84N","longitude":"4.05E"}
{"date":"2012-07-01","average_temperature":"28.996","city":"Shangqiu","latitude":"34.56N","longitude":"114.81E"}
{"date":"2010-09-01","average_temperature":"26.326999999999998","city":"Shangrao","latitude":"28.13N","longitude":"117.27E"}
{"date":"2010-11-01","average_temperature":"15.449000000000002","city":"Shaoguan","latitude":"24.92N","longitude":"113.50E"}
{"date":"2013-06-01","average_temperature":"26.296999999999997","city":"Shaoyang","latitude":"26.52N","longitude":"111.04E"}
{"date":"2011-01-01","average_temperature":"2.9789999999999996","city":"Sheffield","latitude":"53.84N","longitude":"1.36W"}
{"date":"2013-05-01","average_temperature":"10.322000000000001","city":"Sheffield","latitude":"53.84N","longitude":"1.36W"}
{"date":"2010-03-01","average_temperature":"26.506","city":"Sherpur","latitude":"24.92N","longitude":"90.44E"}
{"date":"2012-05-01","average_temperature":"26.333","city":"Shiliguri","latitude":"26.52N","longitude":"87.76E"}
{"date":"2010-05-01","average_temperature":"20.539","city":"Shimla","latitude":"31.35N","longitude":"77.28E"}
{"date":"2012-11-01","average_temperature":"12.338","city":"Shimonoseki","latitude":"34.56N","longitude":"130.38E"}
{"date":"2011-04-01","average_temperature":"18.396","city":"Shishou","latitude":"29.74N","longitude":"112.62E"}
{"date":"2010-08-01","average_temperature":"30.226","city":"Shrirampur","latitude":"23.31N","longitude":"88.25E"}
{"date":"2012-01-01","average_temperature":"14.267000000000001","city":"Shulin","latitude":"24.92N","longitude":"120.59E"}
{"date":"2011-06-01","average_temperature":"16.801000000000002","city":"Sibiu","latitude":"45.81N","longitude":"24.23E"}
{"date":"2012-05-01","average_temperature":"27.680000000000003","city":"Sidoarjo","latitude":"7.23S","longitude":"112.70E"}
{"date":"2011-05-01","average_temperature":"28.82","city":"Soc Trang","latitude":"8.84N","longitude":"106.22E"}
{"date":"2011-07-01","average_temperature":"19.894","city":"Sofia","latitude":"42.59N","longitude":"24.00E"}
{"date":"2010-10-01","average_temperature":"26.683000000000003","city":"Soledad","latitude":"10.45N","longitude":"74.45W"}
{"date":"2010-08-01","average_temperature":"16.863999999999994","city":"Solingen","latitude":"50.63N","longitude":"6.34E"}
{"date":"2013-05-01","average_temperature":"34.746","city":"Sonipat","latitude":"28.13N","longitude":"77.27E"}
{"date":"2012-05-01","average_temperature":"28.024","city":"Sorong","latitude":"0.80S","longitude":"130.98E"}
{"date":"2010-05-01","average_temperature":"10.858","city":"Southampton","latitude":"50.63N","longitude":"1.27W"}
{"date":"2011-10-01","average_temperature":"8.339","city":"Stavropol","latitude":"44.20N","longitude":"42.48E"}
{"date":"2012-05-01","average_temperature":"9.187000000000001","city":"Stockholm","latitude":"58.66N","longitude":"18.46E"}
{"date":"2013-08-01","average_temperature":"16.924","city":"Stockholm","latitude":"58.66N","longitude":"18.46E"}
{"date":"2012-02-01","average_temperature":"25.362","city":"Subang","latitude":"7.23S","longitude":"107.84E"}
{"date":"2012-09-01","average_temperature":"13.833","city":"Sudbury","latitude":"45.81N","longitude":"81.92W"}
{"date":"2012-04-01","average_temperature":"5.5520000000000005","city":"Suihua","latitude":"47.42N","longitude":"126.71E"}
{"date":"2011-01-01","average_temperature":"14.073","city":"Sukkur","latitude":"28.13N","longitude":"68.18E"}
{"date":"2012-10-01","average_temperature":"9.387","city":"Sumy","latitude":"50.63N","longitude":"34.23E"}
{"date":"2012-08-01","average_temperature":"27.355","city":"Surt","latitude":"31.35N","longitude":"16.96E"}
{"date":"2012-04-01","average_temperature":"7.034","city":"Sutton Coldfield","latitude":"52.24N","longitude":"2.63W"}
{"date":"2010-08-01","average_temperature":"23.076","city":"Syzran","latitude":"53.84N","longitude":"47.73E"}
{"date":"2013-03-01","average_temperature":"14.627","city":"Tétouan","latitude":"36.17N","longitude":"5.97W"}
{"date":"2013-05-01","average_temperature":"11.079","city":"Tacoma","latitude":"47.42N","longitude":"121.97W"}
{"date":"2011-07-01","average_temperature":"26.945999999999998","city":"Taian","latitude":"36.17N","longitude":"117.35E"}
{"date":"2012-01-01","average_temperature":"-1.3889999999999998","city":"Taian","latitude":"36.17N","longitude":"117.35E"}
{"date":"2010-09-01","average_temperature":"27.500999999999998","city":"Taichung","latitude":"24.92N","longitude":"120.59E"}
{"date":"2013-02-01","average_temperature":"19.396","city":"Tainan","latitude":"23.31N","longitude":"119.71E"}
{"date":"2011-03-01","average_temperature":"16.698","city":"Taipei","latitude":"24.92N","longitude":"122.36E"}
{"date":"2010-03-01","average_temperature":"20.282","city":"Taitung","latitude":"23.31N","longitude":"121.46E"}
{"date":"2012-04-01","average_temperature":"12.65","city":"Taiyuan","latitude":"37.78N","longitude":"111.86E"}
{"date":"2011-10-01","average_temperature":"16.833","city":"Taizhou","latitude":"32.95N","longitude":"119.68E"}
{"date":"2011-09-01","average_temperature":"22.199","city":"Takasaki","latitude":"36.17N","longitude":"139.23E"}
{"date":"2013-08-01","average_temperature":"28.180999999999997","city":"Takatsuki","latitude":"34.56N","longitude":"136.22E"}
{"date":"2010-01-01","average_temperature":"15.504000000000001","city":"Talcahuano","latitude":"36.17S","longitude":"73.59W"}
{"date":"2011-05-01","average_temperature":"23.648000000000003","city":"Tallahassee","latitude":"29.74N","longitude":"84.92W"}
{"date":"2010-11-01","average_temperature":"9.515","city":"Tama","latitude":"36.17N","longitude":"139.23E"}
{"date":"2010-04-01","average_temperature":"27.452","city":"Taman","latitude":"7.23S","longitude":"109.46E"}
{"date":"2012-12-01","average_temperature":"26.749","city":"Tanete","latitude":"5.63S","longitude":"119.46E"}
{"date":"2010-09-01","average_temperature":"23.632","city":"Tangier","latitude":"36.17N","longitude":"5.97W"}
{"date":"2012-12-01","average_temperature":"16.13","city":"Tanshui","latitude":"24.92N","longitude":"120.59E"}
{"date":"2011-12-01","average_temperature":"16.095","city":"Tanta","latitude":"31.35N","longitude":"30.16E"}
{"date":"2012-08-01","average_temperature":"28.214","city":"Tarhunah","latitude":"32.95N","longitude":"14.36E"}
{"date":"2011-01-01","average_temperature":"18.838","city":"Tarija","latitude":"21.70S","longitude":"64.90W"}
{"date":"2011-08-01","average_temperature":"27.388","city":"Tartus","latitude":"34.56N","longitude":"35.03E"}
{"date":"2012-10-01","average_temperature":"26.87","city":"Tawau","latitude":"4.02N","longitude":"118.13E"}
{"date":"2010-05-01","average_temperature":"30.201","city":"Taytay","latitude":"15.27N","longitude":"120.83E"}
{"date":"2011-05-01","average_temperature":"28.826999999999998","city":"Taytay","latitude":"15.27N","longitude":"120.83E"}
{"date":"2011-07-01","average_temperature":"25.956","city":"Tegal","latitude":"7.23S","longitude":"109.46E"}
{"date":"2010-09-01","average_temperature":"9.136000000000001","city":"Temuco","latitude":"39.38S","longitude":"72.83W"}
{"date":"2010-03-01","average_temperature":"29.965000000000003","city":"Tenali","latitude":"16.87N","longitude":"80.37E"}
{"date":"2010-10-01","average_temperature":"16.014","city":"Tengzhou","latitude":"34.56N","longitude":"116.76E"}
{"date":"2013-01-01","average_temperature":"-0.04200000000000001","city":"Tengzhou","latitude":"34.56N","longitude":"116.76E"}
{"date":"2012-09-01","average_temperature":"29.712","city":"Teresina","latitude":"5.63S","longitude":"43.59W"}
{"date":"2012-12-01","average_temperature":"26.648000000000003","city":"Teshie","latitude":"5.63N","longitude":"0.00W"}
{"date":"2010-10-01","average_temperature":"28.362","city":"Thanjavur","latitude":"10.45N","longitude":"79.36E"}
{"date":"2011-08-01","average_temperature":"29.346999999999998","city":"Thanjavur","latitude":"10.45N","longitude":"79.36E"}
{"date":"2012-09-01","average_temperature":"28.584000000000003","city":"Thiès","latitude":"15.27N","longitude":"17.50W"}
{"date":"2010-10-01","average_temperature":"17.381","city":"Tianmen","latitude":"31.35N","longitude":"113.09E"}
{"date":"2010-07-01","average_temperature":"29.749000000000002","city":"Tiruchchirappalli","latitude":"10.45N","longitude":"79.36E"}
{"date":"2012-02-01","average_temperature":"14.095999999999998","city":"Tlalnepantla","latitude":"20.09N","longitude":"98.96W"}
{"date":"2010-05-01","average_temperature":"17.584","city":"Toledo","latitude":"40.99N","longitude":"83.08W"}
{"date":"2011-08-01","average_temperature":"22.452","city":"Toluca","latitude":"18.48N","longitude":"99.72W"}
{"date":"2011-04-01","average_temperature":"5.365","city":"Tomakomai","latitude":"42.59N","longitude":"141.82E"}
{"date":"2010-04-01","average_temperature":"5.196000000000001","city":"Tongliao","latitude":"44.20N","longitude":"122.98E"}
{"date":"2013-05-01","average_temperature":"19.028","city":"Torrance","latitude":"34.56N","longitude":"118.70W"}
{"date":"2012-08-01","average_temperature":"20.941000000000006","city":"Tours","latitude":"47.42N","longitude":"1.18E"}
{"date":"2011-02-01","average_temperature":"4.479","city":"Trieste","latitude":"45.81N","longitude":"12.69E"}
{"date":"2012-11-01","average_temperature":"28.39","city":"Trincomalee","latitude":"8.84N","longitude":"81.89E"}
{"date":"2010-01-01","average_temperature":"-7.6110000000000015","city":"Trois Rivières","latitude":"45.81N","longitude":"72.69W"}
{"date":"2012-07-01","average_temperature":"20.772","city":"Trois Rivières","latitude":"45.81N","longitude":"72.69W"}
{"date":"2010-07-01","average_temperature":"15.797","city":"Trujillo","latitude":"8.84S","longitude":"78.65W"}
{"date":"2011-12-01","average_temperature":"12.922","city":"Tubruq","latitude":"31.35N","longitude":"24.50E"}
{"date":"2010-09-01","average_temperature":"25.741999999999997","city":"Tucson","latitude":"31.35N","longitude":"111.20W"}
{"date":"2013-01-01","average_temperature":"7.763999999999999","city":"Tucson","latitude":"31.35N","longitude":"111.20W"}
{"date":"2013-04-01","average_temperature":"21.26","city":"Tucuman","latitude":"26.52S","longitude":"64.48W"}
{"date":"2013-06-01","average_temperature":"29.634","city":"Tuguegarao","latitude":"18.48N","longitude":"121.69E"}
{"date":"2013-05-01","average_temperature":"21.243000000000002","city":"Tunis","latitude":"36.17N","longitude":"9.94E"}
{"date":"2011-04-01","average_temperature":"19.999000000000002","city":"Tunja","latitude":"5.63N","longitude":"72.65W"}
{"date":"2011-08-01","average_temperature":"18.366","city":"Turin","latitude":"45.81N","longitude":"8.08E"}
{"date":"2013-04-01","average_temperature":"2.227","city":"Turku","latitude":"60.27N","longitude":"22.70E"}
{"date":"2010-07-01","average_temperature":"28.269","city":"Udon Thani","latitude":"16.87N","longitude":"102.14E"}
{"date":"2012-07-01","average_temperature":"27.726000000000006","city":"Udon Thani","latitude":"16.87N","longitude":"102.14E"}
{"date":"2010-02-01","average_temperature":"-19.551","city":"Ukhta","latitude":"63.49N","longitude":"52.20E"}
{"date":"2011-08-01","average_temperature":"19.445","city":"Ulm","latitude":"49.03N","longitude":"9.80E"}
{"date":"2011-06-01","average_temperature":"29.873","city":"Ulubaria","latitude":"23.31N","longitude":"88.25E"}
{"date":"2012-04-01","average_temperature":"30.299","city":"Ulubaria","latitude":"23.31N","longitude":"88.25E"}
{"date":"2011-05-01","average_temperature":"14.49","city":"Ulyanovsk","latitude":"53.84N","longitude":"47.73E"}
{"date":"2011-03-01","average_temperature":"24.588","city":"Unnao","latitude":"26.52N","longitude":"80.60E"}
{"date":"2010-09-01","average_temperature":"22.414","city":"Urayasu","latitude":"36.17N","longitude":"139.23E"}
{"date":"2011-02-01","average_temperature":"5.382999999999999","city":"Urfa","latitude":"37.78N","longitude":"38.64E"}
{"date":"2010-06-01","average_temperature":"19.727","city":"Usak","latitude":"39.38N","longitude":"29.13E"}
{"date":"2011-04-01","average_temperature":"28.708","city":"Uyo","latitude":"5.63N","longitude":"8.07E"}
{"date":"2012-03-01","average_temperature":"16.859","city":"Valparaiso","latitude":"32.95S","longitude":"71.81W"}
{"date":"2011-12-01","average_temperature":"0.4969999999999999","city":"Velikie Luki","latitude":"57.05N","longitude":"30.98E"}
{"date":"2012-07-01","average_temperature":"9.036","city":"Vereeniging","latitude":"26.52S","longitude":"28.66E"}
{"date":"2013-04-01","average_temperature":"15.075","city":"Vereeniging","latitude":"26.52S","longitude":"28.66E"}
{"date":"2012-04-01","average_temperature":"14.713","city":"Verwoerdburg","latitude":"26.52S","longitude":"28.66E"}
{"date":"2012-02-01","average_temperature":"20.656999999999996","city":"Vidisha","latitude":"23.31N","longitude":"77.77E"}
{"date":"2010-08-01","average_temperature":"32.46","city":"Vihari","latitude":"29.74N","longitude":"72.00E"}
{"date":"2010-10-01","average_temperature":"19.319000000000003","city":"Villa Nueva","latitude":"15.27N","longitude":"90.83W"}
{"date":"2011-11-01","average_temperature":"24.848000000000006","city":"Villavicencio","latitude":"4.02N","longitude":"73.13W"}
{"date":"2012-01-01","average_temperature":"-7.965","city":"Volzhskiy","latitude":"49.03N","longitude":"44.08E"}
{"date":"2010-05-01","average_temperature":"17.253999999999998","city":"Voronezh","latitude":"52.24N","longitude":"39.42E"}
{"date":"2011-06-01","average_temperature":"33.088","city":"Wad Madani","latitude":"13.66N","longitude":"33.85E"}
{"date":"2012-07-01","average_temperature":"26.066999999999997","city":"Wahran","latitude":"36.17N","longitude":"0.00W"}
{"date":"2010-08-01","average_temperature":"28.039","city":"Warangal","latitude":"18.48N","longitude":"79.44E"}
{"date":"2013-05-01","average_temperature":"36.217","city":"Warangal","latitude":"18.48N","longitude":"79.44E"}
{"date":"2012-08-01","average_temperature":"22.905","city":"Waterbury","latitude":"40.99N","longitude":"72.43W"}
{"date":"2010-02-01","average_temperature":"-5.8839999999999995","city":"Waterloo","latitude":"44.20N","longitude":"80.50W"}
{"date":"2010-01-01","average_temperature":"10.09","city":"West Covina","latitude":"34.56N","longitude":"118.70W"}
{"date":"2012-01-01","average_temperature":"11.581","city":"West Covina","latitude":"34.56N","longitude":"118.70W"}
{"date":"2013-03-01","average_temperature":"14.463","city":"West Covina","latitude":"34.56N","longitude":"118.70W"}
{"date":"2011-06-01","average_temperature":"17.857","city":"West Jordan","latitude":"40.99N","longitude":"112.90W"}
{"date":"2013-06-01","average_temperature":"24.031999999999996","city":"Winston Salem","latitude":"36.17N","longitude":"79.56W"}
{"date":"2011-04-01","average_temperature":"18.067","city":"Wollongong","latitude":"34.56S","longitude":"151.78E"}
{"date":"2012-04-01","average_temperature":"18.695","city":"Wollongong","latitude":"34.56S","longitude":"151.78E"}
{"date":"2012-06-01","average_temperature":"23.844","city":"Xalapa","latitude":"20.09N","longitude":"97.25W"}
{"date":"2012-09-01","average_temperature":"25.513","city":"Xiamen","latitude":"24.92N","longitude":"118.82E"}
{"date":"2010-07-01","average_temperature":"29.236","city":"Xiantao","latitude":"29.74N","longitude":"112.62E"}
{"date":"2012-11-01","average_temperature":"7.916999999999999","city":"Xiazhen","latitude":"34.56N","longitude":"116.76E"}
{"date":"2012-10-01","average_temperature":"11.049000000000001","city":"Xichang","latitude":"28.13N","longitude":"102.73E"}
{"date":"2011-06-01","average_temperature":"23.822","city":"Xinxiang","latitude":"36.17N","longitude":"113.37E"}
{"date":"2011-04-01","average_temperature":"11.378","city":"Xinzhou","latitude":"37.78N","longitude":"111.86E"}
{"date":"2013-05-01","average_temperature":"13.116","city":"Yakeshi","latitude":"49.03N","longitude":"120.00E"}
{"date":"2011-03-01","average_temperature":"16.922","city":"Yangjiang","latitude":"21.70N","longitude":"111.63E"}
{"date":"2013-08-01","average_temperature":"26.232","city":"Yantai","latitude":"37.78N","longitude":"122.03E"}
{"date":"2012-06-01","average_temperature":"23.31","city":"Yidu","latitude":"36.17N","longitude":"119.34E"}
{"date":"2013-01-01","average_temperature":"3.233","city":"Yingzhong","latitude":"31.35N","longitude":"113.09E"}
{"date":"2010-12-01","average_temperature":"7.487","city":"Yokkaichi","latitude":"34.56N","longitude":"136.22E"}
{"date":"2011-05-01","average_temperature":"17.873","city":"Yuncheng","latitude":"34.56N","longitude":"110.92E"}
{"date":"2012-11-01","average_temperature":"-5.672000000000001","city":"Yushu","latitude":"44.20N","longitude":"127.45E"}
{"date":"2012-05-01","average_temperature":"19.898","city":"Zaporizhzhya","latitude":"47.42N","longitude":"34.34E"}
{"date":"2013-05-01","average_temperature":"15.273","city":"Zelenodolsk","latitude":"55.45N","longitude":"48.19E"}
{"date":"2013-04-01","average_temperature":"19.336","city":"Zhangzhou","latitude":"24.92N","longitude":"117.04E"}
{"date":"2013-05-01","average_temperature":"18.685","city":"Zhaocheng","latitude":"37.78N","longitude":"120.00E"}
{"date":"2012-09-01","average_temperature":"27.465","city":"Zhuhai","latitude":"21.70N","longitude":"113.37E"}
{"date":"2013-08-01","average_temperature":"28.495","city":"Zhuhai","latitude":"21.70N","longitude":"113.37E"}
