{"date":"2011-03-01","average_temperature":"3.042","city":"Aalborg","latitude":"57.05N","longitude":"10.33E"}
{"date":"2012-03-01","average_temperature":"29.846999999999998","city":"Aba","latitude":"5.63N","longitude":"8.07E"}
{"date":"2012-03-01","average_temperature":"18.230999999999998","city":"Abadan","latitude":"29.74N","longitude":"48.00E"}
{"date":"2013-04-01","average_temperature":"3.713","city":"Abakan","latitude":"53.84N","longitude":"91.36E"}
{"date":"2010-11-01","average_temperature":"27.480999999999998","city":"Abengourou","latitude":"7.23N","longitude":"4.05W"}
{"date":"2010-02-01","average_temperature":"30.313000000000002","city":"Abeokuta","latitude":"7.23N","longitude":"4.05E"}
{"date":"2013-09-01","city":"Abha","latitude":"18.48N","longitude":"42.25E"}
{"date":"2011-09-01","average_temperature":"25.405","city":"Abidjan","latitude":"5.63N","longitude":"3.23W"}
{"date":"2011-11-01","average_temperature":"28.475","city":"Abomey Calavi","latitude":"7.23N","longitude":"2.43E"}
{"date":"2011-02-01","average_temperature":"29.726","city":"Abuja","latitude":"8.84N","longitude":"7.30E"}
{"date":"2012-06-01","average_temperature":"25.788","city":"Abuja","latitude":"8.84N","longitude":"7.30E"}
{"date":"2010-04-01","average_temperature":"25.624000000000002","city":"Acapulco","latitude":"16.87N","longitude":"100.47W"}
{"date":"2012-03-01","average_temperature":"28.198","city":"Acarigua","latitude":"8.84N","longitude":"68.92W"}
{"date":"2013-03-01","average_temperature":"28.828000000000003","city":"Accra","latitude":"5.63N","longitude":"0.00W"}
{"date":"2010-02-01","average_temperature":"23.128","city":"Achalpur","latitude":"21.70N","longitude":"77.02E"}
{"date":"2011-05-01","average_temperature":"14.106","city":"Afyonkarahisar","latitude":"39.38N","longitude":"31.21E"}
{"date":"2011-09-01","average_temperature":"19.621","city":"Afyonkarahisar","latitude":"39.38N","longitude":"31.21E"}
{"date":"2013-07-01","average_temperature":"24.15","city":"Ahmadnagar","latitude":"18.48N","longitude":"74.37E"}
{"date":"2010-03-01","average_temperature":"5.205","city":"Aktau","latitude":"44.20N","longitude":"51.43E"}
{"date":"2013-06-01","average_temperature":"19.629","city":"Albacete","latitude":"39.38N","longitude":"2.08W"}
{"date":"2010-07-01","average_temperature":"23.974","city":"Alcobendas","latitude":"40.99N","longitude":"4.26W"}
{"date":"2010-09-01","average_temperature":"28.768","city":"Allahabad","latitude":"24.92N","longitude":"81.58E"}
{"date":"2012-06-01","average_temperature":"31.341","city":"Ambur","latitude":"12.05N","longitude":"78.90E"}
{"date":"2012-02-01","average_temperature":"1.4220000000000002","city":"Amiens","latitude":"49.03N","longitude":"2.45E"}
{"date":"2011-03-01","average_temperature":"5.917000000000001","city":"Amsterdam","latitude":"52.24N","longitude":"5.26E"}
{"date":"2012-07-01","average_temperature":"18.984","city":"Anaheim","latitude":"32.95N","longitude":"117.77W"}
{"date":"2010-05-01","average_temperature":"35.41900000000001","city":"Anand","latitude":"23.31N","longitude":"72.52E"}
{"date":"2013-04-01","average_temperature":"30.005","city":"Angeles","latitude":"15.27N","longitude":"120.83E"}
{"date":"2011-06-01","average_temperature":"19.909","city":"Angra Dos Reis","latitude":"23.31S","longitude":"44.56W"}
{"date":"2013-06-01","average_temperature":"22.548","city":"Ankang","latitude":"32.95N","longitude":"108.19E"}
{"date":"2010-02-01","average_temperature":"0.7640000000000001","city":"Anqiu","latitude":"36.17N","longitude":"119.34E"}
{"date":"2012-12-01","average_temperature":"-11.968","city":"Anshan","latitude":"40.99N","longitude":"123.55E"}
{"date":"2010-06-01","average_temperature":"25.182","city":"Antakya","latitude":"36.17N","longitude":"35.80E"}
{"date":"2010-04-01","average_temperature":"11.515","city":"Antalya","latitude":"37.78N","longitude":"30.51E"}
{"date":"2011-02-01","average_temperature":"9.817","city":"Antioch","latitude":"37.78N","longitude":"122.03W"}
{"date":"2012-03-01","average_temperature":"7.862999999999999","city":"Apeldoorn","latitude":"52.24N","longitude":"5.26E"}
{"date":"2013-06-01","average_temperature":"29.680999999999997","city":"Apodaca","latitude":"26.52N","longitude":"100.30W"}
{"date":"2012-06-01","average_temperature":"18.674","city":"Apucarana","latitude":"23.31S","longitude":"51.55W"}
{"date":"2011-07-01","average_temperature":"25.08","city":"Aqtöbe","latitude":"50.63N","longitude":"57.04E"}
{"date":"2011-03-01","average_temperature":"9.043","city":"Arak","latitude":"34.56N","longitude":"50.59E"}
{"date":"2011-08-01","average_temperature":"26.515","city":"Ashdod","latitude":"31.35N","longitude":"33.93E"}
{"date":"2012-01-01","average_temperature":"11.284","city":"Asyut","latitude":"26.52N","longitude":"30.45E"}
{"date":"2012-02-01","average_temperature":"14.89","city":"Asyut","latitude":"26.52N","longitude":"30.45E"}
{"date":"2012-09-01","average_temperature":"23.275","city":"Atsugi","latitude":"36.17N","longitude":"139.23E"}
{"date":"2012-11-01","average_temperature":"4.335","city":"Aurora","latitude":"40.99N","longitude":"87.34W"}
{"date":"2013-05-01","average_temperature":"34.587","city":"Avadi","latitude":"13.66N","longitude":"80.09E"}
{"date":"2010-11-01","average_temperature":"22.875","city":"Azamgarh","latitude":"26.52N","longitude":"82.39E"}
{"date":"2013-03-01","average_temperature":"31.156","city":"Azare","latitude":"12.05N","longitude":"9.86E"}
{"date":"2011-10-01","average_temperature":"7.523","city":"Bacau","latitude":"45.81N","longitude":"26.54E"}
{"date":"2010-04-01","average_temperature":"15.86","city":"Badajoz","latitude":"39.38N","longitude":"6.24W"}
{"date":"2013-03-01","average_temperature":"-4.694","city":"Badaojiang","latitude":"42.59N","longitude":"126.55E"}
{"date":"2010-07-01","average_temperature":"27.364","city":"Badlapur","latitude":"18.48N","longitude":"72.68E"}
{"date":"2012-03-01","average_temperature":"27.878","city":"Baharampur","latitude":"23.31N","longitude":"88.25E"}
{"date":"2010-09-01","average_temperature":"12.354000000000001","city":"Bahia Blanca","latitude":"39.38S","longitude":"62.43W"}
{"date":"2011-06-01","average_temperature":"9.046","city":"Bahia Blanca","latitude":"39.38S","longitude":"62.43W"}
{"date":"2012-05-01","average_temperature":"19.772000000000002","city":"Bakersfield","latitude":"36.17N","longitude":"119.34W"}
{"date":"2013-02-01","average_temperature":"26.949","city":"Balikpapan","latitude":"0.80S","longitude":"116.52E"}
{"date":"2011-09-01","average_temperature":"26.539","city":"Bamako","latitude":"12.05N","longitude":"8.22W"}
{"date":"2012-01-01","average_temperature":"26.555000000000003","city":"Bandar Penggaram","latitude":"2.41N","longitude":"103.66E"}
{"date":"2010-12-01","average_temperature":"24.951","city":"Bandung","latitude":"7.23S","longitude":"107.84E"}
{"date":"2013-03-01","average_temperature":"8.262","city":"Baneh","latitude":"36.17N","longitude":"45.75E"}
{"date":"2010-10-01","average_temperature":"8.152999999999999","city":"Banja Luka","latitude":"44.20N","longitude":"17.89E"}
{"date":"2011-08-01","average_temperature":"27.881999999999998","city":"Bankura","latitude":"23.31N","longitude":"86.50E"}
{"date":"2013-08-01","average_temperature":"18.595","city":"Barbacena","latitude":"21.70S","longitude":"44.13W"}
{"date":"2011-11-01","average_temperature":"22.985","city":"Barretos","latitude":"20.09S","longitude":"47.77W"}
{"date":"2012-02-01","average_temperature":"25.211","city":"Barsi","latitude":"18.48N","longitude":"76.06E"}
{"date":"2012-01-01","average_temperature":"24.46","city":"Baruta","latitude":"10.45N","longitude":"66.27W"}
{"date":"2011-03-01","average_temperature":"25.924","city":"Batangas","latitude":"13.66N","longitude":"121.38E"}
{"date":"2013-01-01","average_temperature":"25.113000000000003","city":"Bayamo","latitude":"20.09N","longitude":"76.78W"}
{"date":"2012-05-01","average_temperature":"34.601","city":"Beawar","latitude":"26.52N","longitude":"73.43E"}
{"date":"2010-07-01","average_temperature":"26.479","city":"Beirut","latitude":"34.56N","longitude":"35.03E"}
{"date":"2010-09-01","average_temperature":"23.715","city":"Bengbu","latitude":"32.95N","longitude":"117.77E"}
{"date":"2011-09-01","average_temperature":"27.406999999999996","city":"Benha","latitude":"29.74N","longitude":"31.38E"}
{"date":"2011-02-01","average_temperature":"16.242","city":"Beni Suef","latitude":"29.74N","longitude":"31.38E"}
{"date":"2012-03-01","average_temperature":"0.0069999999999999785","city":"Benxi","latitude":"40.99N","longitude":"123.55E"}
{"date":"2012-05-01","average_temperature":"19.355","city":"Beppu","latitude":"32.95N","longitude":"131.17E"}
{"date":"2011-06-01","average_temperature":"18.427","city":"Bergamo","latitude":"45.81N","longitude":"10.38E"}
{"date":"2013-08-01","average_temperature":"20.514","city":"Bergamo","latitude":"45.81N","longitude":"10.38E"}
{"date":"2013-02-01","average_temperature":"24.088","city":"Betim","latitude":"20.09S","longitude":"44.36W"}
{"date":"2010-09-01","average_temperature":"27.958","city":"Bharuch","latitude":"21.70N","longitude":"73.56E"}
{"date":"2012-01-01","average_temperature":"24.175","city":"Bhimavaram","latitude":"16.87N","longitude":"82.05E"}
{"date":"2013-08-01","average_temperature":"26.496","city":"Bidar","latitude":"18.48N","longitude":"77.75E"}
{"date":"2012-08-01","average_temperature":"26.037","city":"Bijapur","latitude":"16.87N","longitude":"75.35E"}
{"date":"2012-10-01","average_temperature":"25.725","city":"Bijapur","latitude":"16.87N","longitude":"75.35E"}
{"date":"2011-09-01","average_temperature":"29.947","city":"Bikaner","latitude":"28.13N","longitude":"73.64E"}
{"date":"2011-01-01","average_temperature":"14.047","city":"Biratnagar","latitude":"26.52N","longitude":"87.76E"}
{"date":"2010-12-01","average_temperature":"17.039","city":"Birganj","latitude":"26.52N","longitude":"84.18E"}
{"date":"2013-09-01","city":"Birganj","latitude":"26.52N","longitude":"84.18E"}
{"date":"2012-09-01","average_temperature":"26.901999999999997","city":"Bitung","latitude":"0.80N","longitude":"124.55E"}
{"date":"2010-07-01","average_temperature":"16.89","city":"Blackburn","latitude":"53.84N","longitude":"1.36W"}
{"date":"2011-02-01","average_temperature":"26.335","city":"Bogor","latitude":"7.23S","longitude":"106.22E"}
{"date":"2011-10-01","average_temperature":"26.971","city":"Bontang","latitude":"0.80N","longitude":"118.13E"}
{"date":"2010-04-01","average_temperature":"8.602","city":"Bradford","latitude":"53.84N","longitude":"1.36W"}
{"date":"2012-11-01","average_temperature":"21.811999999999998","city":"Bragança Paulista","latitude":"23.31S","longitude":"46.31W"}
{"date":"2010-10-01","average_temperature":"8.562999999999999","city":"Braila","latitude":"45.81N","longitude":"28.85E"}
{"date":"2012-02-01","average_temperature":"-1.5829999999999995","city":"Brescia","latitude":"45.81N","longitude":"10.38E"}
{"date":"2012-01-01","average_temperature":"19.08","city":"Brownsville","latitude":"26.52N","longitude":"96.72W"}
{"date":"2011-10-01","average_temperature":"10.444","city":"Bucharest","latitude":"44.20N","longitude":"26.83E"}
{"date":"2012-01-01","average_temperature":"-1.706","city":"Bucharest","latitude":"44.20N","longitude":"26.83E"}
{"date":"2012-10-01","average_temperature":"10.749","city":"Buffalo","latitude":"42.59N","longitude":"78.55W"}
{"date":"2010-02-01","average_temperature":"28.928","city":"Bukit Mertajam","latitude":"5.63N","longitude":"100.09E"}
{"date":"2013-06-01","average_temperature":"20.249000000000002","city":"Burgas","latitude":"42.59N","longitude":"28.36E"}
{"date":"2013-08-01","average_temperature":"19.971","city":"Burgos","latitude":"42.59N","longitude":"4.36W"}
{"date":"2013-08-01","average_temperature":"23.182","city":"Bursa","latitude":"39.38N","longitude":"29.13E"}
{"date":"2013-03-01","average_temperature":"28.264","city":"Cabanatuan","latitude":"15.27N","longitude":"120.83E"}
{"date":"2012-08-01","average_temperature":"20.831000000000003","city":"Cachoeiro De Itapemirim","latitude":"20.09S","longitude":"40.95W"}
{"date":"2012-01-01","average_temperature":"11.918","city":"Cadiz","latitude":"36.17N","longitude":"5.97W"}
{"date":"2012-03-01","average_temperature":"25.835","city":"Cagua","latitude":"10.45N","longitude":"67.91W"}
{"date":"2012-09-01","average_temperature":"27.246","city":"Cainta","latitude":"15.27N","longitude":"120.83E"}
{"date":"2013-03-01","average_temperature":"29.465","city":"Calabar","latitude":"5.63N","longitude":"8.07E"}
{"date":"2010-03-01","average_temperature":"23.212","city":"Camagüey","latitude":"21.70N","longitude":"78.75W"}
{"date":"2013-07-01","average_temperature":"23.831","city":"Campina Grande","latitude":"7.23S","longitude":"36.49W"}
{"date":"2013-07-01","average_temperature":"16.849","city":"Campinas","latitude":"23.31S","longitude":"46.31W"}
{"date":"2012-04-01","average_temperature":"17.224","city":"Cape Town","latitude":"32.95S","longitude":"18.19E"}
{"date":"2012-10-01","average_temperature":"25.962","city":"Capiatá","latitude":"24.92S","longitude":"56.75W"}
{"date":"2011-03-01","average_temperature":"25.066","city":"Caracas","latitude":"10.45N","longitude":"66.27W"}
{"date":"2010-10-01","average_temperature":"24.68","city":"Caruaru","latitude":"8.84S","longitude":"36.49W"}
{"date":"2013-07-01","average_temperature":"26.447","city":"Castanhal","latitude":"0.80S","longitude":"47.41W"}
{"date":"2012-08-01","average_temperature":"28.195999999999998","city":"Caucaia","latitude":"4.02S","longitude":"39.38W"}
{"date":"2013-04-01","average_temperature":"21.015","city":"Celaya","latitude":"20.09N","longitude":"100.66W"}
{"date":"2011-05-01","average_temperature":"20.335","city":"Chandigarh","latitude":"31.35N","longitude":"77.28E"}
{"date":"2010-07-01","average_temperature":"29.674","city":"Chandpur","latitude":"23.31N","longitude":"90.00E"}
{"date":"2012-08-01","average_temperature":"27.364","city":"Chandrapur","latitude":"20.09N","longitude":"78.48E"}
{"date":"2011-01-01","average_temperature":"24.67","city":"Charallave","latitude":"10.45N","longitude":"66.27W"}
{"date":"2012-03-01","average_temperature":"25.429000000000002","city":"Charallave","latitude":"10.45N","longitude":"66.27W"}
{"date":"2012-12-01","average_temperature":"4.947","city":"Charleroi","latitude":"50.63N","longitude":"3.80E"}
{"date":"2012-02-01","average_temperature":"-7.603","city":"Chengde","latitude":"40.99N","longitude":"117.16E"}
{"date":"2012-05-01","average_temperature":"16.384999999999998","city":"Chengdu","latitude":"31.35N","longitude":"103.66E"}
{"date":"2011-10-01","average_temperature":"7.135","city":"Cherkasy","latitude":"49.03N","longitude":"31.84E"}
{"date":"2010-04-01","average_temperature":"31.311999999999998","city":"Chhapra","latitude":"26.52N","longitude":"84.18E"}
{"date":"2012-07-01","average_temperature":"27.313000000000002","city":"Chiang Mai","latitude":"18.48N","longitude":"99.72E"}
{"date":"2012-03-01","average_temperature":"22.116999999999997","city":"Chingola","latitude":"12.05S","longitude":"27.95E"}
{"date":"2013-05-01","average_temperature":"18.298","city":"Chitungwiza","latitude":"18.48S","longitude":"30.42E"}
{"date":"2012-06-01","average_temperature":"17.298000000000002","city":"Chorzow","latitude":"50.63N","longitude":"19.01E"}
{"date":"2012-05-01","average_temperature":"24.476999999999997","city":"Chungho","latitude":"24.92N","longitude":"120.59E"}
{"date":"2010-11-01","average_temperature":"26.879","city":"Cileungsi","latitude":"5.63S","longitude":"106.55E"}
{"date":"2012-05-01","average_temperature":"27.262","city":"Ciomas","latitude":"7.23S","longitude":"106.22E"}
{"date":"2010-12-01","average_temperature":"26.601999999999997","city":"Ciputat","latitude":"5.63S","longitude":"106.55E"}
{"date":"2012-05-01","average_temperature":"27.262","city":"Cisaat","latitude":"7.23S","longitude":"106.22E"}
{"date":"2012-04-01","average_temperature":"27.609","city":"Citeureup","latitude":"5.63S","longitude":"106.55E"}
{"date":"2012-08-01","average_temperature":"27.049","city":"Citeureup","latitude":"5.63S","longitude":"106.55E"}
{"date":"2013-09-01","city":"Citeureup","latitude":"5.63S","longitude":"106.55E"}
{"date":"2012-02-01","average_temperature":"24.654","city":"Ciudad Guayana","latitude":"8.84N","longitude":"62.43W"}
{"date":"2012-05-01","average_temperature":"26.125999999999998","city":"Ciudad Guayana","latitude":"8.84N","longitude":"62.43W"}
{"date":"2012-11-01","average_temperature":"8.171","city":"Clarksville","latitude":"36.17N","longitude":"87.51W"}
{"date":"2013-08-01","average_temperature":"21.023000000000003","city":"Cleveland","latitude":"40.99N","longitude":"80.95W"}
{"date":"2011-11-01","average_temperature":"23.307","city":"Colatina","latitude":"20.09S","longitude":"40.95W"}
{"date":"2010-02-01","average_temperature":"1.158","city":"Cologne","latitude":"50.63N","longitude":"6.34E"}
{"date":"2010-07-01","average_temperature":"20.374000000000002","city":"Copenhagen","latitude":"55.45N","longitude":"11.34E"}
{"date":"2011-09-01","average_temperature":"17.144000000000002","city":"Cordoba","latitude":"31.35S","longitude":"64.08W"}
{"date":"2010-03-01","average_temperature":"23.919","city":"Coronel Fabriciano","latitude":"20.09S","longitude":"42.65W"}
{"date":"2013-06-01","average_temperature":"24.793000000000006","city":"Cuiabá","latitude":"15.27S","longitude":"55.83W"}
{"date":"2010-12-01","average_temperature":"12.03","city":"Cusco","latitude":"13.66S","longitude":"71.83W"}
{"date":"2010-09-01","average_temperature":"24.976999999999997","city":"Da Lat","latitude":"12.05N","longitude":"108.49E"}
{"date":"2012-10-01","average_temperature":"27.719","city":"Dadu","latitude":"26.52N","longitude":"68.06E"}
{"date":"2011-07-01","average_temperature":"26.026","city":"Dagupan","latitude":"16.87N","longitude":"120.56E"}
{"date":"2010-04-01","average_temperature":"18.408","city":"Dahuk","latitude":"36.17N","longitude":"43.76E"}
{"date":"2012-02-01","average_temperature":"13.390999999999998","city":"Daliang","latitude":"23.31N","longitude":"112.72E"}
{"date":"2011-10-01","average_temperature":"22.919","city":"Danshui","latitude":"23.31N","longitude":"114.47E"}
{"date":"2013-09-01","city":"Dar Es Salaam","latitude":"7.23S","longitude":"39.73E"}
{"date":"2010-05-01","average_temperature":"12.882","city":"Datong","latitude":"40.99N","longitude":"112.90E"}
{"date":"2011-04-01","average_temperature":"8.052999999999999","city":"Denver","latitude":"39.38N","longitude":"104.05W"}
{"date":"2013-08-01","average_temperature":"22.461","city":"Derbent","latitude":"42.59N","longitude":"48.00E"}
{"date":"2010-11-01","average_temperature":"23.188000000000002","city":"Dewas","latitude":"23.31N","longitude":"76.02E"}
{"date":"2013-08-01","average_temperature":"29.641","city":"Dezful","latitude":"32.95N","longitude":"48.83E"}
{"date":"2010-01-01","average_temperature":"-2.9019999999999997","city":"Dezhou","latitude":"37.78N","longitude":"115.93E"}
{"date":"2010-05-01","average_temperature":"25.938","city":"Dharan","latitude":"26.52N","longitude":"87.76E"}
{"date":"2013-07-01","average_temperature":"27.5","city":"Dharmavaram","latitude":"15.27N","longitude":"77.50E"}
{"date":"2012-08-01","average_temperature":"28.656","city":"Dhaulpur","latitude":"26.52N","longitude":"77.01E"}
{"date":"2011-05-01","average_temperature":"29.268","city":"Dinajpur","latitude":"24.92N","longitude":"88.67E"}
{"date":"2010-04-01","average_temperature":"22.267","city":"Divinópolis","latitude":"20.09S","longitude":"44.36W"}
{"date":"2012-12-01","average_temperature":"26.308000000000003","city":"Djougou","latitude":"10.45N","longitude":"2.45E"}
{"date":"2011-08-01","average_temperature":"36.813","city":"Doha","latitude":"24.92N","longitude":"51.43E"}
{"date":"2013-05-01","average_temperature":"21.677","city":"Dongying","latitude":"37.78N","longitude":"117.97E"}
{"date":"2010-07-01","average_temperature":"23.636","city":"Downey","latitude":"34.56N","longitude":"118.70W"}
{"date":"2011-11-01","average_temperature":"9.152999999999999","city":"Dublin","latitude":"53.84N","longitude":"6.82W"}
{"date":"2013-03-01","average_temperature":"3.0730000000000004","city":"Dudley","latitude":"52.24N","longitude":"2.63W"}
{"date":"2013-04-01","average_temperature":"8.374","city":"Duisburg","latitude":"50.63N","longitude":"6.34E"}
{"date":"2012-04-01","average_temperature":"19.273000000000003","city":"Duma","latitude":"32.95N","longitude":"37.34E"}
{"date":"2011-11-01","average_temperature":"14.812999999999999","city":"Durango","latitude":"24.92N","longitude":"104.63W"}
{"date":"2013-01-01","average_temperature":"17.282999999999998","city":"Durgapur","latitude":"23.31N","longitude":"86.50E"}
{"date":"2011-09-01","average_temperature":"15.788","city":"Ede","latitude":"52.24N","longitude":"5.26E"}
{"date":"2012-06-01","average_temperature":"21.066","city":"El Monte","latitude":"34.56N","longitude":"118.70W"}
{"date":"2012-02-01","average_temperature":"-11.25","city":"Erzurum","latitude":"39.38N","longitude":"41.62E"}
{"date":"2012-12-01","average_temperature":"-4.431","city":"Erzurum","latitude":"39.38N","longitude":"41.62E"}
{"date":"2010-02-01","average_temperature":"13.774000000000001","city":"Escondido","latitude":"32.95N","longitude":"117.77W"}
{"date":"2010-12-01","average_temperature":"23.813","city":"Esmeraldas","latitude":"20.09S","longitude":"44.36W"}
{"date":"2012-06-01","average_temperature":"35.649","city":"Faisalabad","latitude":"31.35N","longitude":"73.51E"}
{"date":"2013-01-01","average_temperature":"14.017999999999999","city":"Faizabad","latitude":"26.52N","longitude":"82.39E"}
{"date":"2010-10-01","average_temperature":"26.675","city":"Farrukhabad","latitude":"28.13N","longitude":"79.09E"}
{"date":"2011-03-01","average_temperature":"26.561","city":"Feira De Santana","latitude":"12.05S","longitude":"39.45W"}
{"date":"2010-02-01","average_temperature":"24.83","city":"Ferraz De Vasconcelos","latitude":"23.31S","longitude":"46.31W"}
{"date":"2011-01-01","average_temperature":"11.537","city":"Firozpur","latitude":"31.35N","longitude":"75.39E"}
{"date":"2012-02-01","average_temperature":"25.381","city":"Florianópolis","latitude":"28.13S","longitude":"48.18W"}
{"date":"2012-06-01","average_temperature":"23.517","city":"Foggia","latitude":"40.99N","longitude":"14.91E"}
{"date":"2012-09-01","average_temperature":"17.619000000000003","city":"Fort Wayne","latitude":"40.99N","longitude":"85.21W"}
{"date":"2010-03-01","average_temperature":"18.631","city":"Foshan","latitude":"23.31N","longitude":"112.72E"}
{"date":"2012-10-01","average_temperature":"17.368","city":"Fresnillo","latitude":"23.31N","longitude":"102.23W"}
{"date":"2012-02-01","average_temperature":"1.8419999999999999","city":"Fuchu","latitude":"36.17N","longitude":"139.23E"}
{"date":"2010-02-01","average_temperature":"8.485","city":"Fujieda","latitude":"34.56N","longitude":"138.16E"}
{"date":"2011-09-01","average_temperature":"22.199","city":"Fujimi","latitude":"36.17N","longitude":"139.23E"}
{"date":"2013-07-01","average_temperature":"26.855","city":"Funtua","latitude":"12.05N","longitude":"6.58E"}
{"date":"2010-04-01","average_temperature":"3.657","city":"Fuyu","latitude":"45.81N","longitude":"125.77E"}
{"date":"2012-08-01","average_temperature":"22.143","city":"Fuyu","latitude":"45.81N","longitude":"125.77E"}
{"date":"2013-01-01","average_temperature":"-4.133","city":"Göteborg","latitude":"58.66N","longitude":"12.31E"}
{"date":"2011-12-01","average_temperature":"4.64","city":"Göttingen","latitude":"52.24N","longitude":"10.51E"}
{"date":"2012-12-01","average_temperature":"26.691000000000006","city":"Gagnoa","latitude":"5.63N","longitude":"6.46W"}
{"date":"2011-05-01","average_temperature":"32.668","city":"Gandhidham","latitude":"23.31N","longitude":"70.78E"}
{"date":"2010-10-01","average_temperature":"26.996","city":"Ganganagar","latitude":"29.74N","longitude":"73.85E"}
{"date":"2013-08-01","average_temperature":"28.951","city":"Gangapur","latitude":"26.52N","longitude":"77.01E"}
{"date":"2013-03-01","average_temperature":"6.3610000000000015","city":"Gaomi","latitude":"36.17N","longitude":"119.34E"}
{"date":"2012-04-01","average_temperature":"18.180999999999997","city":"Gardez","latitude":"32.95N","longitude":"69.89E"}
{"date":"2012-11-01","average_temperature":"12.838","city":"Gardez","latitude":"32.95N","longitude":"69.89E"}
{"date":"2012-07-01","average_temperature":"25.379","city":"Garoua","latitude":"8.84N","longitude":"13.78E"}
{"date":"2013-07-01","average_temperature":"25.951","city":"Garoua","latitude":"8.84N","longitude":"13.78E"}
{"date":"2011-08-01","average_temperature":"28.479","city":"Gazipur","latitude":"23.31N","longitude":"90.00E"}
{"date":"2010-10-01","average_temperature":"27.054","city":"Gboko","latitude":"7.23N","longitude":"8.92E"}
{"date":"2010-04-01","average_temperature":"16.024","city":"Geelong","latitude":"37.78S","longitude":"144.41E"}
{"date":"2012-01-01","average_temperature":"20.517","city":"Geelong","latitude":"37.78S","longitude":"144.41E"}
{"date":"2010-07-01","average_temperature":"20.320999999999998","city":"Gera","latitude":"50.63N","longitude":"11.41E"}
{"date":"2013-09-01","city":"Girón","latitude":"7.23N","longitude":"73.78W"}
{"date":"2011-07-01","average_temperature":"23.987","city":"Glendale","latitude":"34.56N","longitude":"118.70W"}
{"date":"2010-11-01","average_temperature":"23.483","city":"Goiânia","latitude":"16.87S","longitude":"48.56W"}
{"date":"2013-05-01","average_temperature":"33.315999999999995","city":"Gonda","latitude":"26.52N","longitude":"82.39E"}
{"date":"2011-11-01","average_temperature":"-2.611","city":"Gongzhuling","latitude":"44.20N","longitude":"125.22E"}
{"date":"2013-04-01","average_temperature":"27.046999999999997","city":"Grogol","latitude":"7.23S","longitude":"111.08E"}
{"date":"2010-07-01","average_temperature":"27.027","city":"Guacara","latitude":"10.45N","longitude":"67.91W"}
{"date":"2010-12-01","average_temperature":"7.057","city":"Guangshui","latitude":"31.35N","longitude":"113.09E"}
{"date":"2011-07-01","average_temperature":"29.093000000000004","city":"Guangshui","latitude":"31.35N","longitude":"113.09E"}
{"date":"2012-06-01","average_temperature":"34.148","city":"Gudalur","latitude":"12.05N","longitude":"80.55E"}
{"date":"2010-11-01","average_temperature":"15.575","city":"Guilin","latitude":"24.92N","longitude":"109.95E"}
{"date":"2013-09-01","city":"Guilin","latitude":"24.92N","longitude":"109.95E"}
{"date":"2011-11-01","average_temperature":"19.954","city":"Gujrat","latitude":"32.95N","longitude":"73.72E"}
{"date":"2013-01-01","average_temperature":"25.043000000000003","city":"Gulbarga","latitude":"16.87N","longitude":"77.02E"}
{"date":"2012-09-01","average_temperature":"24.328000000000003","city":"Gulu","latitude":"2.41N","longitude":"32.95E"}
{"date":"2013-03-01","average_temperature":"22.447","city":"Guwahati","latitude":"26.52N","longitude":"91.34E"}
{"date":"2013-03-01","average_temperature":"24.366","city":"Gwalior","latitude":"26.52N","longitude":"78.81E"}
{"date":"2010-11-01","average_temperature":"7.821999999999999","city":"Gyor","latitude":"47.42N","longitude":"17.76E"}
{"date":"2011-03-01","average_temperature":"16.051","city":"Haicheng","latitude":"23.31N","longitude":"114.47E"}
{"date":"2011-08-01","average_temperature":"23.877","city":"Haicheng","latitude":"40.99N","longitude":"123.55E"}
{"date":"2013-05-01","average_temperature":"17.472","city":"Haicheng","latitude":"40.99N","longitude":"123.55E"}
{"date":"2010-10-01","average_temperature":"-0.546","city":"Hailar","latitude":"49.03N","longitude":"120.00E"}
{"date":"2010-02-01","average_temperature":"-1.444","city":"Hakodate","latitude":"40.99N","longitude":"140.59E"}
{"date":"2012-04-01","average_temperature":"7.747999999999998","city":"Hamburg","latitude":"53.84N","longitude":"9.55E"}
{"date":"2011-09-01","average_temperature":"23.882","city":"Hampton","latitude":"36.17N","longitude":"75.58W"}
{"date":"2012-03-01","average_temperature":"14.814","city":"Hampton","latitude":"36.17N","longitude":"75.58W"}
{"date":"2011-08-01","average_temperature":"25.358","city":"Hangu","latitude":"39.38N","longitude":"118.61E"}
{"date":"2013-01-01","average_temperature":"13.49","city":"Hardoi","latitude":"26.52N","longitude":"80.60E"}
{"date":"2013-03-01","average_temperature":"-11.937","city":"Heihe","latitude":"50.63N","longitude":"128.03E"}
{"date":"2011-04-01","average_temperature":"15.407","city":"Hengshui","latitude":"37.78N","longitude":"115.93E"}
{"date":"2010-06-01","average_temperature":"26.805999999999997","city":"Heze","latitude":"34.56N","longitude":"114.81E"}
{"date":"2012-02-01","average_temperature":"16.162","city":"Hobart","latitude":"42.59S","longitude":"148.36E"}
{"date":"2011-09-01","average_temperature":"28.5","city":"Holguín","latitude":"20.09N","longitude":"76.78W"}
{"date":"2013-09-01","city":"Hoshiarpur","latitude":"31.35N","longitude":"75.39E"}
{"date":"2012-05-01","average_temperature":"29.139","city":"Hospet","latitude":"15.27N","longitude":"75.83E"}
{"date":"2011-12-01","average_temperature":"20.946","city":"Huambo","latitude":"13.66S","longitude":"15.69E"}
{"date":"2012-09-01","average_temperature":"20.506","city":"Huangcun","latitude":"39.38N","longitude":"116.53E"}
{"date":"2011-09-01","average_temperature":"27.398000000000003","city":"Huangpu","latitude":"23.31N","longitude":"112.72E"}
{"date":"2013-09-01","city":"Hulan","latitude":"45.81N","longitude":"125.77E"}
{"date":"2013-02-01","average_temperature":"-17.613","city":"Hulan Ergi","latitude":"47.42N","longitude":"124.34E"}
{"date":"2012-11-01","average_temperature":"5.646","city":"Iasi","latitude":"47.42N","longitude":"27.24E"}
{"date":"2011-08-01","average_temperature":"21.69","city":"Ibagué","latitude":"4.02N","longitude":"74.73W"}
{"date":"2010-08-01","average_temperature":"28.930999999999997","city":"Ibb","latitude":"13.66N","longitude":"43.76E"}
{"date":"2010-01-01","average_temperature":"12.67","city":"Ica","latitude":"13.66S","longitude":"75.14W"}
{"date":"2012-08-01","average_temperature":"27.367","city":"Ichihara","latitude":"34.56N","longitude":"140.11E"}
{"date":"2011-04-01","average_temperature":"28.579","city":"Ijero","latitude":"7.23N","longitude":"5.68E"}
{"date":"2013-06-01","average_temperature":"25.591","city":"Ikare","latitude":"7.23N","longitude":"5.68E"}
{"date":"2013-09-01","city":"Ikare","latitude":"7.23N","longitude":"5.68E"}
{"date":"2012-08-01","average_temperature":"24.756999999999998","city":"Ikirun","latitude":"7.23N","longitude":"4.05E"}
{"date":"2011-08-01","average_temperature":"27.376","city":"Ikoma","latitude":"34.56N","longitude":"136.22E"}
{"date":"2010-09-01","average_temperature":"26.182","city":"Ikot Ekpene","latitude":"5.63N","longitude":"8.07E"}
{"date":"2010-02-01","average_temperature":"30.769000000000002","city":"Ilorin","latitude":"8.84N","longitude":"4.05E"}
{"date":"2011-02-01","average_temperature":"29.417","city":"Ilorin","latitude":"8.84N","longitude":"4.05E"}
{"date":"2010-06-01","average_temperature":"24.749","city":"Imphal","latitude":"24.92N","longitude":"93.99E"}
{"date":"2011-03-01","average_temperature":"6.2559999999999985","city":"Inegol","latitude":"39.38N","longitude":"29.13E"}
{"date":"2012-04-01","average_temperature":"7.496","city":"Ipswich","latitude":"52.24N","longitude":"0.00W"}
{"date":"2012-07-01","average_temperature":"25.32","city":"Iquitos","latitude":"4.02S","longitude":"73.13W"}
{"date":"2010-05-01","average_temperature":"25.453000000000003","city":"Irbil","latitude":"36.17N","longitude":"43.76E"}
{"date":"2010-12-01","average_temperature":"10.263","city":"Irbil","latitude":"36.17N","longitude":"43.76E"}
{"date":"2012-03-01","average_temperature":"17.529","city":"Irving","latitude":"32.95N","longitude":"96.70W"}
{"date":"2012-08-01","average_temperature":"21.267","city":"Itaguaí","latitude":"23.31S","longitude":"44.56W"}
{"date":"2011-12-01","average_temperature":"22.244","city":"Itapecerica Da Serra","latitude":"23.31S","longitude":"46.31W"}
{"date":"2010-07-01","average_temperature":"18.354","city":"Itapevi","latitude":"23.31S","longitude":"46.31W"}
{"date":"2010-02-01","average_temperature":"24.83","city":"Itaquaquecetuba","latitude":"23.31S","longitude":"46.31W"}
{"date":"2011-09-01","average_temperature":"21.717","city":"Iwaki","latitude":"37.78N","longitude":"140.34E"}
{"date":"2011-04-01","average_temperature":"23.454","city":"Jahrom","latitude":"28.13N","longitude":"53.64E"}
{"date":"2011-10-01","average_temperature":"26.587","city":"Jaipur","latitude":"26.52N","longitude":"75.22E"}
{"date":"2012-04-01","average_temperature":"31.078000000000003","city":"Jalna","latitude":"20.09N","longitude":"75.07E"}
{"date":"2012-11-01","average_temperature":"21.76","city":"Jamuria","latitude":"23.31N","longitude":"86.50E"}
{"date":"2010-04-01","average_temperature":"20.855","city":"Jandira","latitude":"23.31S","longitude":"46.31W"}
{"date":"2011-12-01","average_temperature":"15.975999999999999","city":"Jaunpur","latitude":"26.52N","longitude":"82.39E"}
{"date":"2012-08-01","average_temperature":"29.509","city":"Jhelum","latitude":"32.95N","longitude":"73.72E"}
{"date":"2012-09-01","average_temperature":"27.883000000000006","city":"Jhelum","latitude":"32.95N","longitude":"73.72E"}
{"date":"2011-08-01","average_temperature":"28.52","city":"Jian","latitude":"26.52N","longitude":"114.63E"}
{"date":"2013-07-01","average_temperature":"28.659000000000002","city":"Jiangmen","latitude":"23.31N","longitude":"112.72E"}
{"date":"2013-06-01","average_temperature":"25.631","city":"Jiaozuo","latitude":"34.56N","longitude":"112.86E"}
{"date":"2012-02-01","average_temperature":"-12.710999999999999","city":"Jiayuguan","latitude":"39.38N","longitude":"97.80E"}
{"date":"2013-01-01","average_temperature":"-15.149","city":"Jiayuguan","latitude":"39.38N","longitude":"97.80E"}
{"date":"2011-02-01","average_temperature":"14.482000000000001","city":"Jieshi","latitude":"23.31N","longitude":"116.21E"}
{"date":"2013-09-01","city":"Jiutai","latitude":"44.20N","longitude":"125.22E"}
{"date":"2011-02-01","average_temperature":"25.37","city":"Joinville","latitude":"26.52S","longitude":"48.36W"}
{"date":"2012-11-01","average_temperature":"27.182","city":"Jolo","latitude":"5.63N","longitude":"119.46E"}
{"date":"2013-09-01","city":"Jolo","latitude":"5.63N","longitude":"119.46E"}
{"date":"2012-05-01","average_temperature":"23.502","city":"Kaifeng","latitude":"34.56N","longitude":"114.81E"}
{"date":"2012-06-01","average_temperature":"16.464000000000002","city":"Kalisz","latitude":"52.24N","longitude":"18.39E"}
{"date":"2013-07-01","average_temperature":"28.073","city":"Kalol","latitude":"23.31N","longitude":"72.52E"}
{"date":"2013-09-01","city":"Kaluga","latitude":"53.84N","longitude":"36.82E"}
{"date":"2012-07-01","average_temperature":"25.06","city":"Kamakura","latitude":"34.56N","longitude":"140.11E"}
{"date":"2013-06-01","average_temperature":"32.996","city":"Kanchipuram","latitude":"13.66N","longitude":"80.09E"}
{"date":"2010-02-01","average_temperature":"27.177","city":"Kandy","latitude":"7.23N","longitude":"80.27E"}
{"date":"2011-03-01","average_temperature":"30.807","city":"Kano","latitude":"12.05N","longitude":"8.22E"}
{"date":"2011-12-01","average_temperature":"15.375","city":"Kanpur","latitude":"26.52N","longitude":"80.60E"}
{"date":"2013-03-01","average_temperature":"27.05","city":"Karang Tengah","latitude":"7.23S","longitude":"106.22E"}
{"date":"2013-01-01","average_temperature":"1.026","city":"Karlsruhe","latitude":"49.03N","longitude":"7.35E"}
{"date":"2012-10-01","average_temperature":"15.722000000000001","city":"Kasukabe","latitude":"36.17N","longitude":"139.23E"}
{"date":"2012-07-01","average_temperature":"29.381","city":"Katihar","latitude":"24.92N","longitude":"86.90E"}
{"date":"2011-10-01","average_temperature":"27.331999999999997","city":"Kebumen","latitude":"7.23S","longitude":"109.46E"}
{"date":"2012-10-01","average_temperature":"27.669","city":"Kebumen","latitude":"7.23S","longitude":"109.46E"}
{"date":"2012-08-01","average_temperature":"22.778000000000002","city":"Kecskemét","latitude":"47.42N","longitude":"20.13E"}
{"date":"2011-10-01","average_temperature":"11.662","city":"Kerch","latitude":"45.81N","longitude":"35.77E"}
{"date":"2012-05-01","average_temperature":"18.74","city":"Kerch","latitude":"45.81N","longitude":"35.77E"}
{"date":"2011-03-01","average_temperature":"23.479","city":"Khanewal","latitude":"29.74N","longitude":"72.00E"}
{"date":"2010-10-01","average_temperature":"27.928","city":"Kharagpur","latitude":"21.70N","longitude":"87.40E"}
{"date":"2013-07-01","average_temperature":"30.0","city":"Khardaha","latitude":"23.31N","longitude":"88.25E"}
{"date":"2011-12-01","average_temperature":"27.313","city":"Kingston","latitude":"18.48N","longitude":"76.06W"}
{"date":"2012-11-01","average_temperature":"27.994","city":"Kingston","latitude":"18.48N","longitude":"76.06W"}
{"date":"2012-01-01","average_temperature":"-11.962","city":"Kirov","latitude":"58.66N","longitude":"49.23E"}
{"date":"2011-07-01","average_temperature":"22.118","city":"Kirovohrad","latitude":"49.03N","longitude":"31.84E"}
{"date":"2012-11-01","average_temperature":"4.413","city":"Kirovohrad","latitude":"49.03N","longitude":"31.84E"}
{"date":"2011-05-01","average_temperature":"26.576","city":"Kisangani","latitude":"0.80N","longitude":"24.91E"}
{"date":"2013-01-01","average_temperature":"-4.681","city":"Kitchener","latitude":"44.20N","longitude":"80.50W"}
{"date":"2013-07-01","average_temperature":"16.445","city":"Klaipeda","latitude":"55.45N","longitude":"19.84E"}
{"date":"2013-05-01","average_temperature":"13.704","city":"Klerksdorp","latitude":"26.52S","longitude":"26.87E"}
{"date":"2012-06-01","average_temperature":"27.410999999999998","city":"Kochi","latitude":"10.45N","longitude":"76.09E"}
{"date":"2012-07-01","average_temperature":"25.958","city":"Kolhapur","latitude":"16.87N","longitude":"73.67E"}
{"date":"2012-09-01","average_temperature":"12.251","city":"Kolpino","latitude":"60.27N","longitude":"29.19E"}
{"date":"2012-11-01","average_temperature":"-9.092","city":"Komsomolsk Na Amure","latitude":"50.63N","longitude":"138.17E"}
{"date":"2011-11-01","average_temperature":"4.168","city":"Korla","latitude":"40.99N","longitude":"85.21E"}
{"date":"2010-03-01","average_temperature":"27.561999999999998","city":"Kota Bahru","latitude":"5.63N","longitude":"101.70E"}
{"date":"2010-05-01","average_temperature":"27.769000000000002","city":"Kotte","latitude":"7.23N","longitude":"80.27E"}
{"date":"2011-12-01","average_temperature":"25.54","city":"Kotte","latitude":"7.23N","longitude":"80.27E"}
{"date":"2011-05-01","average_temperature":"33.464","city":"Kousséri","latitude":"12.05N","longitude":"14.79E"}
{"date":"2013-05-01","average_temperature":"30.921","city":"Krishnanagar","latitude":"23.31N","longitude":"88.25E"}
{"date":"2013-06-01","average_temperature":"30.618000000000002","city":"Krishnanagar","latitude":"23.31N","longitude":"88.25E"}
{"date":"2010-05-01","average_temperature":"28.718000000000004","city":"Kumasi","latitude":"7.23N","longitude":"0.81W"}
{"date":"2013-06-01","average_temperature":"25.881999999999998","city":"Kumba","latitude":"4.02N","longitude":"8.84E"}
{"date":"2010-05-01","average_temperature":"31.458000000000002","city":"Kumbakonam","latitude":"10.45N","longitude":"79.36E"}
{"date":"2012-07-01","average_temperature":"25.521","city":"Kupang","latitude":"10.45S","longitude":"123.55E"}
{"date":"2012-12-01","average_temperature":"-21.272","city":"Kurgan","latitude":"55.45N","longitude":"65.20E"}
{"date":"2010-04-01","average_temperature":"33.35","city":"Kusti","latitude":"13.66N","longitude":"32.20E"}
{"date":"2012-07-01","average_temperature":"28.438","city":"Lárisa","latitude":"39.38N","longitude":"22.89E"}
{"date":"2013-09-01","average_temperature":"18.313","city":"López Mateos","latitude":"20.09N","longitude":"98.96W"}
{"date":"2010-11-01","average_temperature":"20.535999999999998","city":"Lages","latitude":"28.13S","longitude":"50.00W"}
{"date":"2011-04-01","average_temperature":"10.398","city":"Laiyang","latitude":"36.17N","longitude":"121.33E"}
{"date":"2011-01-01","average_temperature":"13.071","city":"Lakhimpur","latitude":"28.13N","longitude":"80.91E"}
{"date":"2010-03-01","average_temperature":"26.496","city":"Lakhnau","latitude":"26.52N","longitude":"80.60E"}
{"date":"2012-12-01","average_temperature":"23.465999999999998","city":"Lampang","latitude":"18.48N","longitude":"99.72E"}
{"date":"2012-09-01","average_temperature":"27.479","city":"Lapu Lapu","latitude":"10.45N","longitude":"123.55E"}
{"date":"2012-10-01","average_temperature":"27.675","city":"Larkana","latitude":"28.13N","longitude":"68.18E"}
{"date":"2013-05-01","average_temperature":"22.516","city":"Las Vegas","latitude":"36.17N","longitude":"115.36W"}
{"date":"2011-06-01","average_temperature":"16.364","city":"Le Havre","latitude":"49.03N","longitude":"0.00W"}
{"date":"2011-08-01","average_temperature":"18.252","city":"Legnica","latitude":"50.63N","longitude":"16.48E"}
{"date":"2012-06-01","average_temperature":"15.744000000000002","city":"Legnica","latitude":"50.63N","longitude":"16.48E"}
{"date":"2011-07-01","average_temperature":"16.02","city":"Leiden","latitude":"52.24N","longitude":"5.26E"}
{"date":"2010-07-01","average_temperature":"29.351999999999997","city":"Leiyang","latitude":"26.52N","longitude":"112.84E"}
{"date":"2011-10-01","average_temperature":"26.184","city":"Lembang","latitude":"7.23S","longitude":"107.84E"}
{"date":"2011-11-01","average_temperature":"15.766000000000002","city":"Lemesos","latitude":"34.56N","longitude":"33.08E"}
{"date":"2013-02-01","average_temperature":"14.119000000000002","city":"Lemesos","latitude":"34.56N","longitude":"33.08E"}
{"date":"2013-08-01","average_temperature":"28.498","city":"Licheng","latitude":"23.31N","longitude":"114.47E"}
{"date":"2013-09-01","city":"Likasi","latitude":"10.45S","longitude":"27.00E"}
{"date":"2011-07-01","average_temperature":"30.22","city":"Linchuan","latitude":"28.13N","longitude":"115.45E"}
{"date":"2010-08-01","average_temperature":"28.929000000000002","city":"Linhai","latitude":"28.13N","longitude":"120.91E"}
{"date":"2013-07-01","average_temperature":"24.283","city":"Linshui","latitude":"36.17N","longitude":"113.37E"}
{"date":"2010-12-01","average_temperature":"14.654000000000002","city":"Liusha","latitude":"23.31N","longitude":"116.21E"}
{"date":"2011-02-01","average_temperature":"14.482000000000001","city":"Liusha","latitude":"23.31N","longitude":"116.21E"}
{"date":"2013-02-01","average_temperature":"4.6610000000000005","city":"Liverpool","latitude":"53.84N","longitude":"4.09W"}
{"date":"2012-03-01","average_temperature":"7.73","city":"London","latitude":"42.59N","longitude":"80.73W"}
{"date":"2013-09-01","city":"Long Xuyên","latitude":"10.45N","longitude":"105.55E"}
{"date":"2010-01-01","average_temperature":"25.569000000000003","city":"Louga","latitude":"15.27N","longitude":"15.83W"}
{"date":"2011-07-01","average_temperature":"16.979","city":"Luanshya","latitude":"13.66S","longitude":"28.90E"}
{"date":"2013-05-01","average_temperature":"11.805","city":"Ludwigshafen","latitude":"49.03N","longitude":"7.35E"}
{"date":"2011-08-01","average_temperature":"19.25","city":"Lyon","latitude":"45.81N","longitude":"5.77E"}
{"date":"2011-03-01","average_temperature":"6.521000000000001","city":"Mülheim","latitude":"50.63N","longitude":"6.34E"}
{"date":"2012-11-01","average_temperature":"6.2120000000000015","city":"Münster","latitude":"52.24N","longitude":"7.88E"}
{"date":"2011-10-01","average_temperature":"17.563","city":"Maanshan","latitude":"31.35N","longitude":"118.74E"}
{"date":"2012-08-01","average_temperature":"20.449","city":"Machala","latitude":"4.02S","longitude":"79.55W"}
{"date":"2013-04-01","average_temperature":"29.353","city":"Magangué","latitude":"8.84N","longitude":"75.41W"}
{"date":"2012-08-01","average_temperature":"18.485","city":"Magnitogorsk","latitude":"53.84N","longitude":"58.64E"}
{"date":"2010-03-01","average_temperature":"10.148","city":"Mahabad","latitude":"36.17N","longitude":"45.75E"}
{"date":"2012-08-01","average_temperature":"28.086","city":"Mahesana","latitude":"23.31N","longitude":"72.52E"}
{"date":"2010-09-01","average_temperature":"28.889","city":"Maicao","latitude":"12.05N","longitude":"72.33W"}
{"date":"2010-06-01","average_temperature":"31.947000000000006","city":"Maiduguri","latitude":"12.05N","longitude":"13.15E"}
{"date":"2011-03-01","average_temperature":"3.4789999999999996","city":"Makhachkala","latitude":"42.59N","longitude":"48.00E"}
{"date":"2010-04-01","average_temperature":"31.011999999999997","city":"Makurdi","latitude":"7.23N","longitude":"8.92E"}
{"date":"2011-08-01","average_temperature":"26.61","city":"Makurdi","latitude":"7.23N","longitude":"8.92E"}
{"date":"2011-06-01","average_temperature":"26.723000000000006","city":"Malang","latitude":"7.23S","longitude":"112.70E"}
{"date":"2011-07-01","average_temperature":"26.496","city":"Manado","latitude":"0.80N","longitude":"124.55E"}
{"date":"2011-05-01","average_temperature":"28.6","city":"Managua","latitude":"12.05N","longitude":"85.48W"}
{"date":"2012-10-01","average_temperature":"25.938000000000002","city":"Mangaluru","latitude":"13.66N","longitude":"75.14E"}
{"date":"2013-02-01","average_temperature":"27.042","city":"Manila","latitude":"15.27N","longitude":"120.83E"}
{"date":"2012-05-01","average_temperature":"19.965999999999998","city":"Manizales","latitude":"5.63N","longitude":"75.87W"}
{"date":"2010-11-01","average_temperature":"20.951999999999998","city":"Maoming","latitude":"21.70N","longitude":"111.63E"}
{"date":"2012-04-01","average_temperature":"27.500999999999998","city":"Marabá","latitude":"5.63S","longitude":"48.43W"}
{"date":"2012-12-01","average_temperature":"24.826999999999998","city":"Maroua","latitude":"10.45N","longitude":"13.91E"}
{"date":"2012-10-01","average_temperature":"25.964000000000002","city":"Masaya","latitude":"12.05N","longitude":"85.48W"}
{"date":"2011-04-01","average_temperature":"12.548","city":"Matsusaka","latitude":"34.56N","longitude":"136.22E"}
{"date":"2013-02-01","average_temperature":"25.639","city":"Maymyo","latitude":"21.70N","longitude":"96.06E"}
{"date":"2010-12-01","average_temperature":"21.831999999999997","city":"Mbeya","latitude":"8.84S","longitude":"33.24E"}
{"date":"2013-08-01","average_temperature":"27.656999999999996","city":"Mbour","latitude":"13.66N","longitude":"17.34W"}
{"date":"2010-05-01","average_temperature":"20.881999999999998","city":"Mersin","latitude":"36.17N","longitude":"33.81E"}
{"date":"2010-03-01","average_temperature":"12.540999999999999","city":"Messina","latitude":"37.78N","longitude":"16.27E"}
{"date":"2013-02-01","average_temperature":"11.59","city":"Mexicali","latitude":"32.95N","longitude":"115.85W"}
{"date":"2012-09-01","average_temperature":"27.509","city":"Miami","latitude":"26.52N","longitude":"80.60W"}
{"date":"2012-11-01","average_temperature":"-3.2680000000000002","city":"Miass","latitude":"55.45N","longitude":"59.53E"}
{"date":"2013-01-01","average_temperature":"20.673","city":"Midrand","latitude":"26.52S","longitude":"28.66E"}
{"date":"2012-11-01","average_temperature":"25.038","city":"Mirpur Khas","latitude":"24.92N","longitude":"69.16E"}
{"date":"2010-01-01","average_temperature":"2.608","city":"Mitaka","latitude":"36.17N","longitude":"139.23E"}
{"date":"2012-04-01","average_temperature":"26.471999999999998","city":"Moga","latitude":"31.35N","longitude":"75.39E"}
{"date":"2011-09-01","average_temperature":"27.412","city":"Mojokerto","latitude":"7.23S","longitude":"112.70E"}
{"date":"2010-06-01","average_temperature":"28.646","city":"Montería","latitude":"8.84N","longitude":"75.41W"}
{"date":"2012-11-01","average_temperature":"23.581","city":"Montes Claros","latitude":"16.87S","longitude":"43.53W"}
{"date":"2013-05-01","average_temperature":"13.335","city":"Montevideo","latitude":"34.56S","longitude":"56.43W"}
{"date":"2010-11-01","average_temperature":"23.709000000000003","city":"Monywa","latitude":"21.70N","longitude":"94.33E"}
{"date":"2012-09-01","average_temperature":"28.997","city":"Mopti","latitude":"15.27N","longitude":"4.17W"}
{"date":"2011-12-01","average_temperature":"14.844000000000001","city":"Morelia","latitude":"20.09N","longitude":"100.66W"}
{"date":"2010-08-01","average_temperature":"20.949","city":"Mudanjiang","latitude":"44.20N","longitude":"129.69E"}
{"date":"2010-01-01","average_temperature":"-15.673000000000002","city":"Murmansk","latitude":"68.31N","longitude":"34.70E"}
{"date":"2012-03-01","average_temperature":"29.043000000000006","city":"Nagercoil","latitude":"8.84N","longitude":"77.03E"}
{"date":"2010-09-01","average_temperature":"24.611","city":"Nampula","latitude":"15.27S","longitude":"39.17E"}
{"date":"2010-03-01","average_temperature":"5.465","city":"Nancy","latitude":"49.03N","longitude":"7.35E"}
{"date":"2011-08-01","average_temperature":"26.779","city":"Nanded","latitude":"18.48N","longitude":"77.75E"}
{"date":"2012-04-01","average_temperature":"29.340999999999998","city":"Nangloi Jat","latitude":"28.13N","longitude":"77.27E"}
{"date":"2010-09-01","average_temperature":"26.884","city":"Nanning","latitude":"23.31N","longitude":"107.48E"}
{"date":"2010-03-01","average_temperature":"9.603","city":"Naples","latitude":"40.99N","longitude":"14.91E"}
{"date":"2010-05-01","average_temperature":"16.348","city":"Narita","latitude":"36.17N","longitude":"141.22E"}
{"date":"2011-07-01","average_temperature":"29.447000000000006","city":"Nassau","latitude":"24.92N","longitude":"78.03W"}
{"date":"2013-03-01","average_temperature":"27.701999999999998","city":"Navadwip","latitude":"23.31N","longitude":"88.25E"}
{"date":"2011-10-01","average_temperature":"27.599","city":"Nawabganj","latitude":"24.92N","longitude":"88.67E"}
{"date":"2011-12-01","average_temperature":"6.84","city":"Nazilli","latitude":"37.78N","longitude":"28.47E"}
{"date":"2010-12-01","average_temperature":"22.217","city":"Ndola","latitude":"13.66S","longitude":"28.90E"}
{"date":"2012-06-01","average_temperature":"17.173","city":"Ndola","latitude":"13.66S","longitude":"28.90E"}
{"date":"2011-02-01","average_temperature":"25.798000000000002","city":"Negombo","latitude":"7.23N","longitude":"80.27E"}
{"date":"2010-04-01","average_temperature":"1.2790000000000001","city":"Nehe","latitude":"49.03N","longitude":"124.90E"}
{"date":"2012-07-01","average_temperature":"28.441","city":"New Orleans","latitude":"29.74N","longitude":"90.46W"}
{"date":"2013-08-01","average_temperature":"28.180999999999997","city":"Neyagawa","latitude":"34.56N","longitude":"136.22E"}
{"date":"2011-11-01","average_temperature":"4.648999999999999","city":"Neyshabur","latitude":"36.17N","longitude":"59.67E"}
{"date":"2013-01-01","average_temperature":"22.683000000000003","city":"Nguru","latitude":"13.66N","longitude":"10.73E"}
{"date":"2010-05-01","average_temperature":"15.417","city":"Nis","latitude":"42.59N","longitude":"21.82E"}
{"date":"2011-12-01","average_temperature":"-9.657","city":"Nizhniy Tagil","latitude":"57.05N","longitude":"60.49E"}
{"date":"2012-06-01","average_temperature":"29.13","city":"Nonthaburi","latitude":"13.66N","longitude":"99.91E"}
{"date":"2010-05-01","average_temperature":"10.743","city":"Nottingham","latitude":"53.84N","longitude":"1.36W"}
{"date":"2011-04-01","average_temperature":"19.835","city":"Novo Hamburgo","latitude":"29.74S","longitude":"51.69W"}
{"date":"2011-01-01","average_temperature":"-22.526","city":"Novokuznetsk","latitude":"53.84N","longitude":"85.91E"}
{"date":"2011-12-01","average_temperature":"-13.181","city":"Novokuznetsk","latitude":"53.84N","longitude":"85.91E"}
{"date":"2012-02-01","average_temperature":"-6.0059999999999985","city":"Nyíregyháza","latitude":"47.42N","longitude":"22.50E"}
{"date":"2011-11-01","average_temperature":"25.864","city":"Nzérékoré","latitude":"7.23N","longitude":"8.92W"}
{"date":"2010-12-01","average_temperature":"27.186","city":"Obosi","latitude":"5.63N","longitude":"6.46E"}
{"date":"2010-03-01","average_temperature":"29.275","city":"Obuasi","latitude":"5.63N","longitude":"1.61W"}
{"date":"2010-11-01","average_temperature":"15.889000000000001","city":"Oceanside","latitude":"32.95N","longitude":"117.77W"}
{"date":"2012-07-01","average_temperature":"26.26","city":"Ogaki","latitude":"34.56N","longitude":"136.22E"}
{"date":"2013-04-01","average_temperature":"6.907","city":"Olsztyn","latitude":"53.84N","longitude":"20.45E"}
{"date":"2010-10-01","average_temperature":"17.713","city":"Ontario","latitude":"34.56N","longitude":"116.76W"}
{"date":"2011-09-01","average_temperature":"13.335","city":"Orël","latitude":"52.24N","longitude":"36.79E"}
{"date":"2011-02-01","average_temperature":"18.795","city":"Orai","latitude":"26.52N","longitude":"78.81E"}
{"date":"2011-11-01","average_temperature":"-1.318","city":"Orekhovo Zuevo","latitude":"55.45N","longitude":"39.69E"}
{"date":"2013-05-01","average_temperature":"26.653","city":"Orizaba","latitude":"18.48N","longitude":"96.34W"}
{"date":"2011-07-01","average_temperature":"26.219","city":"Oron","latitude":"5.63N","longitude":"8.07E"}
{"date":"2012-11-01","average_temperature":"11.55","city":"Osmaniye","latitude":"37.78N","longitude":"36.61E"}
{"date":"2011-08-01","average_temperature":"17.794","city":"Osnabrück","latitude":"52.24N","longitude":"7.88E"}
{"date":"2011-04-01","average_temperature":"8.790000000000001","city":"Osorno","latitude":"40.99S","longitude":"72.43W"}
{"date":"2013-03-01","average_temperature":"-0.56","city":"Ostrava","latitude":"50.63N","longitude":"19.01E"}
{"date":"2013-02-01","average_temperature":"2.046","city":"Ota","latitude":"36.17N","longitude":"139.23E"}
{"date":"2012-01-01","average_temperature":"-8.424000000000001","city":"Oulu","latitude":"65.09N","longitude":"24.89E"}
{"date":"2010-03-01","average_temperature":"6.872000000000001","city":"Overland Park","latitude":"39.38N","longitude":"93.64W"}
{"date":"2012-10-01","average_temperature":"26.329","city":"Owerri","latitude":"5.63N","longitude":"6.46E"}
{"date":"2010-12-01","average_temperature":"19.727999999999998","city":"Pabna","latitude":"23.31N","longitude":"90.00E"}
{"date":"2012-03-01","average_temperature":"27.298","city":"Pabna","latitude":"23.31N","longitude":"90.00E"}
{"date":"2011-07-01","average_temperature":"27.276999999999997","city":"Pakokku","latitude":"21.70N","longitude":"94.33E"}
{"date":"2013-08-01","average_temperature":"26.064","city":"Palma","latitude":"39.38N","longitude":"2.08E"}
{"date":"2012-01-01","average_temperature":"5.188","city":"Pamplona","latitude":"42.59N","longitude":"2.18W"}
{"date":"2013-08-01","average_temperature":"20.994","city":"Pamplona","latitude":"42.59N","longitude":"2.18W"}
{"date":"2010-11-01","average_temperature":"19.866","city":"Panipat","latitude":"29.74N","longitude":"77.54E"}
{"date":"2012-10-01","average_temperature":"19.089","city":"Paradise","latitude":"36.17N","longitude":"115.36W"}
{"date":"2012-11-01","average_temperature":"13.072000000000001","city":"Paradise","latitude":"36.17N","longitude":"115.36W"}
{"date":"2013-05-01","average_temperature":"14.957","city":"Parma","latitude":"44.20N","longitude":"11.18E"}
{"date":"2011-06-01","average_temperature":"27.555","city":"Pate","latitude":"24.92N","longitude":"120.59E"}
{"date":"2012-08-01","average_temperature":"27.898000000000003","city":"Pate","latitude":"24.92N","longitude":"120.59E"}
{"date":"2010-10-01","average_temperature":"24.575","city":"Pembroke Pines","latitude":"26.52N","longitude":"80.60W"}
{"date":"2012-01-01","average_temperature":"26.459","city":"Perbaungan","latitude":"4.02N","longitude":"98.84E"}
{"date":"2013-02-01","average_temperature":"12.097999999999999","city":"Peristérion","latitude":"37.78N","longitude":"24.41E"}
{"date":"2011-03-01","average_temperature":"27.206","city":"Petaling Jaya","latitude":"2.41N","longitude":"102.05E"}
{"date":"2013-04-01","average_temperature":"21.511","city":"Petapa","latitude":"15.27N","longitude":"90.83W"}
{"date":"2012-12-01","average_temperature":"4.849","city":"Peterborough","latitude":"52.24N","longitude":"0.00W"}
{"date":"2013-04-01","average_temperature":"-1.91","city":"Petropavlovsk Kamchatskiy","latitude":"53.84N","longitude":"159.55E"}
{"date":"2013-03-01","average_temperature":"2.2150000000000003","city":"Pforzheim","latitude":"49.03N","longitude":"9.80E"}
{"date":"2010-04-01","average_temperature":"29.656999999999996","city":"Phan Thiet","latitude":"10.45N","longitude":"107.18E"}
{"date":"2012-04-01","average_temperature":"28.623","city":"Phan Thiet","latitude":"10.45N","longitude":"107.18E"}
{"date":"2012-07-01","average_temperature":"28.71","city":"Pingshan","latitude":"23.31N","longitude":"114.47E"}
{"date":"2010-10-01","average_temperature":"6.222","city":"Ploiesti","latitude":"45.81N","longitude":"26.54E"}
{"date":"2012-04-01","average_temperature":"9.842","city":"Plovdiv","latitude":"42.59N","longitude":"24.00E"}
{"date":"2012-09-01","average_temperature":"18.684","city":"Podgorica","latitude":"42.59N","longitude":"19.64E"}
{"date":"2010-01-01","average_temperature":"-8.336","city":"Poltava","latitude":"49.03N","longitude":"34.29E"}
{"date":"2010-09-01","average_temperature":"29.781","city":"Pondicherry","latitude":"12.05N","longitude":"80.55E"}
{"date":"2011-12-01","average_temperature":"8.663","city":"Poole","latitude":"50.63N","longitude":"1.27W"}
{"date":"2010-10-01","average_temperature":"26.112","city":"Port Said","latitude":"31.35N","longitude":"32.04E"}
{"date":"2012-04-01","average_temperature":"23.115","city":"Port Saint Lucie","latitude":"26.52N","longitude":"80.60W"}
{"date":"2010-07-01","average_temperature":"10.948","city":"Potchefstroom","latitude":"26.52S","longitude":"26.87E"}
{"date":"2011-04-01","average_temperature":"31.077","city":"Proddatur","latitude":"15.27N","longitude":"79.17E"}
{"date":"2010-08-01","average_temperature":"16.342","city":"Prokopyevsk","latitude":"53.84N","longitude":"85.91E"}
{"date":"2012-06-01","average_temperature":"21.723000000000003","city":"Puebla","latitude":"18.48N","longitude":"98.03W"}
{"date":"2013-08-01","average_temperature":"23.62","city":"Pueblo","latitude":"37.78N","longitude":"103.73W"}
{"date":"2010-03-01","average_temperature":"12.501","city":"Puerto Montt","latitude":"40.99S","longitude":"72.43W"}
{"date":"2012-04-01","average_temperature":"8.626000000000001","city":"Puerto Montt","latitude":"40.99S","longitude":"72.43W"}
{"date":"2012-11-01","average_temperature":"28.054","city":"Puerto Plata","latitude":"20.09N","longitude":"69.95W"}
{"date":"2010-05-01","average_temperature":"15.135","city":"Pulandian","latitude":"39.38N","longitude":"122.77E"}
{"date":"2012-12-01","average_temperature":"28.191000000000006","city":"Punto Fijo","latitude":"12.05N","longitude":"70.68W"}
{"date":"2011-03-01","average_temperature":"1.337","city":"Pyatigorsk","latitude":"44.20N","longitude":"42.48E"}
{"date":"2012-01-01","average_temperature":"-4.502","city":"Pyatigorsk","latitude":"44.20N","longitude":"42.48E"}
{"date":"2012-08-01","average_temperature":"30.708","city":"Qandahar","latitude":"31.35N","longitude":"65.97E"}
{"date":"2013-03-01","average_temperature":"4.9430000000000005","city":"Qingdao","latitude":"36.17N","longitude":"121.33E"}
{"date":"2012-02-01","average_temperature":"-2.904","city":"Qinhuangdao","latitude":"39.38N","longitude":"118.61E"}
{"date":"2010-11-01","average_temperature":"-0.8239999999999998","city":"Qostanay","latitude":"53.84N","longitude":"64.09E"}
{"date":"2010-06-01","average_temperature":"29.41","city":"Quchan","latitude":"37.78N","longitude":"58.98E"}
{"date":"2012-04-01","average_temperature":"13.954","city":"Queenstown","latitude":"31.35S","longitude":"26.39E"}
{"date":"2013-07-01","average_temperature":"32.548","city":"Quetta","latitude":"29.74N","longitude":"66.46E"}
{"date":"2013-03-01","average_temperature":"19.383","city":"Quetzaltenango","latitude":"15.27N","longitude":"90.83W"}
{"date":"2010-04-01","average_temperature":"18.114","city":"Quito","latitude":"0.80S","longitude":"77.95W"}
{"date":"2013-01-01","average_temperature":"-2.5500000000000003","city":"Qunduz","latitude":"36.17N","longitude":"69.61E"}
{"date":"2012-06-01","average_temperature":"23.654","city":"Rabat","latitude":"34.56N","longitude":"5.84W"}
{"date":"2012-01-01","average_temperature":"14.097999999999999","city":"Rae Bareli","latitude":"26.52N","longitude":"80.60E"}
{"date":"2013-06-01","average_temperature":"30.645","city":"Raipur","latitude":"21.70N","longitude":"82.21E"}
{"date":"2013-01-01","average_temperature":"20.457","city":"Rajkot","latitude":"21.70N","longitude":"70.10E"}
{"date":"2012-08-01","average_temperature":"29.895","city":"Rajshahi","latitude":"24.92N","longitude":"88.67E"}
{"date":"2010-12-01","average_temperature":"24.951","city":"Rancaekek","latitude":"7.23S","longitude":"107.84E"}
{"date":"2011-01-01","average_temperature":"24.601","city":"Rangoon","latitude":"16.87N","longitude":"95.44E"}
{"date":"2010-02-01","average_temperature":"17.283","city":"Rangpur","latitude":"26.52N","longitude":"89.55E"}
{"date":"2010-02-01","average_temperature":"-1.028","city":"Ratisbon","latitude":"49.03N","longitude":"12.24E"}
{"date":"2010-09-01","average_temperature":"25.902","city":"Rawang","latitude":"4.02N","longitude":"102.05E"}
{"date":"2010-08-01","average_temperature":"26.248","city":"Reggio Di Calabria","latitude":"37.78N","longitude":"16.27E"}
{"date":"2011-07-01","average_temperature":"25.124","city":"Reggio Di Calabria","latitude":"37.78N","longitude":"16.27E"}
{"date":"2010-02-01","average_temperature":"4.5630000000000015","city":"Rennes","latitude":"47.42N","longitude":"1.18W"}
{"date":"2011-08-01","average_temperature":"32.001","city":"Reynosa","latitude":"26.52N","longitude":"98.51W"}
{"date":"2011-01-01","average_temperature":"0.718","city":"Rijeka","latitude":"45.81N","longitude":"15.00E"}
{"date":"2011-08-01","average_temperature":"25.301","city":"Rimini","latitude":"44.20N","longitude":"13.42E"}
{"date":"2012-12-01","average_temperature":"25.997","city":"Rio Branco","latitude":"10.45S","longitude":"67.91W"}
{"date":"2012-08-01","average_temperature":"21.319000000000003","city":"Rio Claro","latitude":"21.70S","longitude":"47.60W"}
{"date":"2012-12-01","average_temperature":"-2.4930000000000003","city":"Rizhao","latitude":"36.17N","longitude":"119.34E"}
{"date":"2012-01-01","average_temperature":"-3.6860000000000004","city":"Rockford","latitude":"42.59N","longitude":"89.45W"}
{"date":"2011-09-01","average_temperature":"29.399","city":"Rohtak","latitude":"28.13N","longitude":"77.27E"}
{"date":"2013-05-01","average_temperature":"23.737","city":"Rondonópolis","latitude":"16.87S","longitude":"55.26W"}
{"date":"2011-12-01","average_temperature":"1.8869999999999998","city":"Rostov Na Donu","latitude":"47.42N","longitude":"39.08E"}
{"date":"2010-07-01","average_temperature":"27.601","city":"Ruian","latitude":"28.13N","longitude":"120.91E"}
{"date":"2012-04-01","average_temperature":"22.998","city":"Ruiru","latitude":"0.80S","longitude":"37.77E"}
{"date":"2011-05-01","average_temperature":"23.752","city":"São João De Meriti","latitude":"23.31S","longitude":"42.82W"}
{"date":"2012-01-01","average_temperature":"25.081","city":"São João De Meriti","latitude":"23.31S","longitude":"42.82W"}
{"date":"2012-01-01","average_temperature":"3.013","city":"Saarbrücken","latitude":"49.03N","longitude":"7.35E"}
{"date":"2012-01-01","average_temperature":"11.232000000000001","city":"Sabadell","latitude":"40.99N","longitude":"2.13E"}
{"date":"2010-04-01","average_temperature":"25.555999999999997","city":"Sabha","latitude":"26.52N","longitude":"14.33E"}
{"date":"2010-01-01","average_temperature":"26.336","city":"Saint Denis","latitude":"21.70S","longitude":"56.25E"}
{"date":"2012-05-01","average_temperature":"29.409000000000002","city":"Salalah","latitude":"16.87N","longitude":"53.58E"}
{"date":"2012-09-01","average_temperature":"18.713","city":"Salamanca","latitude":"20.09N","longitude":"100.66W"}
{"date":"2011-04-01","average_temperature":"13.68","city":"Salerno","latitude":"40.99N","longitude":"14.91E"}
{"date":"2012-11-01","average_temperature":"14.585999999999999","city":"Saltillo","latitude":"24.92N","longitude":"101.08W"}
{"date":"2010-02-01","average_temperature":"-13.686","city":"Samara","latitude":"53.84N","longitude":"50.45E"}
{"date":"2011-04-01","average_temperature":"28.758000000000006","city":"Sambhal","latitude":"28.13N","longitude":"79.09E"}
{"date":"2011-08-01","average_temperature":"32.166","city":"San Antonio","latitude":"29.74N","longitude":"97.85W"}
{"date":"2010-12-01","average_temperature":"9.349","city":"San Bernardino","latitude":"34.56N","longitude":"116.76W"}
{"date":"2010-05-01","average_temperature":"4.337","city":"San Carlos De Bariloche","latitude":"40.99S","longitude":"70.30W"}
{"date":"2010-11-01","average_temperature":"25.866999999999997","city":"San Cristóbal","latitude":"18.48N","longitude":"69.30W"}
{"date":"2012-07-01","average_temperature":"21.831","city":"San Cristóbal","latitude":"7.23N","longitude":"72.16W"}
{"date":"2012-02-01","average_temperature":"13.664000000000001","city":"San Diego","latitude":"32.95N","longitude":"117.77W"}
{"date":"2012-05-01","average_temperature":"16.644000000000002","city":"San Diego","latitude":"32.95N","longitude":"117.77W"}
{"date":"2011-05-01","average_temperature":"14.526","city":"San Francisco","latitude":"37.78N","longitude":"122.03W"}
{"date":"2011-08-01","average_temperature":"25.247","city":"San José","latitude":"10.45N","longitude":"84.27W"}
{"date":"2010-03-01","average_temperature":"12.308","city":"San Jose","latitude":"37.78N","longitude":"122.03W"}
{"date":"2013-07-01","average_temperature":"19.155","city":"San Juan Del Río","latitude":"20.09N","longitude":"100.66W"}
{"date":"2011-04-01","average_temperature":"18.776","city":"San Luis","latitude":"32.95S","longitude":"66.06W"}
{"date":"2010-11-01","average_temperature":"16.163","city":"San Luis Río Colorado","latitude":"32.95N","longitude":"113.94W"}
{"date":"2010-12-01","average_temperature":"25.881","city":"San Pablo","latitude":"13.66N","longitude":"121.38E"}
{"date":"2013-03-01","average_temperature":"23.75","city":"San Pedro Sula","latitude":"15.27N","longitude":"87.50W"}
{"date":"2011-10-01","average_temperature":"19.448","city":"Sanming","latitude":"26.52N","longitude":"118.21E"}
{"date":"2010-02-01","average_temperature":"26.154","city":"Santa Ana","latitude":"13.66N","longitude":"90.00W"}
{"date":"2011-05-01","average_temperature":"28.217","city":"Santa Catarina","latitude":"26.52N","longitude":"100.30W"}
{"date":"2011-06-01","average_temperature":"19.339000000000002","city":"Santa Clarita","latitude":"34.56N","longitude":"118.70W"}
{"date":"2012-05-01","average_temperature":"14.85","city":"Santander","latitude":"44.20N","longitude":"4.47W"}
{"date":"2010-11-01","average_temperature":"24.359","city":"Santiago Del Estero","latitude":"28.13S","longitude":"64.55W"}
{"date":"2012-03-01","average_temperature":"22.706999999999997","city":"Santos","latitude":"23.31S","longitude":"46.31W"}
{"date":"2012-06-01","average_temperature":"20.647","city":"Sarajevo","latitude":"44.20N","longitude":"17.89E"}
{"date":"2010-04-01","average_temperature":"7.0310000000000015","city":"Saratov","latitude":"52.24N","longitude":"47.30E"}
{"date":"2012-03-01","average_temperature":"7.7379999999999995","city":"Sari","latitude":"36.17N","longitude":"53.70E"}
{"date":"2012-02-01","average_temperature":"14.882","city":"Savannah","latitude":"31.35N","longitude":"81.05W"}
{"date":"2013-04-01","average_temperature":"27.642","city":"Sawangan","latitude":"5.63S","longitude":"106.55E"}
{"date":"2012-02-01","average_temperature":"13.139","city":"Scottsdale","latitude":"32.95N","longitude":"112.02W"}
{"date":"2013-07-01","average_temperature":"29.103","city":"Selam","latitude":"12.05N","longitude":"78.90E"}
{"date":"2013-02-01","average_temperature":"26.851999999999997","city":"Seremban","latitude":"2.41N","longitude":"102.05E"}
{"date":"2012-12-01","average_temperature":"-9.09","city":"Serpukhov","latitude":"55.45N","longitude":"36.85E"}
{"date":"2010-03-01","average_temperature":"23.976","city":"Sete Lagoas","latitude":"20.09S","longitude":"44.36W"}
{"date":"2011-07-01","average_temperature":"17.267","city":"Severodvinsk","latitude":"65.09N","longitude":"40.21E"}
{"date":"2011-12-01","average_temperature":"27.258000000000003","city":"Shagamu","latitude":"7.23N","longitude":"4.05E"}
{"date":"2012-09-01","average_temperature":"18.658","city":"Shakhty","latitude":"47.42N","longitude":"39.08E"}
{"date":"2013-06-01","average_temperature":"28.005","city":"Shenzhen","latitude":"23.31N","longitude":"114.47E"}
{"date":"2012-09-01","average_temperature":"14.417","city":"Shihezi","latitude":"44.20N","longitude":"84.97E"}
{"date":"2012-10-01","average_temperature":"4.677","city":"Shihezi","latitude":"44.20N","longitude":"84.97E"}
{"date":"2012-10-01","average_temperature":"23.761","city":"Shilong","latitude":"23.31N","longitude":"114.47E"}
{"date":"2011-05-01","average_temperature":"23.331","city":"Shinyanga","latitude":"4.02S","longitude":"32.95E"}
{"date":"2013-01-01","average_temperature":"2.4019999999999997","city":"Shiyan","latitude":"32.95N","longitude":"110.11E"}
{"date":"2013-08-01","average_temperature":"27.475","city":"Shiyan","latitude":"32.95N","longitude":"110.11E"}
{"date":"2011-12-01","average_temperature":"0.625","city":"Sibiu","latitude":"45.81N","longitude":"24.23E"}
{"date":"2011-02-01","average_temperature":"26.805999999999997","city":"Sidoarjo","latitude":"7.23S","longitude":"112.70E"}
{"date":"2010-04-01","average_temperature":"25.421999999999997","city":"Silchar","latitude":"24.92N","longitude":"92.22E"}
{"date":"2010-04-01","average_temperature":"11.495999999999999","city":"Sioux Falls","latitude":"44.20N","longitude":"96.15W"}
{"date":"2011-12-01","average_temperature":"16.427000000000003","city":"Siwan","latitude":"26.52N","longitude":"84.18E"}
{"date":"2013-08-01","average_temperature":"26.364","city":"Soka","latitude":"36.17N","longitude":"139.23E"}
{"date":"2011-12-01","average_temperature":"26.541","city":"Soledad","latitude":"10.45N","longitude":"74.45W"}
{"date":"2010-08-01","average_temperature":"24.951","city":"Soubré","latitude":"5.63N","longitude":"6.46W"}
{"date":"2012-12-01","average_temperature":"23.805999999999997","city":"Srikakulam","latitude":"18.48N","longitude":"84.51E"}
{"date":"2012-07-01","average_temperature":"13.97","city":"Stavanger","latitude":"58.66N","longitude":"6.15E"}
{"date":"2010-08-01","average_temperature":"23.000999999999998","city":"Stavropol","latitude":"44.20N","longitude":"42.48E"}
{"date":"2012-01-01","average_temperature":"9.993","city":"Stockton","latitude":"37.78N","longitude":"122.03W"}
{"date":"2011-01-01","average_temperature":"0.8660000000000001","city":"Stuttgart","latitude":"49.03N","longitude":"9.80E"}
{"date":"2011-09-01","average_temperature":"12.587","city":"Sucre","latitude":"18.48S","longitude":"65.92W"}
{"date":"2013-08-01","average_temperature":"18.027","city":"Sudbury","latitude":"45.81N","longitude":"81.92W"}
{"date":"2012-01-01","average_temperature":"6.441","city":"Suining","latitude":"29.74N","longitude":"105.23E"}
{"date":"2013-03-01","average_temperature":"26.525","city":"Sullana","latitude":"5.63S","longitude":"80.72W"}
{"date":"2010-04-01","average_temperature":"27.451999999999998","city":"Surabaya","latitude":"7.23S","longitude":"112.70E"}
{"date":"2010-01-01","average_temperature":"21.461","city":"Surat","latitude":"21.70N","longitude":"73.56E"}
{"date":"2013-03-01","average_temperature":"27.921999999999997","city":"Surat","latitude":"21.70N","longitude":"73.56E"}
{"date":"2010-03-01","average_temperature":"23.345","city":"Suzano","latitude":"23.31S","longitude":"46.31W"}
{"date":"2012-03-01","average_temperature":"8.952","city":"Swansea","latitude":"52.24N","longitude":"5.26W"}
{"date":"2012-03-01","average_temperature":"8.325","city":"Szeged","latitude":"45.81N","longitude":"19.62E"}
{"date":"2011-03-01","average_temperature":"14.164000000000001","city":"Tétouan","latitude":"36.17N","longitude":"5.97W"}
{"date":"2010-06-01","average_temperature":"29.189","city":"Türkmenabat","latitude":"39.38N","longitude":"64.51E"}
{"date":"2012-04-01","average_temperature":"11.355","city":"Tachikawa","latitude":"36.17N","longitude":"139.23E"}
{"date":"2011-07-01","average_temperature":"26.094","city":"Tagum","latitude":"7.23N","longitude":"125.68E"}
{"date":"2011-09-01","average_temperature":"26.790000000000006","city":"Taichung","latitude":"24.92N","longitude":"120.59E"}
{"date":"2012-12-01","average_temperature":"16.13","city":"Taichung","latitude":"24.92N","longitude":"120.59E"}
{"date":"2010-01-01","average_temperature":"17.694999999999997","city":"Taipei","latitude":"24.92N","longitude":"122.36E"}
{"date":"2011-03-01","average_temperature":"26.996","city":"Taiping","latitude":"4.02N","longitude":"100.45E"}
{"date":"2013-02-01","average_temperature":"-3.2429999999999994","city":"Taiyuan","latitude":"37.78N","longitude":"111.86E"}
{"date":"2010-08-01","average_temperature":"27.546999999999997","city":"Takaoka","latitude":"36.17N","longitude":"137.24E"}
{"date":"2011-02-01","average_temperature":"18.374000000000002","city":"Talca","latitude":"36.17S","longitude":"71.60W"}
{"date":"2012-12-01","average_temperature":"17.105999999999998","city":"Talca","latitude":"36.17S","longitude":"71.60W"}
{"date":"2010-11-01","average_temperature":"27.24","city":"Taman","latitude":"7.23S","longitude":"109.46E"}
{"date":"2012-05-01","average_temperature":"27.680000000000003","city":"Taman","latitude":"7.23S","longitude":"112.70E"}
{"date":"2013-05-01","average_temperature":"21.542","city":"Tangshan","latitude":"37.78N","longitude":"113.90E"}
{"date":"2010-11-01","average_temperature":"6.49","city":"Tarnow","latitude":"50.63N","longitude":"21.55E"}
{"date":"2010-03-01","average_temperature":"25.797","city":"Teófilo Otoni","latitude":"18.48S","longitude":"42.25W"}
{"date":"2011-11-01","average_temperature":"20.318","city":"Thanesar","latitude":"29.74N","longitude":"77.54E"}
{"date":"2010-03-01","average_temperature":"29.916999999999998","city":"Thanyaburi","latitude":"13.66N","longitude":"101.56E"}
{"date":"2010-12-01","average_temperature":"26.365","city":"Thanyaburi","latitude":"13.66N","longitude":"101.56E"}
{"date":"2011-10-01","average_temperature":"27.809","city":"Thaton","latitude":"16.87N","longitude":"97.12E"}
{"date":"2011-03-01","average_temperature":"11.985","city":"Thousand Oaks","latitude":"34.56N","longitude":"118.70W"}
{"date":"2010-12-01","average_temperature":"26.642","city":"Thrissur","latitude":"10.45N","longitude":"76.09E"}
{"date":"2011-07-01","average_temperature":"24.486","city":"Tieling","latitude":"42.59N","longitude":"124.36E"}
{"date":"2012-11-01","average_temperature":"25.164","city":"Tiruppur","latitude":"10.45N","longitude":"77.73E"}
{"date":"2011-06-01","average_temperature":"27.699","city":"Toledo","latitude":"10.45N","longitude":"123.55E"}
{"date":"2012-01-01","average_temperature":"-5.91","city":"Tomakomai","latitude":"42.59N","longitude":"141.82E"}
{"date":"2012-09-01","average_temperature":"22.444000000000003","city":"Tongling","latitude":"31.35N","longitude":"118.74E"}
{"date":"2011-06-01","average_temperature":"19.339000000000002","city":"Torrance","latitude":"34.56N","longitude":"118.70W"}
{"date":"2013-06-01","average_temperature":"17.844","city":"Trabzon","latitude":"40.99N","longitude":"40.47E"}
{"date":"2012-08-01","average_temperature":"21.865","city":"Trento","latitude":"45.81N","longitude":"10.38E"}
{"date":"2013-03-01","average_temperature":"2.672","city":"Trier","latitude":"49.03N","longitude":"7.35E"}
{"date":"2013-03-01","average_temperature":"15.65","city":"Tulancingo","latitude":"20.09N","longitude":"98.96W"}
{"date":"2012-08-01","average_temperature":"21.393","city":"Tumbes","latitude":"4.02S","longitude":"81.16W"}
{"date":"2013-06-01","average_temperature":"20.137","city":"Tunja","latitude":"5.63N","longitude":"72.65W"}
{"date":"2013-06-01","average_temperature":"20.596","city":"Turhal","latitude":"40.99N","longitude":"36.21E"}
{"date":"2012-04-01","average_temperature":"3.5860000000000003","city":"Turku","latitude":"60.27N","longitude":"22.70E"}
{"date":"2011-04-01","average_temperature":"27.513","city":"Tuxtla Gutiérrez","latitude":"16.87N","longitude":"93.77W"}
{"date":"2012-04-01","average_temperature":"23.502","city":"Uberlândia","latitude":"18.48S","longitude":"49.01W"}
{"date":"2010-07-01","average_temperature":"24.019000000000002","city":"Udupi","latitude":"13.66N","longitude":"75.14E"}
{"date":"2012-03-01","average_temperature":"8.296","city":"Uji","latitude":"34.56N","longitude":"136.22E"}
{"date":"2010-06-01","average_temperature":"32.573","city":"Ujjain","latitude":"23.31N","longitude":"76.02E"}
{"date":"2012-10-01","average_temperature":"28.689","city":"Ulhasnagar","latitude":"18.48N","longitude":"72.68E"}
{"date":"2012-08-01","average_temperature":"30.033","city":"Umm Durman","latitude":"15.27N","longitude":"32.50E"}
{"date":"2010-06-01","average_temperature":"27.179000000000002","city":"Urfa","latitude":"37.78N","longitude":"38.64E"}
{"date":"2011-08-01","average_temperature":"30.418000000000003","city":"Urfa","latitude":"37.78N","longitude":"38.64E"}
{"date":"2010-09-01","average_temperature":"25.383000000000003","city":"Uromi","latitude":"7.23N","longitude":"5.68E"}
{"date":"2011-12-01","average_temperature":"26.515","city":"Uromi","latitude":"7.23N","longitude":"5.68E"}
{"date":"2012-05-01","average_temperature":"23.456999999999997","city":"Uruapan","latitude":"20.09N","longitude":"102.37W"}
{"date":"2012-01-01","average_temperature":"-0.129","city":"Usak","latitude":"39.38N","longitude":"29.13E"}
{"date":"2010-01-01","average_temperature":"-14.698","city":"Velikie Luki","latitude":"57.05N","longitude":"30.98E"}
{"date":"2011-02-01","average_temperature":"22.994","city":"Veraval","latitude":"21.70N","longitude":"70.10E"}
{"date":"2012-05-01","average_temperature":"14.825","city":"Verona","latitude":"45.81N","longitude":"10.38E"}
{"date":"2012-03-01","average_temperature":"6.316","city":"Vienna","latitude":"49.03N","longitude":"17.14E"}
{"date":"2012-09-01","average_temperature":"14.515999999999998","city":"Villeurbanne","latitude":"45.81N","longitude":"5.77E"}
{"date":"2010-06-01","average_temperature":"29.046999999999997","city":"Virar","latitude":"20.09N","longitude":"73.36E"}
{"date":"2013-07-01","average_temperature":"26.139","city":"Visakhapatnam","latitude":"18.48N","longitude":"82.82E"}
{"date":"2012-07-01","average_temperature":"19.885","city":"Vitória Da Conquista","latitude":"15.27S","longitude":"40.83W"}
{"date":"2011-01-01","average_temperature":"4.779","city":"Vitoria","latitude":"42.59N","longitude":"2.18W"}
{"date":"2010-01-01","average_temperature":"-1.7590000000000001","city":"Vladikavkaz","latitude":"42.59N","longitude":"43.64E"}
{"date":"2011-06-01","average_temperature":"22.266","city":"Volgograd","latitude":"49.03N","longitude":"44.08E"}
{"date":"2012-11-01","average_temperature":"-0.7979999999999999","city":"Vologda","latitude":"58.66N","longitude":"40.00E"}
{"date":"2012-06-01","average_temperature":"29.055","city":"Vung Tau","latitude":"10.45N","longitude":"107.18E"}
{"date":"2011-04-01","average_temperature":"18.117","city":"Wahran","latitude":"36.17N","longitude":"0.00W"}
{"date":"2013-09-01","city":"Wahran","latitude":"36.17N","longitude":"0.00W"}
{"date":"2013-05-01","average_temperature":"10.489999999999998","city":"Walsall","latitude":"52.24N","longitude":"2.63W"}
{"date":"2012-02-01","average_temperature":"25.362","city":"Weru","latitude":"7.23S","longitude":"107.84E"}
{"date":"2010-11-01","average_temperature":"4.738","city":"Windsor","latitude":"42.59N","longitude":"82.91W"}
{"date":"2011-08-01","average_temperature":"26.003","city":"Winston Salem","latitude":"36.17N","longitude":"79.56W"}
{"date":"2013-09-01","city":"Witbank","latitude":"26.52S","longitude":"28.66E"}
{"date":"2012-04-01","average_temperature":"8.753","city":"Worcester","latitude":"42.59N","longitude":"72.00W"}
{"date":"2012-03-01","average_temperature":"10.557","city":"Wuhan","latitude":"29.74N","longitude":"114.46E"}
{"date":"2011-04-01","average_temperature":"13.164000000000001","city":"Xichang","latitude":"28.13N","longitude":"102.73E"}
{"date":"2011-09-01","average_temperature":"15.822000000000001","city":"Xichang","latitude":"28.13N","longitude":"102.73E"}
{"date":"2010-11-01","average_temperature":"13.654000000000002","city":"Xico","latitude":"20.09N","longitude":"98.96W"}
{"date":"2011-08-01","average_temperature":"21.814","city":"Xinxiang","latitude":"36.17N","longitude":"113.37E"}
{"date":"2012-12-01","average_temperature":"-4.506","city":"Xinxiang","latitude":"36.17N","longitude":"113.37E"}
{"date":"2010-05-01","average_temperature":"21.344","city":"Xuanzhou","latitude":"31.35N","longitude":"118.74E"}
{"date":"2011-08-01","average_temperature":"27.342","city":"Xuanzhou","latitude":"31.35N","longitude":"118.74E"}
{"date":"2011-03-01","average_temperature":"14.913999999999998","city":"Yüanlin","latitude":"24.92N","longitude":"120.59E"}
{"date":"2010-03-01","average_temperature":"24.704","city":"Yamunanagar","latitude":"29.74N","longitude":"77.54E"}
{"date":"2012-09-01","average_temperature":"22.18","city":"Yancheng","latitude":"32.95N","longitude":"119.68E"}
{"date":"2013-07-01","average_temperature":"26.915000000000006","city":"Yao","latitude":"34.56N","longitude":"136.22E"}
{"date":"2011-11-01","average_temperature":"16.483999999999998","city":"Yuyao","latitude":"29.74N","longitude":"121.85E"}
{"date":"2013-02-01","average_temperature":"1.5589999999999995","city":"Zaanstad","latitude":"52.24N","longitude":"5.26E"}
{"date":"2011-04-01","average_temperature":"10.872","city":"Zabrze","latitude":"50.63N","longitude":"19.01E"}
{"date":"2011-03-01","average_temperature":"17.253999999999998","city":"Zacatecas","latitude":"23.31N","longitude":"102.23W"}
{"date":"2012-03-01","average_temperature":"11.946","city":"Zaragoza","latitude":"40.99N","longitude":"0.00W"}
{"date":"2013-07-01","average_temperature":"18.136000000000006","city":"Zelenograd","latitude":"55.45N","longitude":"36.85E"}
{"date":"2010-09-01","average_temperature":"14.443","city":"Zenica","latitude":"44.20N","longitude":"17.89E"}
{"date":"2011-07-01","average_temperature":"24.592","city":"Zhaocheng","latitude":"37.78N","longitude":"120.00E"}
{"date":"2011-04-01","average_temperature":"7.314","city":"Zhaodong","latitude":"45.81N","longitude":"125.77E"}
{"date":"2013-06-01","average_temperature":"24.749000000000002","city":"Zhoucun","latitude":"36.17N","longitude":"117.35E"}
{"date":"2011-10-01","average_temperature":"16.351","city":"Zhoukou","latitude":"32.95N","longitude":"113.94E"}
{"date":"2013-01-01","average_temperature":"-2.838","city":"Zhucheng","latitude":"36.17N","longitude":"119.34E"}
{"date":"2012-01-01","average_temperature":"0.8540000000000001","city":"Zhumadian","latitude":"32.95N","longitude":"113.94E"}
{"date":"2010-04-01","average_temperature":"11.097000000000001","city":"Zhuozhou","latitude":"39.38N","longitude":"116.53E"}
{"date":"2012-09-01","average_temperature":"10.508","city":"Zlatoust","latitude":"55.45N","longitude":"59.53E"}
{"date":"2013-09-01","city":"Zonguldak","latitude":"40.99N","longitude":"31.95E"}
