{"date":"2010-05-01","average_temperature":"14.82","city":"A Coruña","latitude":"42.59N","longitude":"8.73W"}
{"date":"2011-06-01","average_temperature":"18.447000000000006","city":"Abakan","latitude":"53.84N","longitude":"91.36E"}
{"date":"2011-07-01","average_temperature":"30.541999999999998","city":"Abha","latitude":"18.48N","longitude":"42.25E"}
{"date":"2010-11-01","average_temperature":"11.966","city":"Abilene","latitude":"32.95N","longitude":"100.53W"}
{"date":"2010-05-01","average_temperature":"29.368","city":"Aden","latitude":"13.66N","longitude":"45.41E"}
{"date":"2012-06-01","average_temperature":"33.238","city":"Adilabad","latitude":"20.09N","longitude":"78.48E"}
{"date":"2012-06-01","average_temperature":"31.043000000000003","city":"Adoni","latitude":"15.27N","longitude":"77.50E"}
{"date":"2012-11-01","average_temperature":"20.522","city":"Agra","latitude":"26.52N","longitude":"78.81E"}
{"date":"2013-09-01","city":"Agra","latitude":"26.52N","longitude":"78.81E"}
{"date":"2010-09-01","average_temperature":"18.453000000000007","city":"Aksu","latitude":"40.99N","longitude":"80.95E"}
{"date":"2013-08-01","average_temperature":"27.513","city":"Akyab","latitude":"20.09N","longitude":"92.13E"}
{"date":"2011-09-01","average_temperature":"26.570999999999998","city":"Alappuzha","latitude":"8.84N","longitude":"77.03E"}
{"date":"2011-03-01","average_temperature":"19.733","city":"Alberton","latitude":"26.52S","longitude":"28.66E"}
{"date":"2010-09-01","average_temperature":"18.323","city":"Alcalá De Henares","latitude":"40.99N","longitude":"4.26W"}
{"date":"2012-01-01","average_temperature":"3.753","city":"Alcobendas","latitude":"40.99N","longitude":"4.26W"}
{"date":"2010-06-01","average_temperature":"23.923","city":"Algiers","latitude":"36.17N","longitude":"3.98E"}
{"date":"2010-10-01","average_temperature":"26.660999999999998","city":"Allahabad","latitude":"24.92N","longitude":"81.58E"}
{"date":"2013-06-01","average_temperature":"19.368","city":"Almetyevsk","latitude":"55.45N","longitude":"51.02E"}
{"date":"2013-05-01","average_temperature":"16.509","city":"Amadora","latitude":"39.38N","longitude":"8.32W"}
{"date":"2012-11-01","average_temperature":"27.122","city":"Amaigbo","latitude":"5.63N","longitude":"8.07E"}
{"date":"2010-08-01","average_temperature":"27.238000000000003","city":"Amarillo","latitude":"34.56N","longitude":"101.19W"}
{"date":"2012-09-01","average_temperature":"29.064","city":"Ambur","latitude":"12.05N","longitude":"78.90E"}
{"date":"2012-10-01","average_temperature":"23.541","city":"Americana","latitude":"23.31S","longitude":"48.06W"}
{"date":"2013-04-01","average_temperature":"9.559","city":"Amiens","latitude":"49.03N","longitude":"2.45E"}
{"date":"2010-11-01","average_temperature":"5.385","city":"Amsterdam","latitude":"52.24N","longitude":"5.26E"}
{"date":"2011-03-01","average_temperature":"27.092","city":"Anaco","latitude":"8.84N","longitude":"64.05W"}
{"date":"2013-04-01","average_temperature":"15.380999999999998","city":"Anaheim","latitude":"32.95N","longitude":"117.77W"}
{"date":"2010-12-01","average_temperature":"20.183","city":"Anand","latitude":"23.31N","longitude":"72.52E"}
{"date":"2012-07-01","average_temperature":"24.66","city":"Andijon","latitude":"40.99N","longitude":"72.43E"}
{"date":"2012-11-01","average_temperature":"3.5810000000000004","city":"Andijon","latitude":"40.99N","longitude":"72.43E"}
{"date":"2012-12-01","average_temperature":"-3.478","city":"Angren","latitude":"40.99N","longitude":"70.30E"}
{"date":"2013-09-01","city":"Anjo","latitude":"34.56N","longitude":"136.22E"}
{"date":"2011-12-01","average_temperature":"1.405","city":"Ankara","latitude":"39.38N","longitude":"33.29E"}
{"date":"2011-02-01","average_temperature":"-4.363","city":"Ann Arbor","latitude":"42.59N","longitude":"82.91W"}
{"date":"2010-09-01","average_temperature":"19.822","city":"Anshun","latitude":"26.52N","longitude":"105.67E"}
{"date":"2011-08-01","average_temperature":"22.861","city":"Anshun","latitude":"26.52N","longitude":"105.67E"}
{"date":"2011-06-01","average_temperature":"27.416","city":"Antipolo","latitude":"15.27N","longitude":"120.83E"}
{"date":"2010-12-01","average_temperature":"23.37","city":"Antsirabe","latitude":"20.09S","longitude":"47.77E"}
{"date":"2011-04-01","average_temperature":"29.569000000000003","city":"Ara","latitude":"24.92N","longitude":"85.12E"}
{"date":"2011-08-01","average_temperature":"21.886","city":"Araras","latitude":"21.70S","longitude":"47.60W"}
{"date":"2010-02-01","average_temperature":"4.9190000000000005","city":"Ardabil","latitude":"37.78N","longitude":"48.81E"}
{"date":"2011-09-01","average_temperature":"25.772","city":"Arjawinangun","latitude":"7.23S","longitude":"107.84E"}
{"date":"2013-09-01","city":"Armavir","latitude":"45.81N","longitude":"40.38E"}
{"date":"2013-03-01","average_temperature":"22.881999999999998","city":"Armenia","latitude":"4.02N","longitude":"76.34W"}
{"date":"2010-12-01","average_temperature":"19.296","city":"Aswan","latitude":"23.31N","longitude":"32.33E"}
{"date":"2010-02-01","average_temperature":"12.865","city":"Athens","latitude":"37.78N","longitude":"24.41E"}
{"date":"2011-11-01","average_temperature":"-3.487","city":"Atyrau","latitude":"47.42N","longitude":"50.92E"}
{"date":"2012-03-01","average_temperature":"27.079","city":"Aurangabad","latitude":"20.09N","longitude":"75.07E"}
{"date":"2010-05-01","average_temperature":"33.116","city":"Azamgarh","latitude":"26.52N","longitude":"82.39E"}
{"date":"2010-09-01","average_temperature":"27.36","city":"Bacoor","latitude":"15.27N","longitude":"120.83E"}
{"date":"2012-11-01","average_temperature":"27.191","city":"Bacoor","latitude":"15.27N","longitude":"120.83E"}
{"date":"2010-06-01","average_temperature":"23.256","city":"Badajoz","latitude":"39.38N","longitude":"6.24W"}
{"date":"2010-11-01","average_temperature":"13.656","city":"Badalona","latitude":"40.99N","longitude":"2.13E"}
{"date":"2011-09-01","average_temperature":"23.987","city":"Badalona","latitude":"40.99N","longitude":"2.13E"}
{"date":"2013-05-01","average_temperature":"15.585999999999999","city":"Badaojiang","latitude":"42.59N","longitude":"126.55E"}
{"date":"2010-12-01","average_temperature":"17.039","city":"Bagaha","latitude":"26.52N","longitude":"84.18E"}
{"date":"2010-04-01","average_temperature":"13.379","city":"Baglan","latitude":"36.17N","longitude":"69.61E"}
{"date":"2013-07-01","average_temperature":"24.906","city":"Baglan","latitude":"36.17N","longitude":"69.61E"}
{"date":"2010-03-01","average_temperature":"26.346","city":"Baguio","latitude":"16.87N","longitude":"120.56E"}
{"date":"2010-10-01","average_temperature":"28.071","city":"Baidyabati","latitude":"23.31N","longitude":"88.25E"}
{"date":"2013-04-01","average_temperature":"11.154000000000002","city":"Baku","latitude":"40.99N","longitude":"48.99E"}
{"date":"2011-04-01","average_temperature":"27.843000000000004","city":"Baliuag","latitude":"15.27N","longitude":"120.83E"}
{"date":"2012-03-01","average_temperature":"27.883000000000003","city":"Baliuag","latitude":"15.27N","longitude":"120.83E"}
{"date":"2013-09-01","city":"Baliuag","latitude":"15.27N","longitude":"120.83E"}
{"date":"2013-05-01","average_temperature":"18.121","city":"Balti","latitude":"47.42N","longitude":"27.24E"}
{"date":"2010-11-01","average_temperature":"23.988000000000003","city":"Bamenda","latitude":"5.63N","longitude":"9.69E"}
{"date":"2011-09-01","average_temperature":"26.910999999999998","city":"Bandar Penggaram","latitude":"2.41N","longitude":"103.66E"}
{"date":"2011-07-01","average_temperature":"28.721999999999998","city":"Bankura","latitude":"23.31N","longitude":"86.50E"}
{"date":"2012-09-01","average_temperature":"20.463","city":"Barbacena","latitude":"21.70S","longitude":"44.13W"}
{"date":"2011-04-01","average_temperature":"14.706","city":"Bari","latitude":"40.99N","longitude":"17.04E"}
{"date":"2013-02-01","average_temperature":"25.429","city":"Barsi","latitude":"18.48N","longitude":"76.06E"}
{"date":"2013-03-01","average_temperature":"28.986","city":"Barsi","latitude":"18.48N","longitude":"76.06E"}
{"date":"2012-10-01","average_temperature":"24.596","city":"Bata","latitude":"2.41N","longitude":"10.45E"}
{"date":"2013-05-01","average_temperature":"25.551","city":"Bata","latitude":"2.41N","longitude":"10.45E"}
{"date":"2011-10-01","average_temperature":"25.993","city":"Baturaja","latitude":"4.02S","longitude":"103.66E"}
{"date":"2011-08-01","average_temperature":"26.338","city":"Bauchi","latitude":"10.45N","longitude":"10.64E"}
{"date":"2011-10-01","average_temperature":"27.496","city":"Beawar","latitude":"26.52N","longitude":"73.43E"}
{"date":"2013-07-01","average_temperature":"25.096","city":"Beipiao","latitude":"40.99N","longitude":"121.42E"}
{"date":"2012-12-01","average_temperature":"27.566999999999997","city":"Belém","latitude":"0.80S","longitude":"49.02W"}
{"date":"2011-09-01","average_temperature":"25.618000000000002","city":"Belgaum","latitude":"15.27N","longitude":"74.17E"}
{"date":"2013-05-01","average_temperature":"33.602000000000004","city":"Bellary","latitude":"15.27N","longitude":"77.50E"}
{"date":"2010-01-01","average_temperature":"20.747","city":"Bello","latitude":"5.63N","longitude":"75.87W"}
{"date":"2013-02-01","average_temperature":"13.161","city":"Bene Beraq","latitude":"32.95N","longitude":"35.43E"}
{"date":"2010-07-01","average_temperature":"24.423000000000002","city":"Benxi","latitude":"40.99N","longitude":"123.55E"}
{"date":"2010-01-01","average_temperature":"-2.072","city":"Bergamo","latitude":"45.81N","longitude":"10.38E"}
{"date":"2011-09-01","average_temperature":"20.54","city":"Berkeley","latitude":"37.78N","longitude":"122.03W"}
{"date":"2013-01-01","average_temperature":"8.32","city":"Berkeley","latitude":"37.78N","longitude":"122.03W"}
{"date":"2013-07-01","average_temperature":"20.656999999999996","city":"Berkeley","latitude":"37.78N","longitude":"122.03W"}
{"date":"2012-04-01","average_temperature":"28.877","city":"Bhadravati","latitude":"13.66N","longitude":"75.14E"}
{"date":"2013-04-01","average_temperature":"29.311999999999998","city":"Bhadravati","latitude":"13.66N","longitude":"75.14E"}
{"date":"2013-07-01","average_temperature":"30.0","city":"Bhadreswar","latitude":"23.31N","longitude":"88.25E"}
{"date":"2010-05-01","average_temperature":"27.961","city":"Bhairab Bazar","latitude":"24.92N","longitude":"90.44E"}
{"date":"2011-02-01","average_temperature":"22.971","city":"Bhilai","latitude":"21.70N","longitude":"82.21E"}
{"date":"2013-03-01","average_temperature":"27.836","city":"Bhilai","latitude":"21.70N","longitude":"82.21E"}
{"date":"2013-02-01","average_temperature":"20.899","city":"Bhopal","latitude":"23.31N","longitude":"77.77E"}
{"date":"2013-07-01","average_temperature":"28.165","city":"Bhubaneswar","latitude":"20.09N","longitude":"85.31E"}
{"date":"2010-09-01","average_temperature":"27.043000000000003","city":"Bhusawal","latitude":"21.70N","longitude":"75.29E"}
{"date":"2013-05-01","average_temperature":"15.685","city":"Bialystok","latitude":"53.84N","longitude":"23.18E"}
{"date":"2010-10-01","average_temperature":"26.689","city":"Bidar","latitude":"18.48N","longitude":"77.75E"}
{"date":"2012-10-01","average_temperature":"26.946","city":"Binangonan","latitude":"13.66N","longitude":"121.38E"}
{"date":"2012-01-01","average_temperature":"5.058","city":"Birjand","latitude":"32.95N","longitude":"58.40E"}
{"date":"2012-02-01","average_temperature":"5.43","city":"Birjand","latitude":"32.95N","longitude":"58.40E"}
{"date":"2012-01-01","average_temperature":"23.475","city":"Blumenau","latitude":"26.52S","longitude":"48.36W"}
{"date":"2010-04-01","average_temperature":"15.794","city":"Boksburg","latitude":"26.52S","longitude":"28.66E"}
{"date":"2012-06-01","average_temperature":"9.224","city":"Boksburg","latitude":"26.52S","longitude":"28.66E"}
{"date":"2011-04-01","average_temperature":"12.726","city":"Bonn","latitude":"50.63N","longitude":"6.34E"}
{"date":"2010-07-01","average_temperature":"27.660999999999998","city":"Boshan","latitude":"36.17N","longitude":"117.35E"}
{"date":"2013-06-01","average_temperature":"19.313","city":"Boston","latitude":"42.59N","longitude":"72.00W"}
{"date":"2010-12-01","average_temperature":"23.653000000000002","city":"Botucatu","latitude":"23.31S","longitude":"48.06W"}
{"date":"2010-09-01","average_temperature":"14.759","city":"Bournemouth","latitude":"50.63N","longitude":"1.27W"}
{"date":"2010-05-01","average_temperature":"10.743","city":"Bradford","latitude":"53.84N","longitude":"1.36W"}
{"date":"2011-10-01","average_temperature":"20.55","city":"Bragança Paulista","latitude":"23.31S","longitude":"46.31W"}
{"date":"2013-01-01","average_temperature":"-2.8200000000000003","city":"Brasov","latitude":"45.81N","longitude":"26.54E"}
{"date":"2012-10-01","average_temperature":"10.713","city":"Bratislava","latitude":"47.42N","longitude":"17.76E"}
{"date":"2012-01-01","average_temperature":"9.982000000000001","city":"Brest","latitude":"49.03N","longitude":"4.90W"}
{"date":"2011-01-01","average_temperature":"23.565","city":"Brisbane","latitude":"28.13S","longitude":"153.64E"}
{"date":"2012-02-01","average_temperature":"-4.5169999999999995","city":"Brno","latitude":"49.03N","longitude":"17.14E"}
{"date":"2013-04-01","average_temperature":"8.943","city":"Brugge","latitude":"50.63N","longitude":"3.80E"}
{"date":"2013-07-01","average_temperature":"29.805999999999997","city":"Budaun","latitude":"28.13N","longitude":"79.09E"}
{"date":"2010-10-01","average_temperature":"26.642000000000003","city":"Bugama","latitude":"4.02N","longitude":"7.23E"}
{"date":"2012-05-01","average_temperature":"29.139","city":"Bulaon","latitude":"15.27N","longitude":"120.83E"}
{"date":"2012-06-01","average_temperature":"21.676","city":"Butembo","latitude":"0.80N","longitude":"29.73E"}
{"date":"2011-06-01","average_temperature":"26.765","city":"Cúa","latitude":"10.45N","longitude":"66.27W"}
{"date":"2010-07-01","average_temperature":"21.32","city":"Cúcuta","latitude":"7.23N","longitude":"72.16W"}
{"date":"2013-01-01","average_temperature":"11.375","city":"Cagliari","latitude":"39.38N","longitude":"8.32E"}
{"date":"2012-10-01","average_temperature":"26.631999999999998","city":"Cainta","latitude":"15.27N","longitude":"120.83E"}
{"date":"2012-12-01","average_temperature":"26.752","city":"Calamba","latitude":"13.66N","longitude":"121.38E"}
{"date":"2011-08-01","average_temperature":"24.906","city":"Cam Ranh","latitude":"12.05N","longitude":"108.49E"}
{"date":"2011-03-01","average_temperature":"27.728","city":"Camaçari","latitude":"12.05S","longitude":"37.81W"}
{"date":"2012-10-01","average_temperature":"26.353","city":"Camaragibe","latitude":"7.23S","longitude":"34.86W"}
{"date":"2010-09-01","average_temperature":"14.188","city":"Cambridge","latitude":"52.24N","longitude":"0.00W"}
{"date":"2013-08-01","average_temperature":"18.215","city":"Campinas","latitude":"23.31S","longitude":"46.31W"}
{"date":"2011-02-01","average_temperature":"25.351999999999997","city":"Campo Grande","latitude":"20.09S","longitude":"54.60W"}
{"date":"2012-01-01","average_temperature":"18.422","city":"Canberra","latitude":"36.17S","longitude":"149.17E"}
{"date":"2012-08-01","average_temperature":"24.513","city":"Cape Coast","latitude":"5.63N","longitude":"1.61W"}
{"date":"2013-06-01","average_temperature":"11.842","city":"Catamarca","latitude":"28.13S","longitude":"66.36W"}
{"date":"2011-09-01","average_temperature":"26.318","city":"Catia La Mar","latitude":"10.45N","longitude":"66.27W"}
{"date":"2011-01-01","average_temperature":"10.703","city":"Chandler","latitude":"32.95N","longitude":"112.02W"}
{"date":"2013-06-01","average_temperature":"31.8","city":"Chandler","latitude":"32.95N","longitude":"112.02W"}
{"date":"2012-11-01","average_temperature":"11.605","city":"Changde","latitude":"28.13N","longitude":"111.82E"}
{"date":"2010-11-01","average_temperature":"1.0410000000000004","city":"Cheboksary","latitude":"55.45N","longitude":"48.19E"}
{"date":"2011-07-01","average_temperature":"15.992","city":"Chelmsford","latitude":"52.24N","longitude":"0.00W"}
{"date":"2010-06-01","average_temperature":"22.041","city":"Chengde","latitude":"40.99N","longitude":"117.16E"}
{"date":"2011-09-01","average_temperature":"29.04","city":"Chetumal","latitude":"18.48N","longitude":"87.89W"}
{"date":"2010-04-01","average_temperature":"29.158","city":"Chinandega","latitude":"12.05N","longitude":"87.12W"}
{"date":"2010-09-01","average_temperature":"16.291999999999998","city":"Chisinau","latitude":"47.42N","longitude":"29.61E"}
{"date":"2011-08-01","average_temperature":"14.387","city":"Chosica","latitude":"12.05S","longitude":"77.26W"}
{"date":"2013-01-01","average_temperature":"15.889000000000001","city":"Chuncheng","latitude":"21.70N","longitude":"111.63E"}
{"date":"2012-01-01","average_temperature":"26.913","city":"Cibinong","latitude":"5.63S","longitude":"106.55E"}
{"date":"2012-03-01","average_temperature":"27.691000000000006","city":"Cibinong","latitude":"5.63S","longitude":"106.55E"}
{"date":"2011-07-01","average_temperature":"24.856","city":"Cicalengka","latitude":"7.23S","longitude":"107.84E"}
{"date":"2013-01-01","average_temperature":"25.076","city":"Cileunyi","latitude":"7.23S","longitude":"107.84E"}
{"date":"2013-07-01","average_temperature":"26.858","city":"Cisarua","latitude":"5.63S","longitude":"106.55E"}
{"date":"2013-01-01","average_temperature":"19.375","city":"Clearwater","latitude":"28.13N","longitude":"82.73W"}
{"date":"2012-09-01","average_temperature":"22.750999999999998","city":"Colatina","latitude":"20.09S","longitude":"40.95W"}
{"date":"2013-08-01","average_temperature":"20.581999999999997","city":"Contagem","latitude":"20.09S","longitude":"44.36W"}
{"date":"2010-05-01","average_temperature":"10.332","city":"Copenhagen","latitude":"55.45N","longitude":"11.34E"}
{"date":"2010-10-01","average_temperature":"28.865","city":"Coro","latitude":"12.05N","longitude":"69.04W"}
{"date":"2013-08-01","average_temperature":"20.076","city":"Corona","latitude":"32.95N","longitude":"117.77W"}
{"date":"2011-08-01","average_temperature":"20.123","city":"Coronel Fabriciano","latitude":"20.09S","longitude":"42.65W"}
{"date":"2011-04-01","average_temperature":"24.09","city":"Corpus Christi","latitude":"28.13N","longitude":"97.27W"}
{"date":"2010-10-01","average_temperature":"15.228","city":"Cuautitlán Izcalli","latitude":"20.09N","longitude":"98.96W"}
{"date":"2013-03-01","average_temperature":"22.48","city":"Cubatão","latitude":"23.31S","longitude":"46.31W"}
{"date":"2012-01-01","average_temperature":"19.099","city":"Cuernavaca","latitude":"18.48N","longitude":"99.72W"}
{"date":"2011-11-01","average_temperature":"15.543","city":"Curico","latitude":"34.56S","longitude":"72.00W"}
{"date":"2012-06-01","average_temperature":"9.951","city":"Cusco","latitude":"13.66S","longitude":"71.83W"}
{"date":"2011-09-01","average_temperature":"25.034000000000002","city":"Da Nang","latitude":"15.27N","longitude":"107.50E"}
{"date":"2013-07-01","average_temperature":"19.987000000000002","city":"Dabrowa Gornicza","latitude":"50.63N","longitude":"19.01E"}
{"date":"2010-03-01","average_temperature":"27.988000000000003","city":"Dadiangas","latitude":"5.63N","longitude":"125.92E"}
{"date":"2012-01-01","average_temperature":"6.529","city":"Dahuk","latitude":"36.17N","longitude":"43.76E"}
{"date":"2012-12-01","average_temperature":"23.464000000000002","city":"Dakar","latitude":"15.27N","longitude":"17.50W"}
{"date":"2012-01-01","average_temperature":"-4.944","city":"Dalian","latitude":"39.38N","longitude":"120.69E"}
{"date":"2013-02-01","average_temperature":"13.161","city":"Damascus","latitude":"32.95N","longitude":"35.43E"}
{"date":"2013-08-01","average_temperature":"27.24","city":"Damascus","latitude":"32.95N","longitude":"35.43E"}
{"date":"2013-09-01","city":"Damascus","latitude":"32.95N","longitude":"35.43E"}
{"date":"2013-06-01","average_temperature":"28.005","city":"Danshui","latitude":"23.31N","longitude":"114.47E"}
{"date":"2010-03-01","average_temperature":"1.5759999999999998","city":"Dawukou","latitude":"39.38N","longitude":"106.13E"}
{"date":"2011-04-01","average_temperature":"29.824","city":"Dehri","latitude":"24.92N","longitude":"83.35E"}
{"date":"2013-05-01","average_temperature":"34.746","city":"Delhi","latitude":"28.13N","longitude":"77.27E"}
{"date":"2010-03-01","average_temperature":"26.143","city":"Delmas","latitude":"18.48N","longitude":"72.68W"}
{"date":"2011-10-01","average_temperature":"14.669","city":"Denizli","latitude":"37.78N","longitude":"28.47E"}
{"date":"2012-08-01","average_temperature":"27.205","city":"Denizli","latitude":"37.78N","longitude":"28.47E"}
{"date":"2010-03-01","average_temperature":"27.899","city":"Depok","latitude":"5.63S","longitude":"106.55E"}
{"date":"2010-08-01","average_temperature":"30.041","city":"Dera Ghazi Khan","latitude":"29.74N","longitude":"70.15E"}
{"date":"2010-10-01","average_temperature":"26.203000000000003","city":"Dera Ghazi Khan","latitude":"29.74N","longitude":"70.15E"}
{"date":"2010-10-01","average_temperature":"13.638","city":"Des Moines","latitude":"40.99N","longitude":"93.73W"}
{"date":"2012-06-01","average_temperature":"21.217","city":"Detroit","latitude":"42.59N","longitude":"82.91W"}
{"date":"2011-06-01","average_temperature":"25.841","city":"Dharan","latitude":"26.52N","longitude":"87.76E"}
{"date":"2010-12-01","average_temperature":"-7.251","city":"Dimitrovgrad","latitude":"53.84N","longitude":"50.45E"}
{"date":"2012-10-01","average_temperature":"25.828000000000007","city":"Dindigul","latitude":"10.45N","longitude":"77.73E"}
{"date":"2011-02-01","average_temperature":"5.9639999999999995","city":"Do Rud","latitude":"32.95N","longitude":"48.83E"}
{"date":"2010-11-01","average_temperature":"18.907","city":"Donghai","latitude":"23.31N","longitude":"116.21E"}
{"date":"2011-05-01","average_temperature":"20.819000000000003","city":"Dongying","latitude":"37.78N","longitude":"117.97E"}
{"date":"2012-11-01","average_temperature":"26.015","city":"Dourados","latitude":"21.70S","longitude":"54.52W"}
{"date":"2011-04-01","average_temperature":"11.614","city":"Dudley","latitude":"52.24N","longitude":"2.63W"}
{"date":"2011-12-01","average_temperature":"26.175","city":"Dumaguete","latitude":"8.84N","longitude":"124.05E"}
{"date":"2012-03-01","average_temperature":"25.978","city":"Dumaguete","latitude":"8.84N","longitude":"124.05E"}
{"date":"2013-09-01","city":"Dunhua","latitude":"42.59N","longitude":"128.73E"}
{"date":"2010-06-01","average_temperature":"18.239","city":"Dushanbe","latitude":"39.38N","longitude":"68.67E"}
{"date":"2013-08-01","average_temperature":"24.232000000000006","city":"East Los Angeles","latitude":"34.56N","longitude":"118.70W"}
{"date":"2012-12-01","average_temperature":"25.979","city":"Edéa","latitude":"4.02N","longitude":"10.45E"}
{"date":"2010-12-01","average_temperature":"-15.06","city":"Edmonton","latitude":"53.84N","longitude":"113.18W"}
{"date":"2013-08-01","average_temperature":"16.713","city":"Edmonton","latitude":"53.84N","longitude":"113.18W"}
{"date":"2012-08-01","average_temperature":"18.588","city":"Eindhoven","latitude":"52.24N","longitude":"5.26E"}
{"date":"2010-05-01","average_temperature":"12.713","city":"Elblag","latitude":"53.84N","longitude":"20.45E"}
{"date":"2013-07-01","average_temperature":"18.987","city":"Elektrostal","latitude":"55.45N","longitude":"39.69E"}
{"date":"2013-01-01","average_temperature":"22.503","city":"Embu","latitude":"23.31S","longitude":"46.31W"}
{"date":"2013-09-01","city":"Encheng","latitude":"21.70N","longitude":"111.63E"}
{"date":"2011-12-01","average_temperature":"0.43","city":"Esfahan","latitude":"32.95N","longitude":"50.74E"}
{"date":"2013-06-01","average_temperature":"22.465999999999998","city":"Esfahan","latitude":"32.95N","longitude":"50.74E"}
{"date":"2012-05-01","average_temperature":"15.602","city":"Eskisehir","latitude":"39.38N","longitude":"31.21E"}
{"date":"2011-09-01","average_temperature":"29.188000000000002","city":"Etah","latitude":"28.13N","longitude":"79.09E"}
{"date":"2011-05-01","average_temperature":"9.514","city":"Eugene","latitude":"44.20N","longitude":"122.98W"}
{"date":"2010-04-01","average_temperature":"30.534000000000002","city":"Faisalabad","latitude":"31.35N","longitude":"73.51E"}
{"date":"2013-07-01","average_temperature":"29.65","city":"Faridpur","latitude":"23.31N","longitude":"90.00E"}
{"date":"2013-04-01","average_temperature":"29.119","city":"Fatehpur","latitude":"26.52N","longitude":"80.60E"}
{"date":"2010-06-01","average_temperature":"22.018","city":"Fengcheng","latitude":"40.99N","longitude":"123.55E"}
{"date":"2010-03-01","average_temperature":"24.482","city":"Firozpur","latitude":"31.35N","longitude":"75.39E"}
{"date":"2012-10-01","average_temperature":"24.886000000000006","city":"Firozpur","latitude":"31.35N","longitude":"75.39E"}
{"date":"2011-09-01","average_temperature":"18.029","city":"Florianópolis","latitude":"28.13S","longitude":"48.18W"}
{"date":"2010-12-01","average_temperature":"-2.787","city":"Focsani","latitude":"45.81N","longitude":"26.54E"}
{"date":"2011-06-01","average_temperature":"16.817","city":"Formosa","latitude":"26.52S","longitude":"57.31W"}
{"date":"2012-05-01","average_temperature":"25.958000000000002","city":"Fort Lauderdale","latitude":"26.52N","longitude":"80.60W"}
{"date":"2011-01-01","average_temperature":"5.417000000000002","city":"Fort Worth","latitude":"32.95N","longitude":"96.70W"}
{"date":"2011-04-01","average_temperature":"20.545","city":"Fort Worth","latitude":"32.95N","longitude":"96.70W"}
{"date":"2011-09-01","average_temperature":"27.398000000000003","city":"Foshan","latitude":"23.31N","longitude":"112.72E"}
{"date":"2012-09-01","average_temperature":"24.333","city":"Franca","latitude":"20.09S","longitude":"47.77W"}
{"date":"2010-11-01","average_temperature":"21.508000000000003","city":"Franco Da Rocha","latitude":"23.31S","longitude":"46.31W"}
{"date":"2011-02-01","average_temperature":"24.412","city":"Franco Da Rocha","latitude":"23.31S","longitude":"46.31W"}
{"date":"2010-09-01","average_temperature":"18.173","city":"Fresnillo","latitude":"23.31N","longitude":"102.23W"}
{"date":"2013-01-01","average_temperature":"11.133","city":"Fresnillo","latitude":"23.31N","longitude":"102.23W"}
{"date":"2011-04-01","average_temperature":"13.655","city":"Fresno","latitude":"36.17N","longitude":"119.34W"}
{"date":"2012-01-01","average_temperature":"6.287000000000001","city":"Fujieda","latitude":"34.56N","longitude":"138.16E"}
{"date":"2010-05-01","average_temperature":"16.781","city":"Fuxin","latitude":"42.59N","longitude":"122.18E"}
{"date":"2010-06-01","average_temperature":"15.01","city":"Göteborg","latitude":"58.66N","longitude":"12.31E"}
{"date":"2011-12-01","average_temperature":"23.627","city":"Gandajika","latitude":"7.23S","longitude":"23.51E"}
{"date":"2012-07-01","average_temperature":"23.838","city":"Gandajika","latitude":"7.23S","longitude":"23.51E"}
{"date":"2012-09-01","average_temperature":"28.087","city":"Gandhinagar","latitude":"23.31N","longitude":"72.52E"}
{"date":"2012-10-01","average_temperature":"25.295","city":"Gangawati","latitude":"15.27N","longitude":"75.83E"}
{"date":"2010-03-01","average_temperature":"28.395","city":"Gazipur","latitude":"23.31N","longitude":"90.00E"}
{"date":"2012-09-01","average_temperature":"14.72","city":"Gdansk","latitude":"53.84N","longitude":"17.73E"}
{"date":"2011-08-01","average_temperature":"18.021","city":"Gera","latitude":"50.63N","longitude":"11.41E"}
{"date":"2013-01-01","average_temperature":"-0.848","city":"Gera","latitude":"50.63N","longitude":"11.41E"}
{"date":"2012-09-01","average_temperature":"26.498","city":"Girón","latitude":"7.23N","longitude":"73.78W"}
{"date":"2011-03-01","average_temperature":"9.36","city":"Giugliano In Campania","latitude":"40.99N","longitude":"14.91E"}
{"date":"2010-02-01","average_temperature":"10.353","city":"Glendale","latitude":"34.56N","longitude":"118.70W"}
{"date":"2010-10-01","average_temperature":"27.029","city":"Gojra","latitude":"31.35N","longitude":"73.51E"}
{"date":"2010-01-01","average_temperature":"9.079","city":"Gonbad E Qabus","latitude":"37.78N","longitude":"54.92E"}
{"date":"2011-01-01","average_temperature":"-19.623","city":"Gongzhuling","latitude":"44.20N","longitude":"125.22E"}
{"date":"2013-01-01","average_temperature":"14.277","city":"Gorakhpur","latitude":"26.52N","longitude":"84.18E"}
{"date":"2013-09-01","city":"Gorgan","latitude":"36.17N","longitude":"53.70E"}
{"date":"2012-11-01","average_temperature":"18.974","city":"Guadalupe","latitude":"26.52N","longitude":"100.30W"}
{"date":"2011-05-01","average_temperature":"19.191","city":"Guangyuan","latitude":"32.95N","longitude":"106.28E"}
{"date":"2013-09-01","city":"Guarapuava","latitude":"24.92S","longitude":"51.43W"}
{"date":"2012-11-01","average_temperature":"21.811999999999998","city":"Guarujá","latitude":"23.31S","longitude":"46.31W"}
{"date":"2013-07-01","average_temperature":"20.653","city":"Guatemala","latitude":"15.27N","longitude":"90.83W"}
{"date":"2010-04-01","average_temperature":"21.766","city":"Guatemala City","latitude":"15.27N","longitude":"90.83W"}
{"date":"2012-06-01","average_temperature":"21.125","city":"Guatemala City","latitude":"15.27N","longitude":"90.83W"}
{"date":"2011-11-01","average_temperature":"25.526","city":"Guatire","latitude":"10.45N","longitude":"66.27W"}
{"date":"2011-12-01","average_temperature":"16.203","city":"Gurgaon","latitude":"28.13N","longitude":"77.27E"}
{"date":"2010-03-01","average_temperature":"30.883000000000003","city":"Gusau","latitude":"12.05N","longitude":"6.58E"}
{"date":"2013-07-01","average_temperature":"28.592","city":"Hòa Bình","latitude":"20.09N","longitude":"105.78E"}
{"date":"2011-02-01","average_temperature":"14.559","city":"Haicheng","latitude":"23.31N","longitude":"114.47E"}
{"date":"2011-05-01","average_temperature":"32.563","city":"Hajipur","latitude":"24.92N","longitude":"85.12E"}
{"date":"2012-12-01","average_temperature":"3.353","city":"Hamm","latitude":"52.24N","longitude":"7.88E"}
{"date":"2012-01-01","average_temperature":"-19.805","city":"Harbin","latitude":"45.81N","longitude":"125.77E"}
{"date":"2010-04-01","average_temperature":"24.755000000000006","city":"Hargeysa","latitude":"8.84N","longitude":"44.59E"}
{"date":"2013-06-01","average_temperature":"19.784000000000002","city":"Hartford","latitude":"40.99N","longitude":"72.43W"}
{"date":"2010-08-01","average_temperature":"30.031","city":"Hathras","latitude":"28.13N","longitude":"77.27E"}
{"date":"2010-08-01","average_temperature":"22.25","city":"Hebi","latitude":"36.17N","longitude":"113.37E"}
{"date":"2010-10-01","average_temperature":"8.204","city":"Heilbronn","latitude":"49.03N","longitude":"9.80E"}
{"date":"2012-08-01","average_temperature":"20.054000000000002","city":"Heilbronn","latitude":"49.03N","longitude":"9.80E"}
{"date":"2013-08-01","average_temperature":"27.236","city":"Henzada","latitude":"16.87N","longitude":"95.44E"}
{"date":"2012-06-01","average_temperature":"25.785999999999998","city":"Herat","latitude":"34.56N","longitude":"62.27E"}
{"date":"2010-11-01","average_temperature":"10.816","city":"Heze","latitude":"34.56N","longitude":"114.81E"}
{"date":"2013-03-01","average_temperature":"17.764","city":"Hialeah","latitude":"26.52N","longitude":"80.60W"}
{"date":"2010-05-01","average_temperature":"10.37","city":"Hildesheim","latitude":"52.24N","longitude":"10.51E"}
{"date":"2011-01-01","average_temperature":"15.59","city":"Hobart","latitude":"42.59S","longitude":"148.36E"}
{"date":"2012-10-01","average_temperature":"25.017","city":"Hollywood","latitude":"26.52N","longitude":"80.60W"}
{"date":"2010-04-01","average_temperature":"9.667","city":"Horlivka","latitude":"49.03N","longitude":"39.18E"}
{"date":"2010-12-01","average_temperature":"18.276","city":"Hoshangabad","latitude":"23.31N","longitude":"77.77E"}
{"date":"2011-05-01","average_temperature":"34.475","city":"Hoshangabad","latitude":"23.31N","longitude":"77.77E"}
{"date":"2012-01-01","average_temperature":"23.483","city":"Hospet","latitude":"15.27N","longitude":"75.83E"}
{"date":"2010-11-01","average_temperature":"5.744","city":"Houma","latitude":"36.17N","longitude":"111.38E"}
{"date":"2010-05-01","average_temperature":"26.014","city":"Houston","latitude":"29.74N","longitude":"96.00W"}
{"date":"2013-08-01","average_temperature":"28.805000000000003","city":"Hsintien","latitude":"24.92N","longitude":"122.36E"}
{"date":"2013-05-01","average_temperature":"9.838","city":"Huánuco","latitude":"10.45S","longitude":"76.09W"}
{"date":"2013-04-01","average_temperature":"16.297","city":"Huaihua","latitude":"28.13N","longitude":"110.00E"}
{"date":"2013-05-01","average_temperature":"23.173","city":"Huangzhou","latitude":"29.74N","longitude":"114.46E"}
{"date":"2012-08-01","average_temperature":"28.566999999999997","city":"Huzhou","latitude":"31.35N","longitude":"120.63E"}
{"date":"2010-12-01","average_temperature":"11.428","city":"Ica","latitude":"13.66S","longitude":"75.14W"}
{"date":"2012-12-01","average_temperature":"27.418000000000003","city":"Ife","latitude":"7.23N","longitude":"4.05E"}
{"date":"2011-01-01","average_temperature":"26.399","city":"Ikere","latitude":"7.23N","longitude":"5.68E"}
{"date":"2011-07-01","average_temperature":"25.285999999999998","city":"Ikole","latitude":"7.23N","longitude":"5.68E"}
{"date":"2012-01-01","average_temperature":"4.188","city":"Ikoma","latitude":"34.56N","longitude":"136.22E"}
{"date":"2010-10-01","average_temperature":"25.199","city":"Ilhéus","latitude":"15.27S","longitude":"39.17W"}
{"date":"2011-05-01","average_temperature":"27.424","city":"Iligan","latitude":"8.84N","longitude":"124.05E"}
{"date":"2013-04-01","average_temperature":"29.175","city":"Iloilo","latitude":"10.45N","longitude":"121.91E"}
{"date":"2011-09-01","average_temperature":"23.788","city":"Imabari","latitude":"34.56N","longitude":"132.32E"}
{"date":"2012-03-01","average_temperature":"13.069","city":"Indianapolis","latitude":"39.38N","longitude":"85.32W"}
{"date":"2012-05-01","average_temperature":"28.029","city":"Indramayu","latitude":"5.63S","longitude":"108.16E"}
{"date":"2011-06-01","average_temperature":"15.775","city":"Iquique","latitude":"20.09S","longitude":"69.95W"}
{"date":"2012-12-01","average_temperature":"8.551","city":"Irbil","latitude":"36.17N","longitude":"43.76E"}
{"date":"2012-11-01","average_temperature":"-9.535","city":"Irkutsk","latitude":"52.24N","longitude":"105.11E"}
{"date":"2011-06-01","average_temperature":"32.52500000000001","city":"Islamabad","latitude":"32.95N","longitude":"73.72E"}
{"date":"2011-05-01","average_temperature":"22.556","city":"Ismailia","latitude":"31.35N","longitude":"32.04E"}
{"date":"2011-08-01","average_temperature":"24.134","city":"Isparta","latitude":"37.78N","longitude":"30.51E"}
{"date":"2011-04-01","average_temperature":"9.607999999999999","city":"Istanbul","latitude":"40.99N","longitude":"29.82E"}
{"date":"2013-01-01","average_temperature":"6.914999999999999","city":"Istanbul","latitude":"40.99N","longitude":"29.82E"}
{"date":"2011-09-01","average_temperature":"22.761999999999997","city":"Itabuna","latitude":"15.27S","longitude":"39.17W"}
{"date":"2010-08-01","average_temperature":"18.564","city":"Itu","latitude":"23.31S","longitude":"48.06W"}
{"date":"2010-02-01","average_temperature":"-10.741","city":"Ivanovo","latitude":"57.05N","longitude":"39.84E"}
{"date":"2012-06-01","average_temperature":"21.997","city":"Iwakuni","latitude":"34.56N","longitude":"132.32E"}
{"date":"2012-01-01","average_temperature":"27.704","city":"Iwo","latitude":"7.23N","longitude":"4.05E"}
{"date":"2013-07-01","average_temperature":"19.4","city":"Izhevsk","latitude":"57.05N","longitude":"54.59E"}
{"date":"2010-04-01","average_temperature":"32.833","city":"Jabalpur","latitude":"23.31N","longitude":"79.51E"}
{"date":"2012-04-01","average_temperature":"27.196","city":"Jaboatão","latitude":"8.84S","longitude":"34.86W"}
{"date":"2013-08-01","average_temperature":"27.713","city":"Jacksonville","latitude":"29.74N","longitude":"81.23W"}
{"date":"2011-07-01","average_temperature":"35.652","city":"Jacobabad","latitude":"28.13N","longitude":"68.18E"}
{"date":"2012-09-01","average_temperature":"29.148000000000003","city":"Jaunpur","latitude":"26.52N","longitude":"82.39E"}
{"date":"2012-02-01","average_temperature":"24.893","city":"Jequié","latitude":"13.66S","longitude":"40.46W"}
{"date":"2013-01-01","average_temperature":"13.492","city":"Jiangmen","latitude":"23.31N","longitude":"112.72E"}
{"date":"2013-02-01","average_temperature":"6.127000000000002","city":"Jiangyin","latitude":"31.35N","longitude":"120.63E"}
{"date":"2013-05-01","average_temperature":"21.291999999999998","city":"Jiaxing","latitude":"31.35N","longitude":"120.63E"}
{"date":"2013-05-01","average_temperature":"7.451","city":"Jinchang","latitude":"37.78N","longitude":"101.69E"}
{"date":"2010-05-01","average_temperature":"35.363","city":"Jind","latitude":"29.74N","longitude":"75.69E"}
{"date":"2012-11-01","average_temperature":"11.107","city":"Jingdezhen","latitude":"29.74N","longitude":"116.31E"}
{"date":"2010-08-01","average_temperature":"20.613000000000003","city":"Jishu","latitude":"44.20N","longitude":"127.45E"}
{"date":"2011-09-01","average_temperature":"16.52","city":"Johannesburg","latitude":"26.52S","longitude":"28.66E"}
{"date":"2013-03-01","average_temperature":"14.365","city":"Kaili","latitude":"26.52N","longitude":"107.46E"}
{"date":"2010-12-01","average_temperature":"13.622","city":"Kaithal","latitude":"29.74N","longitude":"75.69E"}
{"date":"2012-10-01","average_temperature":"27.839000000000002","city":"Kakinada","latitude":"16.87N","longitude":"82.05E"}
{"date":"2013-09-01","city":"Kalmunai","latitude":"7.23N","longitude":"81.89E"}
{"date":"2012-08-01","average_temperature":"26.318","city":"Kalyan","latitude":"20.09N","longitude":"73.36E"}
{"date":"2010-03-01","average_temperature":"11.312000000000001","city":"Kamakura","latitude":"34.56N","longitude":"140.11E"}
{"date":"2010-03-01","average_temperature":"24.656999999999996","city":"Kamalia","latitude":"31.35N","longitude":"73.51E"}
{"date":"2012-03-01","average_temperature":"-5.784","city":"Kamensk Uralskiy","latitude":"55.45N","longitude":"62.36E"}
{"date":"2012-12-01","average_temperature":"24.995","city":"Kankan","latitude":"10.45N","longitude":"9.00W"}
{"date":"2012-05-01","average_temperature":"19.288","city":"Karamay","latitude":"45.81N","longitude":"84.23E"}
{"date":"2010-08-01","average_temperature":"28.039","city":"Karimnagar","latitude":"18.48N","longitude":"79.44E"}
{"date":"2011-03-01","average_temperature":"5.331","city":"Kashi","latitude":"39.38N","longitude":"76.99E"}
{"date":"2012-07-01","average_temperature":"24.774","city":"Kashi","latitude":"39.38N","longitude":"76.99E"}
{"date":"2012-01-01","average_temperature":"4.188","city":"Kasugai","latitude":"34.56N","longitude":"136.22E"}
{"date":"2013-08-01","average_temperature":"26.344","city":"Katsina","latitude":"13.66N","longitude":"7.43E"}
{"date":"2013-08-01","average_temperature":"18.192","city":"Kaunas","latitude":"55.45N","longitude":"22.68E"}
{"date":"2011-06-01","average_temperature":"22.819000000000003","city":"Kawanishi","latitude":"34.56N","longitude":"136.22E"}
{"date":"2012-12-01","average_temperature":"5.229","city":"Kawanishi","latitude":"34.56N","longitude":"136.22E"}
{"date":"2011-08-01","average_temperature":"22.314","city":"Kecskemét","latitude":"47.42N","longitude":"20.13E"}
{"date":"2013-03-01","average_temperature":"27.081999999999997","city":"Kedungwuni","latitude":"7.23S","longitude":"109.46E"}
{"date":"2012-03-01","average_temperature":"10.84","city":"Kerman","latitude":"29.74N","longitude":"57.23E"}
{"date":"2011-07-01","average_temperature":"29.366","city":"Khammam","latitude":"16.87N","longitude":"80.37E"}
{"date":"2012-08-01","average_temperature":"30.254","city":"Khanna","latitude":"31.35N","longitude":"75.39E"}
{"date":"2013-02-01","average_temperature":"23.168000000000003","city":"Kharagpur","latitude":"21.70N","longitude":"87.40E"}
{"date":"2010-07-01","average_temperature":"24.58","city":"Khimki","latitude":"55.45N","longitude":"36.85E"}
{"date":"2013-01-01","average_temperature":"5.742000000000001","city":"Khorramabad","latitude":"32.95N","longitude":"48.83E"}
{"date":"2012-04-01","average_temperature":"25.998","city":"Khorramshahr","latitude":"29.74N","longitude":"48.00E"}
{"date":"2012-01-01","average_temperature":"13.701","city":"Khurja","latitude":"28.13N","longitude":"77.27E"}
{"date":"2013-09-01","city":"Kielce","latitude":"50.63N","longitude":"21.55E"}
{"date":"2011-07-01","average_temperature":"22.081999999999997","city":"Kiev","latitude":"50.63N","longitude":"31.69E"}
{"date":"2012-10-01","average_temperature":"19.78","city":"Kigali","latitude":"2.41S","longitude":"29.73E"}
{"date":"2013-05-01","average_temperature":"23.98","city":"Kindu","latitude":"2.41S","longitude":"26.52E"}
{"date":"2011-10-01","average_temperature":"28.428","city":"Kingston","latitude":"18.48N","longitude":"76.06W"}
{"date":"2012-09-01","average_temperature":"24.25","city":"Kinshasa","latitude":"4.02S","longitude":"15.27E"}
{"date":"2010-10-01","average_temperature":"23.171999999999997","city":"Kirkuk","latitude":"36.17N","longitude":"43.76E"}
{"date":"2010-06-01","average_temperature":"21.521","city":"Kiryu","latitude":"36.17N","longitude":"139.23E"}
{"date":"2011-12-01","average_temperature":"10.407","city":"Kisarazu","latitude":"34.56N","longitude":"140.11E"}
{"date":"2011-02-01","average_temperature":"-4.829","city":"Kislovodsk","latitude":"44.20N","longitude":"42.48E"}
{"date":"2012-02-01","average_temperature":"-8.859","city":"Kitami","latitude":"44.20N","longitude":"143.11E"}
{"date":"2013-06-01","average_temperature":"11.207","city":"Klerksdorp","latitude":"26.52S","longitude":"26.87E"}
{"date":"2013-03-01","average_temperature":"9.692","city":"Kobe","latitude":"34.56N","longitude":"134.27E"}
{"date":"2010-01-01","average_temperature":"-1.763","city":"Koblenz","latitude":"50.63N","longitude":"6.34E"}
{"date":"2012-02-01","average_temperature":"1.8419999999999999","city":"Kokubunji","latitude":"36.17N","longitude":"139.23E"}
{"date":"2012-09-01","average_temperature":"23.275","city":"Kokubunji","latitude":"36.17N","longitude":"139.23E"}
{"date":"2013-01-01","average_temperature":"24.203000000000003","city":"Kolar","latitude":"13.66N","longitude":"78.44E"}
{"date":"2013-04-01","average_temperature":"28.611","city":"Korhogo","latitude":"8.84N","longitude":"5.68W"}
{"date":"2010-10-01","average_temperature":"5.639000000000001","city":"Kosice","latitude":"49.03N","longitude":"22.04E"}
{"date":"2012-03-01","average_temperature":"27.691000000000006","city":"Kresek","latitude":"5.63S","longitude":"106.55E"}
{"date":"2013-01-01","average_temperature":"26.741999999999997","city":"Kresek","latitude":"5.63S","longitude":"106.55E"}
{"date":"2011-07-01","average_temperature":"8.302","city":"Kroonstad","latitude":"28.13S","longitude":"26.36E"}
{"date":"2013-07-01","average_temperature":"11.418","city":"Kroonstad","latitude":"28.13S","longitude":"26.36E"}
{"date":"2011-12-01","average_temperature":"25.835","city":"Kuala Terengganu","latitude":"5.63N","longitude":"103.32E"}
{"date":"2011-02-01","average_temperature":"25.928","city":"Kuantan","latitude":"4.02N","longitude":"103.66E"}
{"date":"2012-12-01","average_temperature":"27.601","city":"Kulim","latitude":"5.63N","longitude":"100.09E"}
{"date":"2013-08-01","average_temperature":"22.918000000000003","city":"Kumanovo","latitude":"42.59N","longitude":"21.82E"}
{"date":"2013-09-01","city":"Kumbakonam","latitude":"10.45N","longitude":"79.36E"}
{"date":"2011-04-01","average_temperature":"12.962","city":"Kure","latitude":"34.56N","longitude":"132.32E"}
{"date":"2010-03-01","average_temperature":"8.894","city":"Kusatsu","latitude":"34.56N","longitude":"136.22E"}
{"date":"2011-01-01","average_temperature":"2.86","city":"Kusatsu","latitude":"34.56N","longitude":"136.22E"}
{"date":"2012-10-01","average_temperature":"31.213","city":"Kusti","latitude":"13.66N","longitude":"32.20E"}
{"date":"2013-07-01","average_temperature":"26.506","city":"Lagos","latitude":"5.63N","longitude":"3.23E"}
{"date":"2013-02-01","average_temperature":"27.333","city":"Lahad Datu","latitude":"5.63N","longitude":"117.85E"}
{"date":"2012-04-01","average_temperature":"26.697","city":"Lahore","latitude":"31.35N","longitude":"73.51E"}
{"date":"2010-07-01","average_temperature":"28.239","city":"Langfang","latitude":"39.38N","longitude":"116.53E"}
{"date":"2011-06-01","average_temperature":"18.142","city":"Lanzhou","latitude":"36.17N","longitude":"103.43E"}
{"date":"2010-10-01","average_temperature":"27.414","city":"Las Tunas","latitude":"21.70N","longitude":"77.02W"}
{"date":"2013-09-01","city":"Lasa","latitude":"29.74N","longitude":"90.46E"}
{"date":"2013-02-01","average_temperature":"27.364","city":"Lawang","latitude":"7.23S","longitude":"112.70E"}
{"date":"2010-07-01","average_temperature":"18.983","city":"León","latitude":"21.70N","longitude":"101.25W"}
{"date":"2012-03-01","average_temperature":"8.808","city":"Leganés","latitude":"40.99N","longitude":"4.26W"}
{"date":"2012-05-01","average_temperature":"22.575","city":"Leiyang","latitude":"26.52N","longitude":"112.84E"}
{"date":"2011-04-01","average_temperature":"17.293","city":"Lemesos","latitude":"34.56N","longitude":"33.08E"}
{"date":"2010-03-01","average_temperature":"27.29","city":"Leuwiliang","latitude":"7.23S","longitude":"106.22E"}
{"date":"2010-06-01","average_temperature":"26.193","city":"Libreville","latitude":"0.80N","longitude":"8.84E"}
{"date":"2010-12-01","average_temperature":"23.744","city":"Lichinga","latitude":"13.66S","longitude":"35.50E"}
{"date":"2011-12-01","average_temperature":"7.106","city":"Limoges","latitude":"45.81N","longitude":"1.15E"}
{"date":"2012-04-01","average_temperature":"13.966","city":"Lincoln","latitude":"40.99N","longitude":"95.86W"}
{"date":"2011-06-01","average_temperature":"27.27","city":"Linqing","latitude":"36.17N","longitude":"115.36E"}
{"date":"2013-04-01","average_temperature":"7.861000000000001","city":"Lipetsk","latitude":"52.24N","longitude":"39.42E"}
{"date":"2011-05-01","average_temperature":"20.199","city":"Lisbon","latitude":"39.38N","longitude":"8.32W"}
{"date":"2012-05-01","average_temperature":"26.104","city":"Liusha","latitude":"23.31N","longitude":"116.21E"}
{"date":"2010-05-01","average_temperature":"27.776999999999997","city":"Loa Janan","latitude":"0.80S","longitude":"116.52E"}
{"date":"2011-04-01","average_temperature":"20.546","city":"Loja","latitude":"4.02S","longitude":"79.55W"}
{"date":"2012-09-01","average_temperature":"28.021","city":"Long Xuyên","latitude":"10.45N","longitude":"105.55E"}
{"date":"2010-11-01","average_temperature":"14.460999999999999","city":"Los Angeles","latitude":"37.78S","longitude":"73.22W"}
{"date":"2013-07-01","average_temperature":"9.303","city":"Los Angeles","latitude":"37.78S","longitude":"73.22W"}
{"date":"2010-08-01","average_temperature":"31.691000000000006","city":"Los Mochis","latitude":"26.52N","longitude":"109.25W"}
{"date":"2012-01-01","average_temperature":"3.213","city":"Loudi","latitude":"28.13N","longitude":"111.82E"}
{"date":"2011-07-01","average_temperature":"27.246","city":"Louisville","latitude":"37.78N","longitude":"85.42W"}
{"date":"2010-10-01","average_temperature":"11.769","city":"Lower Hutt","latitude":"40.99S","longitude":"174.67E"}
{"date":"2013-08-01","average_temperature":"30.346000000000004","city":"Luan","latitude":"31.35N","longitude":"116.86E"}
{"date":"2013-01-01","average_temperature":"26.331","city":"Luanda","latitude":"8.84S","longitude":"13.78E"}
{"date":"2010-05-01","average_temperature":"20.426","city":"Lubbock","latitude":"32.95N","longitude":"102.45W"}
{"date":"2012-07-01","average_temperature":"27.668000000000003","city":"Luzhou","latitude":"29.74N","longitude":"105.23E"}
{"date":"2010-10-01","average_temperature":"19.009","city":"Málaga","latitude":"36.17N","longitude":"3.98W"}
{"date":"2011-01-01","average_temperature":"24.963","city":"Mabalacat","latitude":"15.27N","longitude":"120.83E"}
{"date":"2011-10-01","average_temperature":"14.487","city":"Madrid","latitude":"40.99N","longitude":"4.26W"}
{"date":"2012-12-01","average_temperature":"24.276999999999997","city":"Madurai","latitude":"10.45N","longitude":"77.73E"}
{"date":"2011-05-01","average_temperature":"26.914","city":"Magelang","latitude":"7.23S","longitude":"109.46E"}
{"date":"2011-01-01","average_temperature":"27.155","city":"Malambo","latitude":"10.45N","longitude":"74.45W"}
{"date":"2013-04-01","average_temperature":"27.615","city":"Malang","latitude":"7.23S","longitude":"112.70E"}
{"date":"2010-12-01","average_temperature":"8.363999999999999","city":"Malatya","latitude":"37.78N","longitude":"38.64E"}
{"date":"2012-01-01","average_temperature":"2.932","city":"Malatya","latitude":"37.78N","longitude":"38.64E"}
{"date":"2012-03-01","average_temperature":"27.079","city":"Malegaon","latitude":"20.09N","longitude":"75.07E"}
{"date":"2010-08-01","average_temperature":"17.491","city":"Malmö","latitude":"55.45N","longitude":"14.17E"}
{"date":"2010-05-01","average_temperature":"31.777","city":"Manama","latitude":"26.52N","longitude":"50.15E"}
{"date":"2012-10-01","average_temperature":"30.081","city":"Manama","latitude":"26.52N","longitude":"50.15E"}
{"date":"2010-07-01","average_temperature":"31.160999999999998","city":"Manbij","latitude":"36.17N","longitude":"37.79E"}
{"date":"2010-04-01","average_temperature":"9.957","city":"Manchester","latitude":"42.59N","longitude":"72.00W"}
{"date":"2010-02-01","average_temperature":"24.893","city":"Mandalay","latitude":"21.70N","longitude":"96.06E"}
{"date":"2011-09-01","average_temperature":"26.518","city":"Manila","latitude":"15.27N","longitude":"120.83E"}
{"date":"2013-06-01","average_temperature":"28.572","city":"Manila","latitude":"15.27N","longitude":"120.83E"}
{"date":"2011-06-01","average_temperature":"25.504","city":"Manta","latitude":"0.80S","longitude":"81.16W"}
{"date":"2011-01-01","average_temperature":"26.93","city":"Maracanaú","latitude":"4.02S","longitude":"39.38W"}
{"date":"2010-05-01","average_temperature":"18.276","city":"Marbella","latitude":"36.17N","longitude":"3.98W"}
{"date":"2013-07-01","average_temperature":"23.513","city":"Marbella","latitude":"36.17N","longitude":"3.98W"}
{"date":"2012-01-01","average_temperature":"24.321","city":"Maringá","latitude":"23.31S","longitude":"51.55W"}
{"date":"2010-12-01","average_temperature":"4.92","city":"Marivan","latitude":"36.17N","longitude":"45.75E"}
{"date":"2010-11-01","average_temperature":"18.748","city":"Maseru","latitude":"29.74S","longitude":"27.69E"}
{"date":"2012-10-01","average_temperature":"25.933000000000003","city":"Matamoros","latitude":"26.52N","longitude":"96.72W"}
{"date":"2012-09-01","average_temperature":"22.738000000000003","city":"Mataró","latitude":"40.99N","longitude":"2.13E"}
{"date":"2011-03-01","average_temperature":"23.864","city":"Mathura","latitude":"28.13N","longitude":"77.27E"}
{"date":"2010-08-01","average_temperature":"27.295","city":"Matsudo","latitude":"36.17N","longitude":"139.23E"}
{"date":"2010-07-01","average_temperature":"18.354","city":"Mauá","latitude":"23.31S","longitude":"46.31W"}
{"date":"2011-09-01","average_temperature":"16.78","city":"Maykop","latitude":"44.20N","longitude":"40.25E"}
{"date":"2012-02-01","average_temperature":"25.164","city":"Maymyo","latitude":"21.70N","longitude":"96.06E"}
{"date":"2012-01-01","average_temperature":"27.247","city":"Melaka","latitude":"2.41N","longitude":"102.05E"}
{"date":"2013-09-01","city":"Mergui","latitude":"12.05N","longitude":"98.63E"}
{"date":"2012-07-01","average_temperature":"26.393","city":"Messina","latitude":"37.78N","longitude":"16.27E"}
{"date":"2013-05-01","average_temperature":"27.163","city":"Metro","latitude":"5.63S","longitude":"104.93E"}
{"date":"2010-12-01","average_temperature":"-1.901","city":"Metz","latitude":"49.03N","longitude":"7.35E"}
{"date":"2010-05-01","average_temperature":"13.311","city":"Midrand","latitude":"26.52S","longitude":"28.66E"}
{"date":"2013-08-01","average_temperature":"20.147","city":"Milagro","latitude":"2.41S","longitude":"79.55W"}
{"date":"2010-11-01","average_temperature":"24.964000000000002","city":"Minatitlán","latitude":"18.48N","longitude":"94.65W"}
{"date":"2012-08-01","average_temperature":"28.199","city":"Mingaora","latitude":"34.56N","longitude":"72.00E"}
{"date":"2010-02-01","average_temperature":"30.289","city":"Minna","latitude":"8.84N","longitude":"7.30E"}
{"date":"2010-04-01","average_temperature":"18.28","city":"Misratah","latitude":"32.95N","longitude":"14.36E"}
{"date":"2013-09-01","city":"Modena","latitude":"44.20N","longitude":"11.18E"}
{"date":"2012-03-01","average_temperature":"7.550000000000002","city":"Modesto","latitude":"37.78N","longitude":"120.00W"}
{"date":"2011-08-01","average_temperature":"28.660999999999998","city":"Montería","latitude":"8.84N","longitude":"75.41W"}
{"date":"2010-08-01","average_temperature":"21.353","city":"Montpellier","latitude":"44.20N","longitude":"4.47E"}
{"date":"2011-02-01","average_temperature":"2.481","city":"Monza","latitude":"45.81N","longitude":"10.38E"}
{"date":"2013-05-01","average_temperature":"35.233000000000004","city":"Morena","latitude":"26.52N","longitude":"78.81E"}
{"date":"2010-06-01","average_temperature":"24.930999999999997","city":"Moreno Valley","latitude":"34.56N","longitude":"116.76W"}
{"date":"2011-05-01","average_temperature":"29.152","city":"Mormugao","latitude":"15.27N","longitude":"74.17E"}
{"date":"2013-01-01","average_temperature":"-9.23","city":"Moscow","latitude":"55.45N","longitude":"36.85E"}
{"date":"2012-05-01","average_temperature":"29.034000000000002","city":"Mossoró","latitude":"5.63S","longitude":"37.13W"}
{"date":"2013-07-01","average_temperature":"26.256","city":"Mostar","latitude":"42.59N","longitude":"17.45E"}
{"date":"2012-12-01","average_temperature":"15.658","city":"Multan","latitude":"29.74N","longitude":"72.00E"}
{"date":"2012-02-01","average_temperature":"-14.019","city":"Murmansk","latitude":"68.31N","longitude":"34.70E"}
{"date":"2012-12-01","average_temperature":"21.991999999999997","city":"Musoma","latitude":"0.80S","longitude":"34.55E"}
{"date":"2010-08-01","average_temperature":"27.825","city":"Nador","latitude":"34.56N","longitude":"3.89W"}
{"date":"2011-03-01","average_temperature":"4.674","city":"Nagareyama","latitude":"36.17N","longitude":"139.23E"}
{"date":"2011-11-01","average_temperature":"26.954","city":"Nakhon Si Thammarat","latitude":"8.84N","longitude":"99.73E"}
{"date":"2012-03-01","average_temperature":"9.431","city":"Nanjing","latitude":"31.35N","longitude":"118.74E"}
{"date":"2011-02-01","average_temperature":"5.582999999999999","city":"Nantong","latitude":"31.35N","longitude":"120.63E"}
{"date":"2010-11-01","average_temperature":"11.068","city":"Nanyang","latitude":"32.95N","longitude":"112.02E"}
{"date":"2010-02-01","average_temperature":"3.98","city":"Navoi","latitude":"39.38N","longitude":"64.51E"}
{"date":"2012-01-01","average_temperature":"3.43","city":"Nazilli","latitude":"37.78N","longitude":"28.47E"}
{"date":"2013-06-01","average_temperature":"23.91","city":"Nazret","latitude":"8.84N","longitude":"39.73E"}
{"date":"2013-01-01","average_temperature":"25.712","city":"Negombo","latitude":"7.23N","longitude":"80.27E"}
{"date":"2013-08-01","average_temperature":"27.24","city":"Netanya","latitude":"32.95N","longitude":"35.43E"}
{"date":"2010-09-01","average_temperature":"9.591","city":"Neuquen","latitude":"39.38S","longitude":"68.67W"}
{"date":"2013-09-01","city":"Newcastle","latitude":"32.95S","longitude":"152.23E"}
{"date":"2012-04-01","average_temperature":"15.582","city":"Newcastle","latitude":"28.13S","longitude":"30.00E"}
{"date":"2010-08-01","average_temperature":"15.242","city":"Newport","latitude":"52.24N","longitude":"2.63W"}
{"date":"2013-06-01","average_temperature":"14.169","city":"Newport","latitude":"52.24N","longitude":"2.63W"}
{"date":"2011-06-01","average_temperature":"18.901","city":"Nezahualcóyotl","latitude":"20.09N","longitude":"98.96W"}
{"date":"2010-04-01","average_temperature":"17.656","city":"Nicolás Romero","latitude":"20.09N","longitude":"98.96W"}
{"date":"2012-08-01","average_temperature":"28.228","city":"Niihama","latitude":"34.56N","longitude":"134.27E"}
{"date":"2010-05-01","average_temperature":"34.96100000000001","city":"Nizamabad","latitude":"18.48N","longitude":"77.75E"}
{"date":"2010-05-01","average_temperature":"25.066000000000006","city":"Nkongsamba","latitude":"5.63N","longitude":"9.69E"}
{"date":"2013-08-01","average_temperature":"22.179000000000002","city":"Nkongsamba","latitude":"5.63N","longitude":"9.69E"}
{"date":"2010-05-01","average_temperature":"28.42","city":"Nkpor","latitude":"5.63N","longitude":"6.46E"}
{"date":"2013-09-01","city":"Nnewi","latitude":"5.63N","longitude":"6.46E"}
{"date":"2010-01-01","average_temperature":"26.615","city":"Nonthaburi","latitude":"13.66N","longitude":"99.91E"}
{"date":"2012-11-01","average_temperature":"6.827999999999999","city":"Norwich","latitude":"52.24N","longitude":"0.00W"}
{"date":"2013-02-01","average_temperature":"23.993000000000002","city":"Nouakchott","latitude":"18.48N","longitude":"15.21W"}
{"date":"2012-08-01","average_temperature":"23.517","city":"Nova Iguaçu","latitude":"23.31S","longitude":"42.82W"}
{"date":"2011-06-01","average_temperature":"21.295","city":"Oaxaca","latitude":"16.87N","longitude":"97.12W"}
{"date":"2013-07-01","average_temperature":"25.785999999999998","city":"Ogbomosho","latitude":"8.84N","longitude":"4.05E"}
{"date":"2011-06-01","average_temperature":"34.013000000000005","city":"Okara","latitude":"31.35N","longitude":"73.51E"}
{"date":"2012-10-01","average_temperature":"26.631999999999998","city":"Olongapo","latitude":"15.27N","longitude":"120.83E"}
{"date":"2013-03-01","average_temperature":"10.8","city":"Omuta","latitude":"32.95N","longitude":"131.17E"}
{"date":"2011-05-01","average_temperature":"28.305999999999997","city":"Onitsha","latitude":"5.63N","longitude":"6.46E"}
{"date":"2012-03-01","average_temperature":"29.594","city":"Onitsha","latitude":"5.63N","longitude":"6.46E"}
{"date":"2011-07-01","average_temperature":"25.366","city":"Orizaba","latitude":"18.48N","longitude":"96.34W"}
{"date":"2013-09-01","city":"Orkney","latitude":"26.52S","longitude":"26.87E"}
{"date":"2010-08-01","average_temperature":"20.789","city":"Oshawa","latitude":"44.20N","longitude":"78.26W"}
{"date":"2011-12-01","average_temperature":"-2.8939999999999997","city":"Otaru","latitude":"42.59N","longitude":"141.82E"}
{"date":"2012-06-01","average_temperature":"14.219000000000001","city":"Otaru","latitude":"42.59N","longitude":"141.82E"}
{"date":"2011-05-01","average_temperature":"28.89","city":"Otukpo","latitude":"7.23N","longitude":"8.92E"}
{"date":"2010-11-01","average_temperature":"7.774","city":"Overland Park","latitude":"39.38N","longitude":"93.64W"}
{"date":"2010-05-01","average_temperature":"28.42","city":"Owerri","latitude":"5.63N","longitude":"6.46E"}
{"date":"2011-04-01","average_temperature":"13.710999999999999","city":"Pécs","latitude":"45.81N","longitude":"17.31E"}
{"date":"2010-07-01","average_temperature":"12.550999999999998","city":"Paarl","latitude":"34.56S","longitude":"19.46E"}
{"date":"2011-03-01","average_temperature":"22.808000000000003","city":"Pakpattan","latitude":"29.74N","longitude":"73.85E"}
{"date":"2010-12-01","average_temperature":"9.935","city":"Palermo","latitude":"37.78N","longitude":"14.24E"}
{"date":"2013-07-01","average_temperature":"25.05","city":"Palermo","latitude":"37.78N","longitude":"14.24E"}
{"date":"2011-03-01","average_temperature":"23.293000000000003","city":"Palhoça","latitude":"28.13S","longitude":"48.18W"}
{"date":"2011-11-01","average_temperature":"24.765","city":"Pali","latitude":"26.52N","longitude":"73.43E"}
{"date":"2011-11-01","average_temperature":"11.642999999999999","city":"Palmdale","latitude":"34.56N","longitude":"118.70W"}
{"date":"2011-06-01","average_temperature":"27.508000000000003","city":"Palo Negro","latitude":"10.45N","longitude":"67.91W"}
{"date":"2011-10-01","average_temperature":"14.32","city":"Pamplona","latitude":"42.59N","longitude":"2.18W"}
{"date":"2013-01-01","average_temperature":"-6.98","city":"Panevezys","latitude":"55.45N","longitude":"25.51E"}
{"date":"2012-02-01","average_temperature":"26.585","city":"Pangkah","latitude":"7.23S","longitude":"109.46E"}
{"date":"2013-02-01","average_temperature":"25.005","city":"Panvel","latitude":"18.48N","longitude":"72.68E"}
{"date":"2012-03-01","average_temperature":"30.018","city":"Parakou","latitude":"8.84N","longitude":"2.43E"}
{"date":"2012-07-01","average_temperature":"25.238000000000003","city":"Parakou","latitude":"8.84N","longitude":"2.43E"}
{"date":"2011-01-01","average_temperature":"25.553","city":"Paranaguá","latitude":"24.92S","longitude":"47.88W"}
{"date":"2012-04-01","average_temperature":"8.781","city":"Paris","latitude":"49.03N","longitude":"2.45E"}
{"date":"2011-05-01","average_temperature":"28.0","city":"Parnaíba","latitude":"2.41S","longitude":"40.98W"}
{"date":"2010-10-01","average_temperature":"26.793000000000003","city":"Pekalongan","latitude":"7.23S","longitude":"109.46E"}
{"date":"2010-02-01","average_temperature":"-1.879","city":"Piatra Neamt","latitude":"47.42N","longitude":"27.24E"}
{"date":"2011-08-01","average_temperature":"15.799000000000001","city":"Pietersburg","latitude":"23.31S","longitude":"28.83E"}
{"date":"2012-12-01","average_temperature":"16.508","city":"Pilibhit","latitude":"28.13N","longitude":"79.09E"}
{"date":"2011-04-01","average_temperature":"22.704","city":"Pingtung","latitude":"23.31N","longitude":"119.71E"}
{"date":"2010-07-01","average_temperature":"24.203000000000003","city":"Pittsburgh","latitude":"40.99N","longitude":"80.95W"}
{"date":"2010-08-01","average_temperature":"21.478","city":"Podolsk","latitude":"55.45N","longitude":"36.85E"}
{"date":"2012-07-01","average_temperature":"27.857000000000006","city":"Ponce","latitude":"18.48N","longitude":"65.92W"}
{"date":"2011-10-01","average_temperature":"27.539","city":"Ponnani","latitude":"10.45N","longitude":"76.09E"}
{"date":"2012-11-01","average_temperature":"27.799","city":"Ponnani","latitude":"10.45N","longitude":"76.09E"}
{"date":"2012-03-01","average_temperature":"20.891","city":"Ponta Grossa","latitude":"24.92S","longitude":"49.66W"}
{"date":"2012-06-01","average_temperature":"26.019000000000002","city":"Port Said","latitude":"31.35N","longitude":"32.04E"}
{"date":"2011-07-01","average_temperature":"6.069","city":"Potosí","latitude":"20.09S","longitude":"66.54W"}
{"date":"2011-03-01","average_temperature":"21.92","city":"Praia Grande","latitude":"23.31S","longitude":"46.31W"}
{"date":"2012-07-01","average_temperature":"20.801","city":"Presidente Prudente","latitude":"21.70S","longitude":"51.06W"}
{"date":"2012-10-01","average_temperature":"8.429","city":"Preston","latitude":"53.84N","longitude":"1.36W"}
{"date":"2013-02-01","average_temperature":"27.244","city":"Proddatur","latitude":"15.27N","longitude":"79.17E"}
{"date":"2011-12-01","average_temperature":"-3.2910000000000004","city":"Provo","latitude":"39.38N","longitude":"112.37W"}
{"date":"2012-12-01","average_temperature":"-1.906","city":"Provo","latitude":"39.38N","longitude":"112.37W"}
{"date":"2012-07-01","average_temperature":"19.023000000000003","city":"Pskov","latitude":"57.05N","longitude":"28.03E"}
{"date":"2010-02-01","average_temperature":"27.483","city":"Purworejo","latitude":"7.23S","longitude":"112.70E"}
{"date":"2010-11-01","average_temperature":"28.095","city":"Purworejo","latitude":"7.23S","longitude":"112.70E"}
{"date":"2013-05-01","average_temperature":"16.006","city":"Pyatigorsk","latitude":"44.20N","longitude":"42.48E"}
{"date":"2010-02-01","average_temperature":"10.268","city":"Qandahar","latitude":"31.35N","longitude":"65.97E"}
{"date":"2010-06-01","average_temperature":"23.211","city":"Qitaihe","latitude":"45.81N","longitude":"130.38E"}
{"date":"2010-09-01","average_temperature":"25.108","city":"Quetta","latitude":"29.74N","longitude":"66.46E"}
{"date":"2013-06-01","average_temperature":"31.491999999999997","city":"Quetta","latitude":"29.74N","longitude":"66.46E"}
{"date":"2011-12-01","average_temperature":"25.739","city":"Rabak","latitude":"13.66N","longitude":"32.20E"}
{"date":"2011-02-01","average_temperature":"25.763","city":"Raichur","latitude":"16.87N","longitude":"77.02E"}
{"date":"2010-01-01","average_temperature":"24.255","city":"Rajamahendri","latitude":"16.87N","longitude":"82.05E"}
{"date":"2010-09-01","average_temperature":"28.542","city":"Rajamahendri","latitude":"16.87N","longitude":"82.05E"}
{"date":"2012-07-01","average_temperature":"26.401999999999997","city":"Rajapalaiyam","latitude":"8.84N","longitude":"77.03E"}
{"date":"2010-12-01","average_temperature":"19.12","city":"Rajshahi","latitude":"24.92N","longitude":"88.67E"}
{"date":"2013-03-01","average_temperature":"2.0","city":"Ramnicu Valcea","latitude":"45.81N","longitude":"24.23E"}
{"date":"2011-02-01","average_temperature":"21.792","city":"Raniganj","latitude":"23.31N","longitude":"86.50E"}
{"date":"2011-07-01","average_temperature":"27.953000000000003","city":"Ratlam","latitude":"23.31N","longitude":"74.27E"}
{"date":"2012-05-01","average_temperature":"12.128","city":"Reading","latitude":"50.63N","longitude":"1.27W"}
{"date":"2012-09-01","average_temperature":"23.886999999999997","city":"Reggio Di Calabria","latitude":"37.78N","longitude":"16.27E"}
{"date":"2010-09-01","average_temperature":"14.172","city":"Reims","latitude":"49.03N","longitude":"4.90E"}
{"date":"2011-02-01","average_temperature":"4.191","city":"Reims","latitude":"49.03N","longitude":"4.90E"}
{"date":"2013-02-01","average_temperature":"0.121","city":"Remscheid","latitude":"50.63N","longitude":"6.34E"}
{"date":"2013-09-01","average_temperature":"27.986","city":"Richardson","latitude":"32.95N","longitude":"96.70W"}
{"date":"2010-03-01","average_temperature":"23.706","city":"Rio Grande","latitude":"31.35S","longitude":"52.77W"}
{"date":"2010-03-01","average_temperature":"4.481000000000001","city":"Rizhao","latitude":"36.17N","longitude":"119.34E"}
{"date":"2010-06-01","average_temperature":"25.368000000000002","city":"Rongcheng","latitude":"29.74N","longitude":"112.62E"}
{"date":"2011-02-01","average_temperature":"-2.7110000000000003","city":"Rybnik","latitude":"50.63N","longitude":"19.01E"}
{"date":"2010-07-01","average_temperature":"21.27","city":"Rzeszow","latitude":"50.63N","longitude":"21.55E"}
{"date":"2010-01-01","average_temperature":"23.738000000000003","city":"São Caetano Do Sul","latitude":"23.31S","longitude":"46.31W"}
{"date":"2012-12-01","average_temperature":"24.51","city":"São Caetano Do Sul","latitude":"23.31S","longitude":"46.31W"}
{"date":"2013-09-01","city":"São Paulo","latitude":"23.31S","longitude":"46.31W"}
{"date":"2012-02-01","average_temperature":"1.8419999999999999","city":"Sagamihara","latitude":"36.17N","longitude":"139.23E"}
{"date":"2011-11-01","average_temperature":"21.822000000000006","city":"Saharsa","latitude":"26.52N","longitude":"85.97E"}
{"date":"2012-11-01","average_temperature":"8.959999999999997","city":"Saint Helens","latitude":"53.84N","longitude":"4.09W"}
{"date":"2010-11-01","average_temperature":"0.126","city":"Saint Petersburg","latitude":"60.27N","longitude":"29.19E"}
{"date":"2012-11-01","average_temperature":"12.427","city":"Sakura","latitude":"36.17N","longitude":"141.22E"}
{"date":"2011-01-01","average_temperature":"5.142","city":"Salamanca","latitude":"40.99N","longitude":"6.39W"}
{"date":"2012-05-01","average_temperature":"11.43","city":"Salem","latitude":"44.20N","longitude":"122.98W"}
{"date":"2013-02-01","average_temperature":"14.509","city":"Saltillo","latitude":"24.92N","longitude":"101.08W"}
{"date":"2013-02-01","average_temperature":"26.949","city":"Samarinda","latitude":"0.80S","longitude":"116.52E"}
{"date":"2011-11-01","average_temperature":"15.842","city":"San Luis Río Colorado","latitude":"32.95N","longitude":"113.94W"}
{"date":"2013-03-01","average_temperature":"19.811","city":"San Nicolas","latitude":"32.95S","longitude":"60.32W"}
{"date":"2013-04-01","average_temperature":"18.246","city":"San Nicolas","latitude":"32.95S","longitude":"60.32W"}
{"date":"2013-01-01","average_temperature":"15.654000000000002","city":"Sanbu","latitude":"21.70N","longitude":"113.37E"}
{"date":"2010-09-01","average_temperature":"27.796","city":"Sancti Spíritus","latitude":"21.70N","longitude":"78.75W"}
{"date":"2010-10-01","average_temperature":"26.564","city":"Sancti Spíritus","latitude":"21.70N","longitude":"78.75W"}
{"date":"2010-04-01","average_temperature":"16.025","city":"Sanming","latitude":"26.52N","longitude":"118.21E"}
{"date":"2012-04-01","average_temperature":"19.068","city":"Sanming","latitude":"26.52N","longitude":"118.21E"}
{"date":"2013-05-01","average_temperature":"17.635","city":"Santa Ana","latitude":"32.95N","longitude":"117.77W"}
{"date":"2011-07-01","average_temperature":"28.086","city":"Santa Clara","latitude":"21.70N","longitude":"80.48W"}
{"date":"2011-06-01","average_temperature":"23.33","city":"Santa Cruz De Tenerife","latitude":"28.13N","longitude":"15.45W"}
{"date":"2011-11-01","average_temperature":"26.769","city":"Santa Rosa","latitude":"13.66N","longitude":"121.38E"}
{"date":"2013-01-01","average_temperature":"11.388","city":"Santander","latitude":"44.20N","longitude":"4.47W"}
{"date":"2010-02-01","average_temperature":"24.537","city":"Santiago De Cuba","latitude":"20.09N","longitude":"75.07W"}
{"date":"2011-03-01","average_temperature":"7.105","city":"Saqqez","latitude":"36.17N","longitude":"45.75E"}
{"date":"2010-03-01","average_temperature":"-4.253","city":"Saransk","latitude":"53.84N","longitude":"45.00E"}
{"date":"2012-04-01","average_temperature":"3.978","city":"Saskatoon","latitude":"52.24N","longitude":"107.74W"}
{"date":"2012-09-01","average_temperature":"21.943","city":"Sassari","latitude":"40.99N","longitude":"8.52E"}
{"date":"2013-05-01","average_temperature":"30.921","city":"Satkhira","latitude":"23.31N","longitude":"88.25E"}
{"date":"2013-09-01","city":"Saveh","latitude":"34.56N","longitude":"50.59E"}
{"date":"2012-03-01","average_temperature":"28.679","city":"Sekondi","latitude":"5.63N","longitude":"1.61W"}
{"date":"2011-06-01","average_temperature":"28.024","city":"Sekudai","latitude":"0.80N","longitude":"103.66E"}
{"date":"2012-10-01","average_temperature":"27.458","city":"Selam","latitude":"12.05N","longitude":"78.90E"}
{"date":"2013-05-01","average_temperature":"27.125","city":"Semarang","latitude":"7.23S","longitude":"111.08E"}
{"date":"2013-09-01","city":"Semarang","latitude":"7.23S","longitude":"111.08E"}
{"date":"2011-12-01","average_temperature":"4.247","city":"Semnan","latitude":"36.17N","longitude":"53.70E"}
{"date":"2010-07-01","average_temperature":"24.737","city":"Seoul","latitude":"37.78N","longitude":"126.10E"}
{"date":"2010-05-01","average_temperature":"20.459","city":"Sete Lagoas","latitude":"20.09S","longitude":"44.36W"}
{"date":"2010-01-01","average_temperature":"0.72","city":"Seto","latitude":"36.17N","longitude":"137.24E"}
{"date":"2011-12-01","average_temperature":"16.22","city":"Shahjahanpur","latitude":"28.13N","longitude":"79.09E"}
{"date":"2012-10-01","average_temperature":"16.897000000000002","city":"Shangqiu","latitude":"34.56N","longitude":"114.81E"}
{"date":"2012-01-01","average_temperature":"5.22","city":"Shaowu","latitude":"28.13N","longitude":"117.27E"}
{"date":"2010-10-01","average_temperature":"23.156","city":"Shaping","latitude":"23.31N","longitude":"112.72E"}
{"date":"2010-05-01","average_temperature":"31.611","city":"Sharjah","latitude":"24.92N","longitude":"54.98E"}
{"date":"2013-08-01","average_temperature":"30.378","city":"Shashi","latitude":"29.74N","longitude":"112.62E"}
{"date":"2011-06-01","average_temperature":"20.243","city":"Shenyang","latitude":"40.99N","longitude":"123.55E"}
{"date":"2012-02-01","average_temperature":"-17.031","city":"Shihezi","latitude":"44.20N","longitude":"84.97E"}
{"date":"2011-04-01","average_temperature":"25.165000000000006","city":"Shillong","latitude":"24.92N","longitude":"92.22E"}
{"date":"2012-07-01","average_temperature":"27.163","city":"Shiyan","latitude":"32.95N","longitude":"110.11E"}
{"date":"2010-05-01","average_temperature":"31.308000000000003","city":"Shrirampur","latitude":"23.31N","longitude":"88.25E"}
{"date":"2013-01-01","average_temperature":"-0.125","city":"Siegen","latitude":"50.63N","longitude":"8.87E"}
{"date":"2013-02-01","average_temperature":"17.78","city":"Sikar","latitude":"28.13N","longitude":"75.45E"}
{"date":"2013-07-01","average_temperature":"27.503","city":"Sikasso","latitude":"10.45N","longitude":"5.73W"}
{"date":"2011-06-01","average_temperature":"28.038","city":"Sirajganj","latitude":"24.92N","longitude":"90.44E"}
{"date":"2011-01-01","average_temperature":"4.811","city":"Sirjan","latitude":"29.74N","longitude":"55.38E"}
{"date":"2010-09-01","average_temperature":"28.761","city":"Sobral","latitude":"4.02S","longitude":"40.98W"}
{"date":"2012-12-01","average_temperature":"27.426","city":"Soledad","latitude":"10.45N","longitude":"74.45W"}
{"date":"2012-02-01","average_temperature":"-16.464000000000002","city":"Solikamsk","latitude":"60.27N","longitude":"58.38E"}
{"date":"2011-03-01","average_temperature":"6.521000000000001","city":"Solingen","latitude":"50.63N","longitude":"6.34E"}
{"date":"2013-08-01","average_temperature":"19.471","city":"Sosnowiec","latitude":"50.63N","longitude":"19.01E"}
{"date":"2010-05-01","average_temperature":"27.468000000000004","city":"Soubré","latitude":"5.63N","longitude":"6.46W"}
{"date":"2011-01-01","average_temperature":"-5.643","city":"South Bend","latitude":"40.99N","longitude":"85.21W"}
{"date":"2012-07-01","average_temperature":"20.838","city":"Spokane","latitude":"47.42N","longitude":"117.24W"}
{"date":"2013-03-01","average_temperature":"2.5180000000000002","city":"Stamford","latitude":"40.99N","longitude":"74.56W"}
{"date":"2010-03-01","average_temperature":"2.5580000000000003","city":"Stavropol","latitude":"44.20N","longitude":"42.48E"}
{"date":"2013-03-01","average_temperature":"13.804","city":"Sucre","latitude":"18.48S","longitude":"65.92W"}
{"date":"2010-11-01","average_temperature":"20.497","city":"Suez","latitude":"29.74N","longitude":"33.23E"}
{"date":"2012-04-01","average_temperature":"26.921","city":"Sukabumi","latitude":"7.23S","longitude":"106.22E"}
{"date":"2011-09-01","average_temperature":"27.253","city":"Surakarta","latitude":"7.23S","longitude":"111.08E"}
{"date":"2011-12-01","average_temperature":"26.724","city":"Surakarta","latitude":"7.23S","longitude":"111.08E"}
{"date":"2010-01-01","average_temperature":"11.780999999999999","city":"Syracuse","latitude":"37.78N","longitude":"16.27E"}
{"date":"2010-10-01","average_temperature":"2.98","city":"Syzran","latitude":"53.84N","longitude":"47.73E"}
{"date":"2011-06-01","average_temperature":"17.371000000000002","city":"Syzran","latitude":"53.84N","longitude":"47.73E"}
{"date":"2012-10-01","average_temperature":"6.865","city":"Syzran","latitude":"53.84N","longitude":"47.73E"}
{"date":"2011-10-01","average_temperature":"15.216","city":"Türkmenabat","latitude":"39.38N","longitude":"64.51E"}
{"date":"2010-01-01","average_temperature":"1.944","city":"Tabriz","latitude":"37.78N","longitude":"46.78E"}
{"date":"2011-07-01","average_temperature":"14.265999999999998","city":"Tacoma","latitude":"47.42N","longitude":"121.97W"}
{"date":"2013-04-01","average_temperature":"21.968000000000004","city":"Taicheng","latitude":"21.70N","longitude":"113.37E"}
{"date":"2010-07-01","average_temperature":"25.524","city":"Tajimi","latitude":"36.17N","longitude":"137.24E"}
{"date":"2010-10-01","average_temperature":"18.380000000000006","city":"Takatsuki","latitude":"34.56N","longitude":"136.22E"}
{"date":"2013-08-01","average_temperature":"24.389","city":"Takoradi","latitude":"5.63N","longitude":"1.61W"}
{"date":"2010-07-01","average_temperature":"21.726","city":"Talara","latitude":"4.02S","longitude":"81.16W"}
{"date":"2011-01-01","average_temperature":"26.359","city":"Taman","latitude":"7.23S","longitude":"109.46E"}
{"date":"2012-12-01","average_temperature":"-8.469000000000001","city":"Tampere","latitude":"61.88N","longitude":"22.08E"}
{"date":"2010-04-01","average_temperature":"9.719","city":"Tanggu","latitude":"39.38N","longitude":"118.61E"}
{"date":"2011-05-01","average_temperature":"19.093","city":"Tanggu","latitude":"39.38N","longitude":"118.61E"}
{"date":"2010-05-01","average_temperature":"19.06","city":"Tangier","latitude":"36.17N","longitude":"5.97W"}
{"date":"2012-10-01","average_temperature":"19.509","city":"Tangier","latitude":"36.17N","longitude":"5.97W"}
{"date":"2013-04-01","average_temperature":"27.939","city":"Tanjung Morawa","latitude":"4.02N","longitude":"98.84E"}
{"date":"2012-01-01","average_temperature":"13.46","city":"Tanta","latitude":"31.35N","longitude":"30.16E"}
{"date":"2010-01-01","average_temperature":"23.337","city":"Tapachula","latitude":"15.27N","longitude":"92.50W"}
{"date":"2011-08-01","average_temperature":"26.794","city":"Tarlac","latitude":"15.27N","longitude":"120.83E"}
{"date":"2012-12-01","average_temperature":"-3.478","city":"Tashkent","latitude":"40.99N","longitude":"70.30E"}
{"date":"2011-07-01","average_temperature":"24.833000000000002","city":"Taunggyi","latitude":"20.09N","longitude":"97.25E"}
{"date":"2012-08-01","average_temperature":"24.868000000000002","city":"Taunggyi","latitude":"20.09N","longitude":"97.25E"}
{"date":"2013-03-01","average_temperature":"25.825","city":"Teófilo Otoni","latitude":"18.48S","longitude":"42.25W"}
{"date":"2013-04-01","average_temperature":"23.79","city":"Teófilo Otoni","latitude":"18.48S","longitude":"42.25W"}
{"date":"2010-06-01","average_temperature":"9.0","city":"Tembisa","latitude":"26.52S","longitude":"28.66E"}
{"date":"2010-07-01","average_temperature":"33.683","city":"Tempe","latitude":"32.95N","longitude":"112.02W"}
{"date":"2010-07-01","average_temperature":"6.25","city":"Temuco","latitude":"39.38S","longitude":"72.83W"}
{"date":"2013-04-01","average_temperature":"21.787000000000006","city":"Teresópolis","latitude":"21.70S","longitude":"42.40W"}
{"date":"2011-01-01","average_temperature":"26.761999999999997","city":"Ternate","latitude":"0.80N","longitude":"127.77E"}
{"date":"2010-04-01","average_temperature":"29.198","city":"Teshie","latitude":"5.63N","longitude":"0.00W"}
{"date":"2011-12-01","average_temperature":"13.267000000000001","city":"Texcoco","latitude":"20.09N","longitude":"98.96W"}
{"date":"2010-11-01","average_temperature":"26.865","city":"Thanjavur","latitude":"10.45N","longitude":"79.36E"}
{"date":"2012-03-01","average_temperature":"29.717","city":"Thanyaburi","latitude":"13.66N","longitude":"101.56E"}
{"date":"2012-01-01","average_temperature":"4.348","city":"The Hague","latitude":"52.24N","longitude":"5.26E"}
{"date":"2013-06-01","average_temperature":"18.528","city":"Tieli","latitude":"47.42N","longitude":"129.08E"}
{"date":"2011-05-01","average_temperature":"16.059","city":"Tieling","latitude":"42.59N","longitude":"124.36E"}
{"date":"2012-04-01","average_temperature":"9.422","city":"Tieling","latitude":"42.59N","longitude":"124.36E"}
{"date":"2013-06-01","average_temperature":"15.043","city":"Tilburg","latitude":"52.24N","longitude":"5.26E"}
{"date":"2013-06-01","average_temperature":"27.07","city":"Timon","latitude":"5.63S","longitude":"43.59W"}
{"date":"2010-06-01","average_temperature":"31.075","city":"Titagarh","latitude":"23.31N","longitude":"88.25E"}
{"date":"2010-01-01","average_temperature":"26.521","city":"Toledo","latitude":"10.45N","longitude":"123.55E"}
{"date":"2011-08-01","average_temperature":"18.552","city":"Tolyatti","latitude":"53.84N","longitude":"50.45E"}
{"date":"2011-02-01","average_temperature":"5.19","city":"Toulouse","latitude":"44.20N","longitude":"2.24E"}
{"date":"2010-06-01","average_temperature":"26.449","city":"Tubruq","latitude":"31.35N","longitude":"24.50E"}
{"date":"2011-01-01","average_temperature":"13.116","city":"Tulancingo","latitude":"20.09N","longitude":"98.96W"}
{"date":"2011-06-01","average_temperature":"23.793000000000003","city":"Tumbes","latitude":"4.02S","longitude":"81.16W"}
{"date":"2011-11-01","average_temperature":"22.069000000000003","city":"Tumbes","latitude":"4.02S","longitude":"81.16W"}
{"date":"2013-02-01","average_temperature":"25.796000000000006","city":"Tumkur","latitude":"13.66N","longitude":"76.79E"}
{"date":"2010-04-01","average_temperature":"30.517000000000003","city":"Tungi","latitude":"23.31N","longitude":"90.00E"}
{"date":"2010-01-01","average_temperature":"11.89","city":"Tunis","latitude":"36.17N","longitude":"9.94E"}
{"date":"2012-07-01","average_temperature":"19.579","city":"Tunja","latitude":"5.63N","longitude":"72.65W"}
{"date":"2010-10-01","average_temperature":"16.253","city":"Turgutlu","latitude":"37.78N","longitude":"28.47E"}
{"date":"2012-05-01","average_temperature":"13.693","city":"Tver","latitude":"57.05N","longitude":"36.89E"}
{"date":"2013-04-01","average_temperature":"21.941","city":"Uberaba","latitude":"20.09S","longitude":"47.77W"}
{"date":"2013-08-01","average_temperature":"28.180999999999997","city":"Uji","latitude":"34.56N","longitude":"136.22E"}
{"date":"2012-10-01","average_temperature":"15.722000000000001","city":"Urayasu","latitude":"36.17N","longitude":"139.23E"}
{"date":"2011-02-01","average_temperature":"26.04","city":"Urdaneta","latitude":"15.27N","longitude":"120.83E"}
{"date":"2011-02-01","average_temperature":"9.817","city":"Vallejo","latitude":"37.78N","longitude":"122.03W"}
{"date":"2011-01-01","average_temperature":"19.065","city":"Vanderbijlpark","latitude":"26.52S","longitude":"28.66E"}
{"date":"2013-06-01","average_temperature":"9.982000000000001","city":"Vanderbijlpark","latitude":"26.52S","longitude":"28.66E"}
{"date":"2010-12-01","average_temperature":"16.866999999999994","city":"Varanasi","latitude":"24.92N","longitude":"83.35E"}
{"date":"2011-06-01","average_temperature":"31.687","city":"Varanasi","latitude":"24.92N","longitude":"83.35E"}
{"date":"2011-06-01","average_temperature":"20.563","city":"Venice","latitude":"45.81N","longitude":"12.69E"}
{"date":"2012-08-01","average_temperature":"25.621","city":"Veracruz","latitude":"18.48N","longitude":"96.34W"}
{"date":"2012-05-01","average_temperature":"16.631","city":"Vicenza","latitude":"45.81N","longitude":"12.69E"}
{"date":"2010-04-01","average_temperature":"31.994","city":"Vihari","latitude":"29.74N","longitude":"72.00E"}
{"date":"2013-09-01","city":"Villavicencio","latitude":"4.02N","longitude":"73.13W"}
{"date":"2012-11-01","average_temperature":"4.6080000000000005","city":"Vinnitsa","latitude":"49.03N","longitude":"29.39E"}
{"date":"2010-06-01","average_temperature":"26.372","city":"Virginia Beach","latitude":"36.17N","longitude":"75.58W"}
{"date":"2011-11-01","average_temperature":"-1.318","city":"Vladimir","latitude":"55.45N","longitude":"39.69E"}
{"date":"2010-08-01","average_temperature":"24.331999999999997","city":"Voronezh","latitude":"52.24N","longitude":"39.42E"}
{"date":"2010-10-01","average_temperature":"9.873","city":"Walsall","latitude":"52.24N","longitude":"2.63W"}
{"date":"2012-12-01","average_temperature":"-3.5860000000000003","city":"Warsaw","latitude":"52.24N","longitude":"21.02E"}
{"date":"2012-12-01","average_temperature":"4.849","city":"Watford","latitude":"52.24N","longitude":"0.00W"}
{"date":"2010-01-01","average_temperature":"-0.2370000000000001","city":"Weinan","latitude":"34.56N","longitude":"108.97E"}
{"date":"2012-06-01","average_temperature":"9.841","city":"Welkom","latitude":"28.13S","longitude":"26.36E"}
{"date":"2010-04-01","average_temperature":"8.863999999999999","city":"West Bromwich","latitude":"52.24N","longitude":"2.63W"}
{"date":"2010-05-01","average_temperature":"10.642000000000001","city":"Wiesbaden","latitude":"50.63N","longitude":"8.87E"}
{"date":"2011-01-01","average_temperature":"22.435","city":"Windhoek","latitude":"23.31S","longitude":"16.60E"}
{"date":"2012-07-01","average_temperature":"21.971","city":"Winnipeg","latitude":"50.63N","longitude":"97.61W"}
{"date":"2013-05-01","average_temperature":"12.154000000000002","city":"Witbank","latitude":"26.52S","longitude":"28.66E"}
{"date":"2011-09-01","average_temperature":"20.421","city":"Wufeng","latitude":"28.13N","longitude":"104.55E"}
{"date":"2011-12-01","average_temperature":"5.209","city":"Wufeng","latitude":"28.13N","longitude":"104.55E"}
{"date":"2013-08-01","average_temperature":"19.96","city":"Wulanhaote","latitude":"45.81N","longitude":"121.15E"}
{"date":"2011-05-01","average_temperature":"6.441000000000002","city":"Wuwei","latitude":"37.78N","longitude":"101.69E"}
{"date":"2012-06-01","average_temperature":"10.52","city":"Wuwei","latitude":"37.78N","longitude":"101.69E"}
{"date":"2012-09-01","average_temperature":"6.197","city":"Wuwei","latitude":"37.78N","longitude":"101.69E"}
{"date":"2011-11-01","average_temperature":"25.416999999999998","city":"Xai Xai","latitude":"24.92S","longitude":"33.69E"}
{"date":"2012-09-01","average_temperature":"18.974","city":"Xingyi","latitude":"24.92N","longitude":"104.63E"}
{"date":"2011-04-01","average_temperature":"14.816","city":"Xintai","latitude":"36.17N","longitude":"117.35E"}
{"date":"2013-03-01","average_temperature":"13.248","city":"Yaan","latitude":"29.74N","longitude":"103.38E"}
{"date":"2011-06-01","average_temperature":"26.598000000000006","city":"Yamoussoukro","latitude":"7.23N","longitude":"5.68W"}
{"date":"2012-02-01","average_temperature":"2.333","city":"Yancheng","latitude":"32.95N","longitude":"119.68E"}
{"date":"2011-06-01","average_temperature":"22.819000000000003","city":"Yao","latitude":"34.56N","longitude":"136.22E"}
{"date":"2012-09-01","average_temperature":"12.040999999999999","city":"Yaroslavl","latitude":"57.05N","longitude":"39.84E"}
{"date":"2010-03-01","average_temperature":"-2.4759999999999995","city":"Yelets","latitude":"52.24N","longitude":"39.42E"}
{"date":"2012-09-01","average_temperature":"24.607000000000006","city":"Yingcheng","latitude":"24.92N","longitude":"113.50E"}
{"date":"2010-06-01","average_temperature":"18.65","city":"Yining","latitude":"44.20N","longitude":"80.50E"}
{"date":"2013-01-01","average_temperature":"3.0269999999999997","city":"York","latitude":"53.84N","longitude":"1.36W"}
{"date":"2010-01-01","average_temperature":"15.316","city":"Yulin","latitude":"21.70N","longitude":"109.90E"}
{"date":"2010-10-01","average_temperature":"24.359","city":"Yungho","latitude":"24.92N","longitude":"122.36E"}
{"date":"2012-02-01","average_temperature":"3.928","city":"Yushan","latitude":"31.35N","longitude":"120.63E"}
{"date":"2012-09-01","average_temperature":"14.608","city":"Yushu","latitude":"44.20N","longitude":"127.45E"}
{"date":"2010-06-01","average_temperature":"24.759","city":"Zhangzhou","latitude":"24.92N","longitude":"117.04E"}
{"date":"2010-11-01","average_temperature":"20.134","city":"Zhanjiang","latitude":"21.70N","longitude":"109.90E"}
{"date":"2012-05-01","average_temperature":"20.027","city":"Zhaocheng","latitude":"37.78N","longitude":"120.00E"}
{"date":"2012-06-01","average_temperature":"27.994","city":"Zhuhai","latitude":"21.70N","longitude":"113.37E"}
{"date":"2012-04-01","average_temperature":"35.003","city":"Zinder","latitude":"13.66N","longitude":"9.08E"}
{"date":"2012-07-01","average_temperature":"28.581999999999997","city":"Zinder","latitude":"13.66N","longitude":"9.08E"}
{"date":"2012-06-01","average_temperature":"18.707","city":"Zlatoust","latitude":"55.45N","longitude":"59.53E"}
{"date":"2013-06-01","average_temperature":"14.444","city":"Zurich","latitude":"47.42N","longitude":"8.29E"}
{"date":"2012-02-01","average_temperature":"11.158","city":"Zuwarah","latitude":"32.95N","longitude":"12.45E"}
