{"date":"2013-06-01","average_temperature":"15.222999999999999","city":"Århus","latitude":"57.05N","longitude":"10.33E"}
{"date":"2011-11-01","average_temperature":"7.857000000000001","city":"Çorlu","latitude":"40.99N","longitude":"27.69E"}
{"date":"2011-05-01","average_temperature":"16.748","city":"A Coruña","latitude":"42.59N","longitude":"8.73W"}
{"date":"2011-03-01","average_temperature":"19.312","city":"Abadan","latitude":"29.74N","longitude":"48.00E"}
{"date":"2010-03-01","average_temperature":"-9.242","city":"Abakan","latitude":"53.84N","longitude":"91.36E"}
{"date":"2012-01-01","average_temperature":"20.27","city":"Abha","latitude":"18.48N","longitude":"42.25E"}
{"date":"2013-03-01","average_temperature":"7.955","city":"Abiko","latitude":"36.17N","longitude":"139.23E"}
{"date":"2013-02-01","average_temperature":"21.117","city":"Abu Dhabi","latitude":"24.92N","longitude":"54.98E"}
{"date":"2013-01-01","average_temperature":"22.795","city":"Adelaide","latitude":"34.56S","longitude":"138.16E"}
{"date":"2011-10-01","average_temperature":"24.495","city":"Aizawl","latitude":"23.31N","longitude":"93.50E"}
{"date":"2010-06-01","average_temperature":"27.425","city":"Ajdabiya","latitude":"31.35N","longitude":"20.73E"}
{"date":"2013-05-01","average_temperature":"18.422","city":"Akashi","latitude":"34.56N","longitude":"134.27E"}
{"date":"2012-03-01","average_temperature":"3.233","city":"Akita","latitude":"39.38N","longitude":"139.42E"}
{"date":"2011-03-01","average_temperature":"17.945999999999998","city":"Albury","latitude":"36.17S","longitude":"147.18E"}
{"date":"2010-02-01","average_temperature":"4.061","city":"Alcalá De Henares","latitude":"40.99N","longitude":"4.26W"}
{"date":"2012-08-01","average_temperature":"23.021","city":"Alcorcón","latitude":"40.99N","longitude":"4.26W"}
{"date":"2012-09-01","average_temperature":"12.24","city":"Almetyevsk","latitude":"55.45N","longitude":"51.02E"}
{"date":"2013-05-01","average_temperature":"10.629000000000001","city":"Altay","latitude":"47.42N","longitude":"88.82E"}
{"date":"2012-08-01","average_temperature":"27.701","city":"Amagasaki","latitude":"34.56N","longitude":"136.22E"}
{"date":"2010-04-01","average_temperature":"29.561999999999998","city":"Amaigbo","latitude":"5.63N","longitude":"8.07E"}
{"date":"2012-11-01","average_temperature":"19.183","city":"Ambala","latitude":"29.74N","longitude":"77.54E"}
{"date":"2011-01-01","average_temperature":"24.674","city":"Ambur","latitude":"12.05N","longitude":"78.90E"}
{"date":"2011-07-01","average_temperature":"21.47","city":"Anápolis","latitude":"16.87S","longitude":"48.56W"}
{"date":"2012-02-01","average_temperature":"-7.838000000000001","city":"Anchorage","latitude":"61.88N","longitude":"151.13W"}
{"date":"2013-08-01","average_temperature":"19.717","city":"Angers","latitude":"47.42N","longitude":"1.18W"}
{"date":"2013-07-01","average_temperature":"24.465","city":"Angren","latitude":"40.99N","longitude":"70.30E"}
{"date":"2010-02-01","average_temperature":"-7.1110000000000015","city":"Anshan","latitude":"40.99N","longitude":"123.55E"}
{"date":"2010-05-01","average_temperature":"19.282","city":"Anshun","latitude":"26.52N","longitude":"105.67E"}
{"date":"2010-12-01","average_temperature":"-1.027","city":"Anyang","latitude":"36.17N","longitude":"113.37E"}
{"date":"2011-05-01","average_temperature":"28.217","city":"Apodaca","latitude":"26.52N","longitude":"100.30W"}
{"date":"2010-10-01","average_temperature":"25.741999999999997","city":"Apopa","latitude":"13.66N","longitude":"90.00W"}
{"date":"2010-12-01","average_temperature":"23.913","city":"Apopa","latitude":"13.66N","longitude":"90.00W"}
{"date":"2012-10-01","average_temperature":"11.556","city":"Arad","latitude":"45.81N","longitude":"21.92E"}
{"date":"2011-09-01","average_temperature":"24.003","city":"Arak","latitude":"34.56N","longitude":"50.59E"}
{"date":"2012-10-01","average_temperature":"25.993000000000002","city":"Arapiraca","latitude":"10.45S","longitude":"36.82W"}
{"date":"2011-09-01","average_temperature":"9.522","city":"Arkhangelsk","latitude":"65.09N","longitude":"40.21E"}
{"date":"2011-10-01","average_temperature":"4.7650000000000015","city":"Arkhangelsk","latitude":"65.09N","longitude":"40.21E"}
{"date":"2012-08-01","average_temperature":"12.642999999999999","city":"Arkhangelsk","latitude":"65.09N","longitude":"40.21E"}
{"date":"2010-08-01","average_temperature":"31.432","city":"Arlington","latitude":"32.95N","longitude":"96.70W"}
{"date":"2011-09-01","average_temperature":"23.024","city":"Armenia","latitude":"4.02N","longitude":"76.34W"}
{"date":"2011-06-01","average_temperature":"20.573","city":"Arusha","latitude":"4.02S","longitude":"36.16E"}
{"date":"2010-09-01","average_temperature":"25.513","city":"Asmara","latitude":"15.27N","longitude":"39.17E"}
{"date":"2010-09-01","average_temperature":"25.455","city":"Astanajapura","latitude":"7.23S","longitude":"107.84E"}
{"date":"2010-12-01","average_temperature":"24.951","city":"Astanajapura","latitude":"7.23S","longitude":"107.84E"}
{"date":"2011-12-01","average_temperature":"17.734","city":"Aswan","latitude":"23.31N","longitude":"32.33E"}
{"date":"2010-05-01","average_temperature":"21.188000000000002","city":"Athens","latitude":"37.78N","longitude":"24.41E"}
{"date":"2013-08-01","average_temperature":"26.364","city":"Atsugi","latitude":"36.17N","longitude":"139.23E"}
{"date":"2010-12-01","average_temperature":"7.52","city":"Babol","latitude":"36.17N","longitude":"51.71E"}
{"date":"2011-10-01","average_temperature":"27.939","city":"Bac Lieu","latitude":"8.84N","longitude":"106.22E"}
{"date":"2010-01-01","average_temperature":"8.073","city":"Badajoz","latitude":"39.38N","longitude":"6.24W"}
{"date":"2012-01-01","average_temperature":"11.232000000000001","city":"Badalona","latitude":"40.99N","longitude":"2.13E"}
{"date":"2010-09-01","average_temperature":"15.073","city":"Badaojiang","latitude":"42.59N","longitude":"126.55E"}
{"date":"2011-12-01","average_temperature":"23.500999999999998","city":"Bafoussam","latitude":"5.63N","longitude":"9.69E"}
{"date":"2012-06-01","average_temperature":"23.133000000000003","city":"Bafoussam","latitude":"5.63N","longitude":"9.69E"}
{"date":"2013-03-01","average_temperature":"26.718000000000004","city":"Baguio","latitude":"16.87N","longitude":"120.56E"}
{"date":"2013-09-01","city":"Bahraich","latitude":"28.13N","longitude":"80.91E"}
{"date":"2010-06-01","average_temperature":"31.075","city":"Baidyabati","latitude":"23.31N","longitude":"88.25E"}
{"date":"2010-11-01","average_temperature":"25.436999999999998","city":"Baidyabati","latitude":"23.31N","longitude":"88.25E"}
{"date":"2011-09-01","average_temperature":"24.503","city":"Bakersfield","latitude":"36.17N","longitude":"119.34W"}
{"date":"2010-01-01","average_temperature":"-16.465","city":"Balakovo","latitude":"52.24N","longitude":"47.30E"}
{"date":"2011-05-01","average_temperature":"28.826999999999998","city":"Baliuag","latitude":"15.27N","longitude":"120.83E"}
{"date":"2013-03-01","average_temperature":"24.596","city":"Banda","latitude":"24.92N","longitude":"79.80E"}
{"date":"2013-08-01","average_temperature":"28.138","city":"Banda","latitude":"24.92N","longitude":"79.80E"}
{"date":"2010-05-01","average_temperature":"27.505","city":"Bandundu","latitude":"4.02S","longitude":"16.88E"}
{"date":"2011-03-01","average_temperature":"12.41","city":"Bantou","latitude":"24.92N","longitude":"118.82E"}
{"date":"2010-07-01","average_temperature":"29.979","city":"Barasat","latitude":"23.31N","longitude":"88.25E"}
{"date":"2012-11-01","average_temperature":"21.636","city":"Barbacena","latitude":"21.70S","longitude":"44.13W"}
{"date":"2012-01-01","average_temperature":"14.061","city":"Bareli","latitude":"28.13N","longitude":"79.09E"}
{"date":"2013-04-01","average_temperature":"15.361","city":"Bari","latitude":"40.99N","longitude":"17.04E"}
{"date":"2012-02-01","average_temperature":"24.88","city":"Barinas","latitude":"8.84N","longitude":"70.54W"}
{"date":"2013-03-01","average_temperature":"22.384","city":"Barra Mansa","latitude":"21.70S","longitude":"44.13W"}
{"date":"2011-06-01","average_temperature":"18.976","city":"Barretos","latitude":"20.09S","longitude":"47.77W"}
{"date":"2011-02-01","average_temperature":"-7.057","city":"Barrie","latitude":"44.20N","longitude":"80.50W"}
{"date":"2013-09-01","city":"Baruta","latitude":"10.45N","longitude":"66.27W"}
{"date":"2012-02-01","average_temperature":"18.833","city":"Basti","latitude":"26.52N","longitude":"82.39E"}
{"date":"2010-08-01","average_temperature":"30.217","city":"Batala","latitude":"31.35N","longitude":"75.39E"}
{"date":"2010-06-01","average_temperature":"29.072","city":"Baton Rouge","latitude":"29.74N","longitude":"90.46W"}
{"date":"2013-02-01","average_temperature":"14.525","city":"Baton Rouge","latitude":"29.74N","longitude":"90.46W"}
{"date":"2013-01-01","average_temperature":"25.555999999999997","city":"Baturaja","latitude":"4.02S","longitude":"103.66E"}
{"date":"2010-11-01","average_temperature":"24.964","city":"Bauru","latitude":"21.70S","longitude":"49.33W"}
{"date":"2011-08-01","average_temperature":"29.021","city":"Begusarai","latitude":"24.92N","longitude":"86.90E"}
{"date":"2010-06-01","average_temperature":"24.459","city":"Beirut","latitude":"34.56N","longitude":"35.03E"}
{"date":"2010-10-01","average_temperature":"24.13","city":"Beirut","latitude":"34.56N","longitude":"35.03E"}
{"date":"2011-11-01","average_temperature":"27.179","city":"Bekasi","latitude":"5.63S","longitude":"106.55E"}
{"date":"2010-11-01","average_temperature":"26.805999999999997","city":"Belawan","latitude":"4.02N","longitude":"98.84E"}
{"date":"2013-06-01","average_temperature":"25.987","city":"Belgaum","latitude":"15.27N","longitude":"74.17E"}
{"date":"2012-02-01","average_temperature":"-11.656","city":"Belgorod","latitude":"50.63N","longitude":"36.76E"}
{"date":"2012-06-01","average_temperature":"31.043000000000003","city":"Bellary","latitude":"15.27N","longitude":"77.50E"}
{"date":"2010-12-01","average_temperature":"26.18","city":"Bengkulu","latitude":"4.02S","longitude":"102.05E"}
{"date":"2010-09-01","average_temperature":"28.145","city":"Benha","latitude":"29.74N","longitude":"31.38E"}
{"date":"2013-05-01","average_temperature":"27.1","city":"Beni Suef","latitude":"29.74N","longitude":"31.38E"}
{"date":"2011-01-01","average_temperature":"2.262","city":"Bergisch Gladbach","latitude":"50.63N","longitude":"6.34E"}
{"date":"2011-09-01","average_temperature":"16.238","city":"Berlin","latitude":"52.24N","longitude":"13.14E"}
{"date":"2011-11-01","average_temperature":"23.663","city":"Bertoua","latitude":"4.02N","longitude":"13.66E"}
{"date":"2012-06-01","average_temperature":"25.976999999999997","city":"Bhadravati","latitude":"13.66N","longitude":"75.14E"}
{"date":"2012-04-01","average_temperature":"30.299","city":"Bhadreswar","latitude":"23.31N","longitude":"88.25E"}
{"date":"2013-04-01","average_temperature":"29.858","city":"Bhagalpur","latitude":"24.92N","longitude":"86.90E"}
{"date":"2012-01-01","average_temperature":"19.393","city":"Bharuch","latitude":"21.70N","longitude":"73.56E"}
{"date":"2012-12-01","average_temperature":"22.504","city":"Bharuch","latitude":"21.70N","longitude":"73.56E"}
{"date":"2012-03-01","average_temperature":"27.884","city":"Bhilai","latitude":"21.70N","longitude":"82.21E"}
{"date":"2012-07-01","average_temperature":"19.71","city":"Bialystok","latitude":"53.84N","longitude":"23.18E"}
{"date":"2010-12-01","average_temperature":"4.91","city":"Birmingham","latitude":"32.95N","longitude":"87.13W"}
{"date":"2010-04-01","average_temperature":"8.602","city":"Blackburn","latitude":"53.84N","longitude":"1.36W"}
{"date":"2013-01-01","average_temperature":"3.0269999999999997","city":"Bolton","latitude":"53.84N","longitude":"1.36W"}
{"date":"2013-09-01","city":"Bontang","latitude":"0.80N","longitude":"118.13E"}
{"date":"2010-02-01","average_temperature":"-1.879","city":"Botosani","latitude":"47.42N","longitude":"27.24E"}
{"date":"2012-09-01","average_temperature":"17.904","city":"Botosani","latitude":"47.42N","longitude":"27.24E"}
{"date":"2010-06-01","average_temperature":"7.274999999999999","city":"Botshabelo","latitude":"29.74S","longitude":"27.69E"}
{"date":"2012-03-01","average_temperature":"9.721","city":"Boulogne Billancourt","latitude":"49.03N","longitude":"2.45E"}
{"date":"2013-06-01","average_temperature":"18.124000000000002","city":"Bragança Paulista","latitude":"23.31S","longitude":"46.31W"}
{"date":"2013-08-01","average_temperature":"19.016","city":"Brest","latitude":"52.24N","longitude":"23.65E"}
{"date":"2010-05-01","average_temperature":"16.502","city":"Bryansk","latitude":"53.84N","longitude":"34.09E"}
{"date":"2011-05-01","average_temperature":"14.498","city":"Bryansk","latitude":"53.84N","longitude":"34.09E"}
{"date":"2010-05-01","average_temperature":"26.747","city":"Bucaramanga","latitude":"7.23N","longitude":"73.78W"}
{"date":"2012-01-01","average_temperature":"0.41300000000000026","city":"Budapest","latitude":"47.42N","longitude":"20.13E"}
{"date":"2011-11-01","average_temperature":"21.721999999999998","city":"Buga","latitude":"4.02N","longitude":"76.34W"}
{"date":"2011-11-01","average_temperature":"4.926","city":"Bukan","latitude":"36.17N","longitude":"45.75E"}
{"date":"2012-08-01","average_temperature":"21.441999999999997","city":"Bukavu","latitude":"2.41S","longitude":"28.13E"}
{"date":"2012-06-01","average_temperature":"29.151999999999997","city":"Bukit Mertajam","latitude":"5.63N","longitude":"100.09E"}
{"date":"2011-03-01","average_temperature":"27.365","city":"Burhanpur","latitude":"21.70N","longitude":"77.02E"}
{"date":"2011-01-01","average_temperature":"-0.7490000000000001","city":"Bytom","latitude":"50.63N","longitude":"19.01E"}
{"date":"2010-10-01","average_temperature":"23.160999999999998","city":"Córdoba","latitude":"18.48N","longitude":"96.34W"}
{"date":"2012-05-01","average_temperature":"24.023000000000003","city":"Cabo Frio","latitude":"23.31S","longitude":"42.82W"}
{"date":"2010-06-01","average_temperature":"21.508000000000006","city":"Cagliari","latitude":"39.38N","longitude":"8.32E"}
{"date":"2012-07-01","average_temperature":"30.263","city":"Cairo","latitude":"29.74N","longitude":"31.38E"}
{"date":"2010-01-01","average_temperature":"18.519000000000002","city":"Cajamarca","latitude":"7.23S","longitude":"78.65W"}
{"date":"2012-10-01","average_temperature":"22.191","city":"Cali","latitude":"4.02N","longitude":"76.34W"}
{"date":"2011-11-01","average_temperature":"26.486","city":"Camaragibe","latitude":"7.23S","longitude":"34.86W"}
{"date":"2011-08-01","average_temperature":"16.484","city":"Cambridge","latitude":"52.24N","longitude":"0.00W"}
{"date":"2013-08-01","average_temperature":"28.055999999999997","city":"Can Tho","latitude":"10.45N","longitude":"105.55E"}
{"date":"2010-03-01","average_temperature":"23.016","city":"Canoas","latitude":"29.74S","longitude":"51.69W"}
{"date":"2010-08-01","average_temperature":"19.436","city":"Capiatá","latitude":"24.92S","longitude":"56.75W"}
{"date":"2010-03-01","average_temperature":"24.955","city":"Carmen","latitude":"18.48N","longitude":"91.27W"}
{"date":"2012-11-01","average_temperature":"27.195","city":"Carrefour","latitude":"18.48N","longitude":"72.68W"}
{"date":"2011-03-01","average_temperature":"22.018","city":"Cartago","latitude":"4.02N","longitude":"76.34W"}
{"date":"2012-08-01","average_temperature":"22.014","city":"Caruaru","latitude":"8.84S","longitude":"36.49W"}
{"date":"2011-11-01","average_temperature":"14.384","city":"Casablanca","latitude":"32.95N","longitude":"6.70W"}
{"date":"2012-05-01","average_temperature":"26.744","city":"Castanhal","latitude":"0.80S","longitude":"47.41W"}
{"date":"2010-01-01","average_temperature":"26.417","city":"Catamarca","latitude":"28.13S","longitude":"66.36W"}
{"date":"2012-12-01","average_temperature":"9.424","city":"Catania","latitude":"37.78N","longitude":"14.24E"}
{"date":"2010-10-01","average_temperature":"26.391","city":"Catia La Mar","latitude":"10.45N","longitude":"66.27W"}
{"date":"2012-03-01","average_temperature":"10.582","city":"Cedar Rapids","latitude":"42.59N","longitude":"91.64W"}
{"date":"2011-02-01","average_temperature":"5.582999999999999","city":"Changzhou","latitude":"31.35N","longitude":"120.63E"}
{"date":"2012-01-01","average_temperature":"12.312999999999999","city":"Chenghai","latitude":"23.31N","longitude":"116.21E"}
{"date":"2011-12-01","average_temperature":"0.6680000000000001","city":"Cherkessk","latitude":"44.20N","longitude":"42.48E"}
{"date":"2012-04-01","average_temperature":"29.348000000000006","city":"Chhapra","latitude":"26.52N","longitude":"84.18E"}
{"date":"2010-12-01","average_temperature":"19.12","city":"Chhindwara","latitude":"21.70N","longitude":"78.75E"}
{"date":"2013-06-01","average_temperature":"18.887","city":"Chiclayo","latitude":"7.23S","longitude":"80.27W"}
{"date":"2011-07-01","average_temperature":"21.92","city":"Chilpancingo","latitude":"18.48N","longitude":"99.72W"}
{"date":"2012-05-01","average_temperature":"28.403","city":"Chinandega","latitude":"12.05N","longitude":"87.12W"}
{"date":"2010-12-01","average_temperature":"14.338","city":"Chula Vista","latitude":"32.95N","longitude":"117.77W"}
{"date":"2011-04-01","average_temperature":"25.14","city":"Cianjur","latitude":"7.23S","longitude":"107.84E"}
{"date":"2011-04-01","average_temperature":"26.798","city":"Cibadak","latitude":"7.23S","longitude":"106.22E"}
{"date":"2010-11-01","average_temperature":"26.879","city":"Cibinong","latitude":"5.63S","longitude":"106.55E"}
{"date":"2012-08-01","average_temperature":"28.088","city":"Cienfuegos","latitude":"21.70N","longitude":"80.48W"}
{"date":"2010-08-01","average_temperature":"27.093000000000004","city":"Cikarang","latitude":"5.63S","longitude":"106.55E"}
{"date":"2013-02-01","average_temperature":"25.502","city":"Cileunyi","latitude":"7.23S","longitude":"107.84E"}
{"date":"2010-11-01","average_temperature":"25.781","city":"Ciparay","latitude":"7.23S","longitude":"107.84E"}
{"date":"2011-08-01","average_temperature":"25.276","city":"Ciudad Valles","latitude":"21.70N","longitude":"99.52W"}
{"date":"2012-03-01","average_temperature":"16.548","city":"Cochabamba","latitude":"16.87S","longitude":"66.98W"}
{"date":"2010-01-01","average_temperature":"-1.763","city":"Cologne","latitude":"50.63N","longitude":"6.34E"}
{"date":"2013-02-01","average_temperature":"24.474","city":"Concordia","latitude":"31.35S","longitude":"58.43W"}
{"date":"2012-01-01","average_temperature":"15.542","city":"Corpus Christi","latitude":"28.13N","longitude":"97.27W"}
{"date":"2010-08-01","average_temperature":"17.852999999999998","city":"Cotia","latitude":"23.31S","longitude":"46.31W"}
{"date":"2012-08-01","average_temperature":"19.069000000000006","city":"Cotia","latitude":"23.31S","longitude":"46.31W"}
{"date":"2013-04-01","average_temperature":"28.631999999999998","city":"Cotonou","latitude":"7.23N","longitude":"2.43E"}
{"date":"2011-02-01","average_temperature":"24.412","city":"Cubatão","latitude":"23.31S","longitude":"46.31W"}
{"date":"2010-09-01","average_temperature":"28.722","city":"Cuiabá","latitude":"15.27S","longitude":"55.83W"}
{"date":"2012-02-01","average_temperature":"27.287","city":"Curug","latitude":"5.63S","longitude":"106.55E"}
{"date":"2010-07-01","average_temperature":"29.474","city":"Dallas","latitude":"32.95N","longitude":"96.70W"}
{"date":"2012-06-01","average_temperature":"26.096","city":"Daloa","latitude":"7.23N","longitude":"5.68W"}
{"date":"2010-08-01","average_temperature":"27.25","city":"Damaturu","latitude":"12.05N","longitude":"11.51E"}
{"date":"2012-05-01","average_temperature":"16.891","city":"Dandong","latitude":"39.38N","longitude":"124.86E"}
{"date":"2011-01-01","average_temperature":"0.929","city":"Darmstadt","latitude":"50.63N","longitude":"8.87E"}
{"date":"2011-11-01","average_temperature":"1.956","city":"Dawukou","latitude":"39.38N","longitude":"106.13E"}
{"date":"2012-11-01","average_temperature":"19.183","city":"Dehra Dun","latitude":"29.74N","longitude":"77.54E"}
{"date":"2011-11-01","average_temperature":"8.345","city":"Denizli","latitude":"37.78N","longitude":"28.47E"}
{"date":"2010-08-01","average_temperature":"19.915000000000006","city":"Deyang","latitude":"31.35N","longitude":"103.66E"}
{"date":"2013-09-01","city":"Dezful","latitude":"32.95N","longitude":"48.83E"}
{"date":"2010-01-01","average_temperature":"24.359","city":"Dharmavaram","latitude":"15.27N","longitude":"77.50E"}
{"date":"2011-06-01","average_temperature":"29.563000000000002","city":"Dharmavaram","latitude":"15.27N","longitude":"77.50E"}
{"date":"2013-03-01","average_temperature":"30.693","city":"Dharmavaram","latitude":"15.27N","longitude":"77.50E"}
{"date":"2010-06-01","average_temperature":"29.315","city":"Dhule","latitude":"20.09N","longitude":"75.07E"}
{"date":"2012-12-01","average_temperature":"16.886","city":"Dimapur","latitude":"26.52N","longitude":"93.13E"}
{"date":"2010-05-01","average_temperature":"30.277","city":"Dinajpur","latitude":"24.92N","longitude":"88.67E"}
{"date":"2012-05-01","average_temperature":"30.901","city":"Dinajpur","latitude":"24.92N","longitude":"88.67E"}
{"date":"2010-12-01","average_temperature":"24.33","city":"Dire Dawa","latitude":"10.45N","longitude":"41.73E"}
{"date":"2013-04-01","average_temperature":"14.07","city":"Dongtai","latitude":"32.95N","longitude":"119.68E"}
{"date":"2012-02-01","average_temperature":"-0.234","city":"Dortmund","latitude":"52.24N","longitude":"7.88E"}
{"date":"2011-11-01","average_temperature":"3.853","city":"Dresden","latitude":"50.63N","longitude":"13.94E"}
{"date":"2012-12-01","average_temperature":"3.5260000000000002","city":"Duisburg","latitude":"50.63N","longitude":"6.34E"}
{"date":"2011-09-01","average_temperature":"25.928","city":"Duma","latitude":"32.95N","longitude":"37.34E"}
{"date":"2010-10-01","average_temperature":"27.174","city":"Dumaguete","latitude":"8.84N","longitude":"124.05E"}
{"date":"2011-06-01","average_temperature":"19.339000000000002","city":"East Los Angeles","latitude":"34.56N","longitude":"118.70W"}
{"date":"2010-09-01","average_temperature":"14.989","city":"Eastbourne","latitude":"50.63N","longitude":"1.27E"}
{"date":"2012-07-01","average_temperature":"24.479","city":"Edison","latitude":"40.99N","longitude":"74.56W"}
{"date":"2012-07-01","average_temperature":"24.283","city":"Ekibastuz","latitude":"52.24N","longitude":"76.20E"}
{"date":"2010-12-01","average_temperature":"16.53","city":"El Faiyûm","latitude":"29.74N","longitude":"31.38E"}
{"date":"2011-01-01","average_temperature":"10.432","city":"El Monte","latitude":"34.56N","longitude":"118.70W"}
{"date":"2012-04-01","average_temperature":"18.742","city":"El Paso","latitude":"31.35N","longitude":"105.55W"}
{"date":"2013-08-01","average_temperature":"24.491","city":"El Progreso","latitude":"15.27N","longitude":"87.50W"}
{"date":"2013-04-01","average_temperature":"15.552999999999999","city":"Elbasan","latitude":"40.99N","longitude":"19.17E"}
{"date":"2011-02-01","average_temperature":"-6.195","city":"Elblag","latitude":"53.84N","longitude":"20.45E"}
{"date":"2013-09-01","city":"Eldoret","latitude":"0.80N","longitude":"34.55E"}
{"date":"2012-07-01","average_temperature":"29.15","city":"Eluru","latitude":"16.87N","longitude":"80.37E"}
{"date":"2010-05-01","average_temperature":"18.679000000000002","city":"Embu","latitude":"23.31S","longitude":"46.31W"}
{"date":"2011-09-01","average_temperature":"15.870999999999999","city":"Enschede","latitude":"52.24N","longitude":"7.88E"}
{"date":"2010-06-01","average_temperature":"17.093","city":"Ensenada","latitude":"31.35N","longitude":"116.86W"}
{"date":"2012-12-01","average_temperature":"13.77","city":"Ensenada","latitude":"31.35N","longitude":"116.86W"}
{"date":"2010-02-01","average_temperature":"25.032000000000004","city":"Esmeraldas","latitude":"20.09S","longitude":"44.36W"}
{"date":"2011-11-01","average_temperature":"10.759","city":"Exeter","latitude":"50.63N","longitude":"3.80W"}
{"date":"2010-03-01","average_temperature":"27.05","city":"Faizabad","latitude":"26.52N","longitude":"82.39E"}
{"date":"2013-01-01","average_temperature":"13.755999999999998","city":"Faridabad","latitude":"28.13N","longitude":"77.27E"}
{"date":"2013-02-01","average_temperature":"18.137","city":"Fatehpur","latitude":"26.52N","longitude":"80.60E"}
{"date":"2011-03-01","average_temperature":"26.563000000000002","city":"Fernando De La Mora","latitude":"24.92S","longitude":"56.75W"}
{"date":"2010-01-01","average_temperature":"23.738000000000003","city":"Ferraz De Vasconcelos","latitude":"23.31S","longitude":"46.31W"}
{"date":"2012-03-01","average_temperature":"10.599","city":"Florence","latitude":"44.20N","longitude":"11.18E"}
{"date":"2011-12-01","average_temperature":"6.962999999999999","city":"Fontana","latitude":"34.56N","longitude":"116.76W"}
{"date":"2012-07-01","average_temperature":"24.043000000000003","city":"Forlì","latitude":"44.20N","longitude":"11.18E"}
{"date":"2011-03-01","average_temperature":"22.749000000000002","city":"Franca","latitude":"20.09S","longitude":"47.77W"}
{"date":"2012-03-01","average_temperature":"5.784","city":"Freiburg","latitude":"47.42N","longitude":"8.29E"}
{"date":"2011-08-01","average_temperature":"26.718000000000004","city":"Fujieda","latitude":"34.56N","longitude":"138.16E"}
{"date":"2012-11-01","average_temperature":"27.344","city":"Funtua","latitude":"12.05N","longitude":"6.58E"}
{"date":"2011-01-01","average_temperature":"-3.138","city":"Göteborg","latitude":"58.66N","longitude":"12.31E"}
{"date":"2011-03-01","average_temperature":"0.7510000000000001","city":"Göteborg","latitude":"58.66N","longitude":"12.31E"}
{"date":"2011-03-01","average_temperature":"27.894","city":"Gagnoa","latitude":"5.63N","longitude":"6.46W"}
{"date":"2011-04-01","average_temperature":"9.786","city":"Galati","latitude":"45.81N","longitude":"28.85E"}
{"date":"2010-03-01","average_temperature":"13.58","city":"Ganzhou","latitude":"26.52N","longitude":"114.63E"}
{"date":"2010-10-01","average_temperature":"18.41","city":"Ganzhou","latitude":"26.52N","longitude":"114.63E"}
{"date":"2012-08-01","average_temperature":"25.831","city":"Gaomi","latitude":"36.17N","longitude":"119.34E"}
{"date":"2011-07-01","average_temperature":"21.189","city":"Garanhuns","latitude":"8.84S","longitude":"36.49W"}
{"date":"2011-03-01","average_temperature":"30.822","city":"Gashua","latitude":"13.66N","longitude":"10.73E"}
{"date":"2010-05-01","average_temperature":"33.068000000000005","city":"Gaya","latitude":"24.92N","longitude":"85.12E"}
{"date":"2012-03-01","average_temperature":"5.7970000000000015","city":"Gaziantep","latitude":"37.78N","longitude":"36.61E"}
{"date":"2010-05-01","average_temperature":"11.729","city":"Gdansk","latitude":"53.84N","longitude":"17.73E"}
{"date":"2013-06-01","average_temperature":"17.366","city":"Gdynia","latitude":"53.84N","longitude":"17.73E"}
{"date":"2010-10-01","average_temperature":"28.362","city":"Georgetown","latitude":"7.23N","longitude":"57.57W"}
{"date":"2011-10-01","average_temperature":"8.978000000000002","city":"Gera","latitude":"50.63N","longitude":"11.41E"}
{"date":"2011-05-01","average_temperature":"16.44","city":"Getafe","latitude":"40.99N","longitude":"4.26W"}
{"date":"2010-10-01","average_temperature":"27.256","city":"Ghaziabad","latitude":"28.13N","longitude":"77.27E"}
{"date":"2012-06-01","average_temperature":"36.33900000000001","city":"Ghaziabad","latitude":"28.13N","longitude":"77.27E"}
{"date":"2010-03-01","average_temperature":"14.86","city":"Gilbert","latitude":"32.95N","longitude":"112.02W"}
{"date":"2010-01-01","average_temperature":"5.886","city":"Giugliano In Campania","latitude":"40.99N","longitude":"14.91E"}
{"date":"2011-01-01","average_temperature":"10.703","city":"Glendale","latitude":"32.95N","longitude":"112.02W"}
{"date":"2011-10-01","average_temperature":"19.028","city":"Gold Coast","latitude":"28.13S","longitude":"153.64E"}
{"date":"2011-11-01","average_temperature":"22.703000000000003","city":"Gold Coast","latitude":"28.13S","longitude":"153.64E"}
{"date":"2012-12-01","average_temperature":"24.769000000000002","city":"Gombe","latitude":"10.45N","longitude":"10.64E"}
{"date":"2011-03-01","average_temperature":"25.195999999999998","city":"Gonda","latitude":"26.52N","longitude":"82.39E"}
{"date":"2010-07-01","average_temperature":"23.631","city":"Gongzhuling","latitude":"44.20N","longitude":"125.22E"}
{"date":"2011-11-01","average_temperature":"13.81","city":"Grand Prairie","latitude":"32.95N","longitude":"96.70W"}
{"date":"2010-07-01","average_temperature":"21.975","city":"Green Bay","latitude":"44.20N","longitude":"87.20W"}
{"date":"2013-09-01","city":"Groningen","latitude":"53.84N","longitude":"6.82E"}
{"date":"2011-06-01","average_temperature":"15.932","city":"Guarulhos","latitude":"23.31S","longitude":"46.31W"}
{"date":"2011-08-01","average_temperature":"21.153000000000002","city":"Guatemala","latitude":"15.27N","longitude":"90.83W"}
{"date":"2012-04-01","average_temperature":"20.691","city":"Guatemala City","latitude":"15.27N","longitude":"90.83W"}
{"date":"2013-04-01","average_temperature":"25.103","city":"Gujranwala","latitude":"32.95N","longitude":"73.72E"}
{"date":"2011-02-01","average_temperature":"28.025","city":"Hadejia","latitude":"12.05N","longitude":"9.86E"}
{"date":"2011-02-01","average_temperature":"15.970999999999998","city":"Hafizabad","latitude":"31.35N","longitude":"73.51E"}
{"date":"2013-01-01","average_temperature":"13.892000000000001","city":"Hai Phong","latitude":"21.70N","longitude":"106.44E"}
{"date":"2013-02-01","average_temperature":"-25.438","city":"Hailar","latitude":"49.03N","longitude":"120.00E"}
{"date":"2010-05-01","average_temperature":"24.947","city":"Haimen","latitude":"23.31N","longitude":"116.21E"}
{"date":"2012-08-01","average_temperature":"19.573","city":"Halifax","latitude":"44.20N","longitude":"62.61W"}
{"date":"2011-06-01","average_temperature":"23.014","city":"Hanzhong","latitude":"32.95N","longitude":"106.28E"}
{"date":"2010-05-01","average_temperature":"15.86","city":"Harbin","latitude":"45.81N","longitude":"125.77E"}
{"date":"2011-04-01","average_temperature":"28.956","city":"Hathras","latitude":"28.13N","longitude":"77.27E"}
{"date":"2010-11-01","average_temperature":"5.346","city":"Heilbronn","latitude":"49.03N","longitude":"9.80E"}
{"date":"2011-06-01","average_temperature":"27.316999999999997","city":"Hengshui","latitude":"37.78N","longitude":"115.93E"}
{"date":"2011-03-01","average_temperature":"9.9","city":"Hengyang","latitude":"26.52N","longitude":"112.84E"}
{"date":"2013-06-01","average_temperature":"26.401","city":"Heze","latitude":"34.56N","longitude":"114.81E"}
{"date":"2010-03-01","average_temperature":"4.6610000000000005","city":"Hildesheim","latitude":"52.24N","longitude":"10.51E"}
{"date":"2012-04-01","average_temperature":"11.355","city":"Hino","latitude":"36.17N","longitude":"139.23E"}
{"date":"2013-02-01","average_temperature":"2.046","city":"Hiratsuka","latitude":"36.17N","longitude":"139.23E"}
{"date":"2011-09-01","average_temperature":"23.788","city":"Hiroshima","latitude":"34.56N","longitude":"132.32E"}
{"date":"2010-09-01","average_temperature":"23.359","city":"Hitachi","latitude":"36.17N","longitude":"141.22E"}
{"date":"2011-04-01","average_temperature":"27.888","city":"Ho Chi Minh City","latitude":"10.45N","longitude":"107.18E"}
{"date":"2013-05-01","average_temperature":"22.790000000000006","city":"Honghu","latitude":"29.74N","longitude":"112.62E"}
{"date":"2011-06-01","average_temperature":"27.449","city":"Hsintien","latitude":"24.92N","longitude":"122.36E"}
{"date":"2012-07-01","average_temperature":"28.734","city":"Huaiyin","latitude":"32.95N","longitude":"119.68E"}
{"date":"2010-08-01","average_temperature":"25.543000000000003","city":"Huangcun","latitude":"39.38N","longitude":"116.53E"}
{"date":"2010-08-01","average_temperature":"29.581999999999997","city":"Huangzhou","latitude":"29.74N","longitude":"114.46E"}
{"date":"2010-02-01","average_temperature":"15.83","city":"Huicheng","latitude":"23.31N","longitude":"116.21E"}
{"date":"2011-01-01","average_temperature":"17.176000000000002","city":"Hyderabad","latitude":"24.92N","longitude":"69.16E"}
{"date":"2011-08-01","average_temperature":"30.133000000000003","city":"Hyderabad","latitude":"24.92N","longitude":"69.16E"}
{"date":"2012-01-01","average_temperature":"17.077","city":"Hyderabad","latitude":"24.92N","longitude":"69.16E"}
{"date":"2012-03-01","average_temperature":"17.596999999999994","city":"Ibarra","latitude":"0.80N","longitude":"77.95W"}
{"date":"2013-09-01","city":"Ibb","latitude":"13.66N","longitude":"43.76E"}
{"date":"2011-05-01","average_temperature":"10.494000000000002","city":"Ica","latitude":"13.66S","longitude":"75.14W"}
{"date":"2012-10-01","average_temperature":"23.424000000000003","city":"Idlib","latitude":"36.17N","longitude":"35.80E"}
{"date":"2012-11-01","average_temperature":"27.068","city":"Ijero","latitude":"7.23N","longitude":"5.68E"}
{"date":"2010-09-01","average_temperature":"25.383000000000003","city":"Ikere","latitude":"7.23N","longitude":"5.68E"}
{"date":"2013-04-01","average_temperature":"27.879","city":"Ikire","latitude":"7.23N","longitude":"4.05E"}
{"date":"2010-06-01","average_temperature":"26.27","city":"Ikole","latitude":"7.23N","longitude":"5.68E"}
{"date":"2010-12-01","average_temperature":"27.396","city":"Ikorodu","latitude":"7.23N","longitude":"4.05E"}
{"date":"2012-04-01","average_temperature":"25.947","city":"Ilhéus","latitude":"15.27S","longitude":"39.17W"}
{"date":"2010-06-01","average_temperature":"28.878","city":"Iligan","latitude":"8.84N","longitude":"124.05E"}
{"date":"2011-10-01","average_temperature":"18.244","city":"Inglewood","latitude":"34.56N","longitude":"118.70W"}
{"date":"2013-09-01","city":"Ingolstadt","latitude":"49.03N","longitude":"12.24E"}
{"date":"2013-06-01","average_temperature":"26.002","city":"Iquitos","latitude":"4.02S","longitude":"73.13W"}
{"date":"2010-07-01","average_temperature":"26.343000000000004","city":"Iráklion","latitude":"34.56N","longitude":"25.30E"}
{"date":"2012-03-01","average_temperature":"22.066999999999997","city":"Iranshahr","latitude":"26.52N","longitude":"60.90E"}
{"date":"2012-06-01","average_temperature":"20.825","city":"Irapuato","latitude":"20.09N","longitude":"100.66W"}
{"date":"2013-09-01","average_temperature":"19.715999999999998","city":"Irapuato","latitude":"20.09N","longitude":"100.66W"}
{"date":"2013-07-01","average_temperature":"27.046","city":"Iskenderun","latitude":"36.17N","longitude":"35.80E"}
{"date":"2010-01-01","average_temperature":"16.637999999999998","city":"Ismailia","latitude":"31.35N","longitude":"32.04E"}
{"date":"2013-07-01","average_temperature":"23.553","city":"Istanbul","latitude":"40.99N","longitude":"29.82E"}
{"date":"2012-06-01","average_temperature":"20.546","city":"Itagüí","latitude":"5.63N","longitude":"75.87W"}
{"date":"2010-07-01","average_temperature":"19.836","city":"Itajaí","latitude":"26.52S","longitude":"48.36W"}
{"date":"2011-04-01","average_temperature":"21.478","city":"Itapevi","latitude":"23.31S","longitude":"46.31W"}
{"date":"2010-08-01","average_temperature":"26.717","city":"Itarsi","latitude":"23.31N","longitude":"77.77E"}
{"date":"2012-12-01","average_temperature":"27.418000000000003","city":"Iwo","latitude":"7.23N","longitude":"4.05E"}
{"date":"2013-03-01","average_temperature":"20.374","city":"Jacobabad","latitude":"28.13N","longitude":"68.18E"}
{"date":"2011-09-01","average_temperature":"27.868000000000002","city":"Jaipur","latitude":"26.52N","longitude":"75.22E"}
{"date":"2011-10-01","average_temperature":"25.783","city":"Jalandhar","latitude":"31.35N","longitude":"75.39E"}
{"date":"2010-09-01","average_temperature":"25.874000000000002","city":"Jalingo","latitude":"8.84N","longitude":"12.16E"}
{"date":"2010-11-01","average_temperature":"25.076999999999998","city":"Jamnagar","latitude":"21.70N","longitude":"70.10E"}
{"date":"2011-03-01","average_temperature":"14.106","city":"Jaramana","latitude":"32.95N","longitude":"35.43E"}
{"date":"2012-05-01","average_temperature":"21.965000000000003","city":"Jaramana","latitude":"32.95N","longitude":"35.43E"}
{"date":"2013-01-01","average_temperature":"14.017999999999999","city":"Jaunpur","latitude":"26.52N","longitude":"82.39E"}
{"date":"2012-06-01","average_temperature":"34.492","city":"Jhansi","latitude":"24.92N","longitude":"78.03E"}
{"date":"2011-06-01","average_temperature":"25.096999999999998","city":"Jiaojiang","latitude":"28.13N","longitude":"120.91E"}
{"date":"2011-04-01","average_temperature":"16.724999999999998","city":"Jiaozuo","latitude":"34.56N","longitude":"112.86E"}
{"date":"2013-09-01","city":"Jimeta","latitude":"8.84N","longitude":"12.16E"}
{"date":"2010-06-01","average_temperature":"10.923","city":"Jinchang","latitude":"37.78N","longitude":"101.69E"}
{"date":"2011-11-01","average_temperature":"15.32","city":"Jinhua","latitude":"29.74N","longitude":"120.00E"}
{"date":"2010-03-01","average_temperature":"22.169","city":"Jiroft","latitude":"28.13N","longitude":"57.27E"}
{"date":"2013-06-01","average_temperature":"34.247","city":"Jiroft","latitude":"28.13N","longitude":"57.27E"}
{"date":"2012-03-01","average_temperature":"10.318","city":"Jiujiang","latitude":"29.74N","longitude":"116.31E"}
{"date":"2010-09-01","average_temperature":"25.223000000000006","city":"João Pessoa","latitude":"7.23S","longitude":"34.86W"}
{"date":"2010-12-01","average_temperature":"27.081999999999997","city":"João Pessoa","latitude":"7.23S","longitude":"34.86W"}
{"date":"2012-09-01","average_temperature":"14.770999999999999","city":"Johannesburg","latitude":"26.52S","longitude":"28.66E"}
{"date":"2011-07-01","average_temperature":"24.828000000000003","city":"Juazeiro Do Norte","latitude":"7.23S","longitude":"39.73W"}
{"date":"2011-04-01","average_temperature":"27.972","city":"Juba","latitude":"4.02N","longitude":"31.34E"}
{"date":"2010-05-01","average_temperature":"4.599","city":"Juliaca","latitude":"15.27S","longitude":"70.83W"}
{"date":"2012-07-01","average_temperature":"24.485","city":"Kütahya","latitude":"39.38N","longitude":"29.13E"}
{"date":"2011-03-01","average_temperature":"22.762","city":"Kaithal","latitude":"29.74N","longitude":"75.69E"}
{"date":"2011-04-01","average_temperature":"27.703000000000003","city":"Kaithal","latitude":"29.74N","longitude":"75.69E"}
{"date":"2010-02-01","average_temperature":"-7.8199999999999985","city":"Kaluga","latitude":"53.84N","longitude":"36.82E"}
{"date":"2011-09-01","average_temperature":"18.666","city":"Kansas City","latitude":"39.38N","longitude":"93.64W"}
{"date":"2011-08-01","average_temperature":"26.982","city":"Kasuga","latitude":"32.95N","longitude":"131.17E"}
{"date":"2013-04-01","average_temperature":"16.360999999999994","city":"Kathmandu","latitude":"28.13N","longitude":"84.55E"}
{"date":"2011-05-01","average_temperature":"34.142","city":"Katsina","latitude":"13.66N","longitude":"7.43E"}
{"date":"2012-09-01","average_temperature":"21.456999999999997","city":"Katumba","latitude":"8.84S","longitude":"33.24E"}
{"date":"2011-11-01","average_temperature":"10.802999999999999","city":"Kawaguchi","latitude":"36.17N","longitude":"139.23E"}
{"date":"2010-07-01","average_temperature":"16.178","city":"Kelowna","latitude":"49.03N","longitude":"120.00W"}
{"date":"2013-09-01","average_temperature":"13.966","city":"Kelowna","latitude":"49.03N","longitude":"120.00W"}
{"date":"2012-05-01","average_temperature":"34.484","city":"Khammam","latitude":"16.87N","longitude":"80.37E"}
{"date":"2012-10-01","average_temperature":"27.363000000000003","city":"Khanpur","latitude":"28.13N","longitude":"70.00E"}
{"date":"2011-04-01","average_temperature":"28.734","city":"Kharagpur","latitude":"21.70N","longitude":"87.40E"}
{"date":"2011-10-01","average_temperature":"28.097","city":"Khardaha","latitude":"23.31N","longitude":"88.25E"}
{"date":"2011-06-01","average_temperature":"21.138","city":"Kherson","latitude":"47.42N","longitude":"31.97E"}
{"date":"2012-02-01","average_temperature":"-0.627","city":"Khomeynishahr","latitude":"32.95N","longitude":"50.74E"}
{"date":"2013-05-01","average_temperature":"34.746","city":"Khurja","latitude":"28.13N","longitude":"77.27E"}
{"date":"2012-11-01","average_temperature":"21.639","city":"Kigoma","latitude":"4.02S","longitude":"29.73E"}
{"date":"2010-11-01","average_temperature":"24.565","city":"Kinshasa","latitude":"4.02S","longitude":"15.27E"}
{"date":"2011-10-01","average_temperature":"20.151","city":"Kirkuk","latitude":"36.17N","longitude":"43.76E"}
{"date":"2012-07-01","average_temperature":"19.193","city":"Kirov","latitude":"58.66N","longitude":"49.23E"}
{"date":"2012-11-01","average_temperature":"8.718","city":"Kiryu","latitude":"36.17N","longitude":"139.23E"}
{"date":"2010-06-01","average_temperature":"25.461","city":"Kisangani","latitude":"0.80N","longitude":"24.91E"}
{"date":"2013-03-01","average_temperature":"30.644","city":"Kishi","latitude":"8.84N","longitude":"4.05E"}
{"date":"2012-11-01","average_temperature":"22.145000000000003","city":"Kisumu","latitude":"0.80S","longitude":"34.55E"}
{"date":"2011-06-01","average_temperature":"14.588","city":"Klaipeda","latitude":"55.45N","longitude":"19.84E"}
{"date":"2012-11-01","average_temperature":"8.718","city":"Koganei","latitude":"36.17N","longitude":"139.23E"}
{"date":"2012-06-01","average_temperature":"34.528","city":"Kohat","latitude":"32.95N","longitude":"71.81E"}
{"date":"2012-06-01","average_temperature":"24.991999999999997","city":"Koidu","latitude":"8.84N","longitude":"10.54W"}
{"date":"2013-02-01","average_temperature":"-20.693","city":"Komsomolsk Na Amure","latitude":"50.63N","longitude":"138.17E"}
{"date":"2010-06-01","average_temperature":"19.877","city":"Konya","latitude":"37.78N","longitude":"32.54E"}
{"date":"2012-04-01","average_temperature":"7.955","city":"Koszalin","latitude":"53.84N","longitude":"15.00E"}
{"date":"2011-05-01","average_temperature":"27.889","city":"Kresek","latitude":"5.63S","longitude":"106.55E"}
{"date":"2011-01-01","average_temperature":"-3.8939999999999997","city":"Kryvyy Rih","latitude":"47.42N","longitude":"34.34E"}
{"date":"2012-08-01","average_temperature":"25.116999999999997","city":"Kumba","latitude":"4.02N","longitude":"8.84E"}
{"date":"2011-05-01","average_temperature":"18.483","city":"Kure","latitude":"34.56N","longitude":"132.32E"}
{"date":"2011-09-01","average_temperature":"29.768","city":"Kusti","latitude":"13.66N","longitude":"32.20E"}
{"date":"2013-06-01","average_temperature":"32.911","city":"Kusti","latitude":"13.66N","longitude":"32.20E"}
{"date":"2010-02-01","average_temperature":"23.116","city":"Kwekwe","latitude":"18.48S","longitude":"30.42E"}
{"date":"2013-04-01","average_temperature":"20.18","city":"Kwekwe","latitude":"18.48S","longitude":"30.42E"}
{"date":"2012-08-01","average_temperature":"7.567","city":"La Paz","latitude":"16.87S","longitude":"68.65W"}
{"date":"2010-09-01","average_temperature":"14.515999999999998","city":"La Plata","latitude":"34.56S","longitude":"58.38W"}
{"date":"2010-06-01","average_temperature":"11.734000000000002","city":"La Rioja","latitude":"29.74S","longitude":"66.46W"}
{"date":"2011-08-01","average_temperature":"28.435","city":"Lakhimpur","latitude":"28.13N","longitude":"80.91E"}
{"date":"2012-08-01","average_temperature":"27.244","city":"Lampang","latitude":"18.48N","longitude":"99.72E"}
{"date":"2010-12-01","average_temperature":"10.237","city":"Lancaster","latitude":"34.56N","longitude":"118.70W"}
{"date":"2013-06-01","average_temperature":"36.971","city":"Larkana","latitude":"28.13N","longitude":"68.18E"}
{"date":"2010-09-01","average_temperature":"17.593","city":"León","latitude":"42.59N","longitude":"6.55W"}
{"date":"2012-03-01","average_temperature":"7.9639999999999995","city":"Leicester","latitude":"52.24N","longitude":"0.00W"}
{"date":"2010-05-01","average_temperature":"9.277999999999999","city":"Leninsk Kuznetskiy","latitude":"53.84N","longitude":"85.91E"}
{"date":"2013-06-01","average_temperature":"15.589","city":"Leverkusen","latitude":"50.63N","longitude":"6.34E"}
{"date":"2011-06-01","average_temperature":"18.141","city":"Lilongwe","latitude":"13.66S","longitude":"33.85E"}
{"date":"2012-09-01","average_temperature":"23.773000000000003","city":"Limeira","latitude":"21.70S","longitude":"47.60W"}
{"date":"2010-03-01","average_temperature":"6.782","city":"Limoges","latitude":"45.81N","longitude":"1.15E"}
{"date":"2011-04-01","average_temperature":"13.696","city":"Limoges","latitude":"45.81N","longitude":"1.15E"}
{"date":"2010-11-01","average_temperature":"14.706","city":"Linhai","latitude":"28.13N","longitude":"120.91E"}
{"date":"2013-02-01","average_temperature":"2.119","city":"Linqing","latitude":"36.17N","longitude":"115.36E"}
{"date":"2010-01-01","average_temperature":"-6.178","city":"Linxi","latitude":"39.38N","longitude":"118.61E"}
{"date":"2010-01-01","average_temperature":"-4.767","city":"Linz","latitude":"49.03N","longitude":"14.69E"}
{"date":"2011-06-01","average_temperature":"24.528000000000002","city":"Lira","latitude":"2.41N","longitude":"32.95E"}
{"date":"2012-03-01","average_temperature":"14.316","city":"Lisbon","latitude":"39.38N","longitude":"8.32W"}
{"date":"2012-02-01","average_temperature":"5.954","city":"Liverpool","latitude":"53.84N","longitude":"4.09W"}
{"date":"2013-04-01","average_temperature":"6.587000000000001","city":"London","latitude":"42.59N","longitude":"80.73W"}
{"date":"2012-06-01","average_temperature":"20.526000000000003","city":"Longjiang","latitude":"47.42N","longitude":"124.34E"}
{"date":"2013-09-01","city":"Longjiang","latitude":"47.42N","longitude":"124.34E"}
{"date":"2013-09-01","city":"Loudi","latitude":"28.13N","longitude":"111.82E"}
{"date":"2012-06-01","average_temperature":"18.533","city":"Lowell","latitude":"42.59N","longitude":"72.00W"}
{"date":"2010-04-01","average_temperature":"10.747","city":"Luancheng","latitude":"37.78N","longitude":"113.90E"}
{"date":"2013-04-01","average_temperature":"12.57","city":"Luancheng","latitude":"37.78N","longitude":"113.90E"}
{"date":"2011-07-01","average_temperature":"18.448","city":"Luque","latitude":"24.92S","longitude":"56.75W"}
{"date":"2011-04-01","average_temperature":"19.469","city":"Luzhou","latitude":"29.74N","longitude":"105.23E"}
{"date":"2011-03-01","average_temperature":"6.521000000000001","city":"Maastricht","latitude":"50.63N","longitude":"6.34E"}
{"date":"2012-02-01","average_temperature":"24.737","city":"Macaé","latitude":"21.70S","longitude":"42.40W"}
{"date":"2013-03-01","average_temperature":"24.214000000000002","city":"Macaé","latitude":"21.70S","longitude":"42.40W"}
{"date":"2012-03-01","average_temperature":"27.271","city":"Madurai","latitude":"10.45N","longitude":"77.73E"}
{"date":"2010-03-01","average_temperature":"28.818","city":"Mahajanga","latitude":"15.27S","longitude":"45.83E"}
{"date":"2012-10-01","average_temperature":"8.424000000000001","city":"Mainz","latitude":"50.63N","longitude":"8.87E"}
{"date":"2012-04-01","average_temperature":"29.293000000000003","city":"Makati","latitude":"15.27N","longitude":"120.83E"}
{"date":"2010-11-01","average_temperature":"28.095","city":"Malang","latitude":"7.23S","longitude":"112.70E"}
{"date":"2011-12-01","average_temperature":"6.581","city":"Manbij","latitude":"36.17N","longitude":"37.79E"}
{"date":"2012-09-01","average_temperature":"16.115","city":"Manchester","latitude":"42.59N","longitude":"72.00W"}
{"date":"2012-05-01","average_temperature":"31.98","city":"Mandalay","latitude":"21.70N","longitude":"96.06E"}
{"date":"2011-09-01","average_temperature":"24.816","city":"Mangaluru","latitude":"13.66N","longitude":"75.14E"}
{"date":"2011-11-01","average_temperature":"18.442999999999998","city":"Mar Del Plata","latitude":"37.78S","longitude":"56.95W"}
{"date":"2010-01-01","average_temperature":"28.064","city":"Maracaibo","latitude":"10.45N","longitude":"71.18W"}
{"date":"2012-05-01","average_temperature":"19.891","city":"Maringá","latitude":"23.31S","longitude":"51.55W"}
{"date":"2011-06-01","average_temperature":"25.772","city":"Mashhad","latitude":"36.17N","longitude":"59.67E"}
{"date":"2013-04-01","average_temperature":"24.241","city":"Masjed E Soleyman","latitude":"31.35N","longitude":"49.01E"}
{"date":"2010-08-01","average_temperature":"24.706000000000003","city":"Mataró","latitude":"40.99N","longitude":"2.13E"}
{"date":"2010-01-01","average_temperature":"26.71","city":"Maturín","latitude":"10.45N","longitude":"63.00W"}
{"date":"2010-10-01","average_temperature":"27.665","city":"Maturín","latitude":"10.45N","longitude":"63.00W"}
{"date":"2011-08-01","average_temperature":"27.545","city":"Maturín","latitude":"10.45N","longitude":"63.00W"}
{"date":"2013-01-01","average_temperature":"0.3400000000000001","city":"Maykop","latitude":"44.20N","longitude":"40.25E"}
{"date":"2010-04-01","average_temperature":"27.425","city":"Mejicanos","latitude":"13.66N","longitude":"90.00W"}
{"date":"2012-12-01","average_temperature":"18.425","city":"Melbourne","latitude":"37.78S","longitude":"144.41E"}
{"date":"2010-12-01","average_temperature":"24.797","city":"Mendoza","latitude":"32.95S","longitude":"67.98W"}
{"date":"2012-12-01","average_temperature":"12.154000000000002","city":"Mersin","latitude":"36.17N","longitude":"33.81E"}
{"date":"2013-05-01","average_temperature":"22.035999999999998","city":"Mesquite","latitude":"32.95N","longitude":"96.70W"}
{"date":"2010-03-01","average_temperature":"-9.199","city":"Mezhdurechensk","latitude":"53.84N","longitude":"88.64E"}
{"date":"2010-09-01","average_temperature":"24.572","city":"Miandoab","latitude":"36.17N","longitude":"45.75E"}
{"date":"2011-10-01","average_temperature":"4.815","city":"Miass","latitude":"55.45N","longitude":"59.53E"}
{"date":"2012-02-01","average_temperature":"20.956999999999997","city":"Middelburg","latitude":"26.52S","longitude":"28.66E"}
{"date":"2013-09-01","average_temperature":"16.785999999999998","city":"Minneapolis","latitude":"45.81N","longitude":"93.46W"}
{"date":"2010-01-01","average_temperature":"-12.085","city":"Minsk","latitude":"53.84N","longitude":"28.64E"}
{"date":"2010-07-01","average_temperature":"29.344","city":"Miramar","latitude":"26.52N","longitude":"80.60W"}
{"date":"2010-02-01","average_temperature":"0.637","city":"Miskolc","latitude":"47.42N","longitude":"20.13E"}
{"date":"2012-11-01","average_temperature":"21.642","city":"Misratah","latitude":"32.95N","longitude":"14.36E"}
{"date":"2012-10-01","average_temperature":"19.558","city":"Mixco","latitude":"15.27N","longitude":"90.83W"}
{"date":"2010-01-01","average_temperature":"23.738000000000003","city":"Moji Das Cruzes","latitude":"23.31S","longitude":"46.31W"}
{"date":"2011-04-01","average_temperature":"26.889","city":"Mojokerto","latitude":"7.23S","longitude":"112.70E"}
{"date":"2011-01-01","average_temperature":"23.048000000000002","city":"Mokolo","latitude":"10.45N","longitude":"13.91E"}
{"date":"2011-12-01","average_temperature":"27.756","city":"Montería","latitude":"8.84N","longitude":"75.41W"}
{"date":"2013-03-01","average_temperature":"10.248","city":"Montgomery","latitude":"32.95N","longitude":"87.13W"}
{"date":"2011-10-01","average_temperature":"19.128","city":"Moreno Valley","latitude":"34.56N","longitude":"116.76W"}
{"date":"2012-01-01","average_temperature":"18.594","city":"Morvi","latitude":"23.31N","longitude":"70.78E"}
{"date":"2011-06-01","average_temperature":"27.708","city":"Mossoró","latitude":"5.63S","longitude":"37.13W"}
{"date":"2013-03-01","average_temperature":"29.867","city":"Mossoró","latitude":"5.63S","longitude":"37.13W"}
{"date":"2010-05-01","average_temperature":"9.978","city":"Mulhouse","latitude":"47.42N","longitude":"8.29E"}
{"date":"2010-12-01","average_temperature":"8.531","city":"Murcia","latitude":"37.78N","longitude":"2.03W"}
{"date":"2013-09-01","city":"Muridke","latitude":"31.35N","longitude":"73.51E"}
{"date":"2012-09-01","average_temperature":"22.101999999999997","city":"Musoma","latitude":"0.80S","longitude":"34.55E"}
{"date":"2012-07-01","average_temperature":"29.209","city":"Myingyan","latitude":"21.70N","longitude":"96.06E"}
{"date":"2012-11-01","average_temperature":"26.263","city":"Myingyan","latitude":"21.70N","longitude":"96.06E"}
{"date":"2010-06-01","average_temperature":"18.567999999999998","city":"Mytishchi","latitude":"55.45N","longitude":"36.85E"}
{"date":"2010-04-01","average_temperature":"11.769","city":"Nîmes","latitude":"44.20N","longitude":"4.47E"}
{"date":"2010-09-01","average_temperature":"16.637999999999998","city":"Nîmes","latitude":"44.20N","longitude":"4.47E"}
{"date":"2012-05-01","average_temperature":"25.674","city":"Nacala","latitude":"15.27S","longitude":"40.83E"}
{"date":"2011-02-01","average_temperature":"26.198","city":"Naga","latitude":"13.66N","longitude":"123.03E"}
{"date":"2012-06-01","average_temperature":"28.616","city":"Naga","latitude":"13.66N","longitude":"123.03E"}
{"date":"2012-06-01","average_temperature":"19.359","city":"Nagareyama","latitude":"36.17N","longitude":"139.23E"}
{"date":"2010-08-01","average_temperature":"15.697000000000001","city":"Nairobi","latitude":"0.80S","longitude":"36.16E"}
{"date":"2011-06-01","average_temperature":"16.393","city":"Nakuru","latitude":"0.80S","longitude":"36.16E"}
{"date":"2011-05-01","average_temperature":"15.477","city":"Nancy","latitude":"49.03N","longitude":"7.35E"}
{"date":"2011-08-01","average_temperature":"27.511999999999997","city":"Nandurbar","latitude":"21.70N","longitude":"73.56E"}
{"date":"2012-04-01","average_temperature":"22.414","city":"Nantou","latitude":"23.31N","longitude":"121.46E"}
{"date":"2013-01-01","average_temperature":"6.775","city":"Naples","latitude":"40.99N","longitude":"14.91E"}
{"date":"2012-03-01","average_temperature":"7.666","city":"Narita","latitude":"36.17N","longitude":"141.22E"}
{"date":"2011-11-01","average_temperature":"24.11","city":"Navadwip","latitude":"23.31N","longitude":"88.25E"}
{"date":"2012-04-01","average_temperature":"0.9549999999999996","city":"Nefteyugansk","latitude":"61.88N","longitude":"73.02E"}
{"date":"2011-11-01","average_temperature":"26.219","city":"Negombo","latitude":"7.23N","longitude":"80.27E"}
{"date":"2010-04-01","average_temperature":"25.788","city":"Neiva","latitude":"2.41N","longitude":"74.73W"}
{"date":"2010-09-01","average_temperature":"17.816000000000006","city":"Nelspruit","latitude":"24.92S","longitude":"30.15E"}
{"date":"2010-02-01","average_temperature":"13.738","city":"Netanya","latitude":"32.95N","longitude":"35.43E"}
{"date":"2010-09-01","average_temperature":"28.612","city":"New Delhi","latitude":"28.13N","longitude":"77.27E"}
{"date":"2010-10-01","average_temperature":"8.326","city":"Newcastle Upon Tyne","latitude":"55.45N","longitude":"2.83W"}
{"date":"2012-02-01","average_temperature":"6.329","city":"Newport News","latitude":"37.78N","longitude":"77.29W"}
{"date":"2010-10-01","average_temperature":"17.245","city":"Neyshabur","latitude":"36.17N","longitude":"59.67E"}
{"date":"2012-07-01","average_temperature":"17.525000000000002","city":"Nezahualcóyotl","latitude":"20.09N","longitude":"98.96W"}
{"date":"2011-03-01","average_temperature":"23.797","city":"Nha Trang","latitude":"12.05N","longitude":"108.49E"}
{"date":"2010-04-01","average_temperature":"9.02","city":"Niigata","latitude":"37.78N","longitude":"138.31E"}
{"date":"2011-05-01","average_temperature":"15.413","city":"Niigata","latitude":"37.78N","longitude":"138.31E"}
{"date":"2010-05-01","average_temperature":"10.363","city":"Nijmegen","latitude":"52.24N","longitude":"5.26E"}
{"date":"2011-05-01","average_temperature":"8.771","city":"Nizhnevartovsk","latitude":"60.27N","longitude":"77.84E"}
{"date":"2011-06-01","average_temperature":"16.785","city":"Nizhniy Novgorod","latitude":"57.05N","longitude":"42.79E"}
{"date":"2012-07-01","average_temperature":"20.264","city":"Nizhniy Tagil","latitude":"57.05N","longitude":"60.49E"}
{"date":"2010-11-01","average_temperature":"2.378","city":"Noginsk","latitude":"55.45N","longitude":"39.69E"}
{"date":"2010-12-01","average_temperature":"8.099","city":"North Las Vegas","latitude":"36.17N","longitude":"115.36W"}
{"date":"2012-05-01","average_temperature":"31.27","city":"Nouakchott","latitude":"18.48N","longitude":"15.21W"}
{"date":"2011-05-01","average_temperature":"19.081","city":"Nova Friburgo","latitude":"21.70S","longitude":"42.40W"}
{"date":"2012-11-01","average_temperature":"19.416","city":"Nuevo Laredo","latitude":"28.13N","longitude":"99.09W"}
{"date":"2012-04-01","average_temperature":"8.870000000000003","city":"Nuremberg","latitude":"49.03N","longitude":"12.24E"}
{"date":"2012-10-01","average_temperature":"24.949","city":"Nzérékoré","latitude":"7.23N","longitude":"8.92W"}
{"date":"2010-10-01","average_temperature":"3.298","city":"Obninsk","latitude":"55.45N","longitude":"36.85E"}
{"date":"2012-05-01","average_temperature":"30.075","city":"Obregon","latitude":"28.13N","longitude":"110.00W"}
{"date":"2010-12-01","average_temperature":"14.338","city":"Oceanside","latitude":"32.95N","longitude":"117.77W"}
{"date":"2012-07-01","average_temperature":"17.246","city":"Odense","latitude":"55.45N","longitude":"11.34E"}
{"date":"2011-08-01","average_temperature":"27.376","city":"Ogaki","latitude":"34.56N","longitude":"136.22E"}
{"date":"2010-09-01","average_temperature":"29.795","city":"Okara","latitude":"31.35N","longitude":"73.51E"}
{"date":"2012-04-01","average_temperature":"15.523","city":"Olathe","latitude":"39.38N","longitude":"95.72W"}
{"date":"2012-12-01","average_temperature":"3.809","city":"Oldham","latitude":"53.84N","longitude":"1.36W"}
{"date":"2012-07-01","average_temperature":"26.959","city":"Olongapo","latitude":"15.27N","longitude":"120.83E"}
{"date":"2011-08-01","average_temperature":"19.567999999999998","city":"Orsk","latitude":"50.63N","longitude":"59.58E"}
{"date":"2012-03-01","average_temperature":"5.7970000000000015","city":"Osmaniye","latitude":"37.78N","longitude":"36.61E"}
{"date":"2011-08-01","average_temperature":"4.463","city":"Osorno","latitude":"40.99S","longitude":"72.43W"}
{"date":"2013-02-01","average_temperature":"-0.379","city":"Ostrava","latitude":"50.63N","longitude":"19.01E"}
{"date":"2011-12-01","average_temperature":"24.918000000000006","city":"Ouagadougou","latitude":"12.05N","longitude":"1.64W"}
{"date":"2013-08-01","average_temperature":"25.278","city":"Owerri","latitude":"5.63N","longitude":"6.46E"}
{"date":"2011-03-01","average_temperature":"29.572000000000006","city":"Owo","latitude":"7.23N","longitude":"5.68E"}
{"date":"2011-10-01","average_temperature":"15.565","city":"Paarl","latitude":"34.56S","longitude":"19.46E"}
{"date":"2010-04-01","average_temperature":"26.304","city":"Pacet","latitude":"7.23S","longitude":"107.84E"}
{"date":"2013-02-01","average_temperature":"0.667","city":"Paderborn","latitude":"52.24N","longitude":"7.88E"}
{"date":"2011-11-01","average_temperature":"21.924","city":"Pakpattan","latitude":"29.74N","longitude":"73.85E"}
{"date":"2010-03-01","average_temperature":"28.226","city":"Palanpur","latitude":"24.92N","longitude":"72.71E"}
{"date":"2010-11-01","average_temperature":"23.101000000000006","city":"Palanpur","latitude":"24.92N","longitude":"72.71E"}
{"date":"2011-08-01","average_temperature":"27.984","city":"Palembang","latitude":"2.41S","longitude":"105.27E"}
{"date":"2011-07-01","average_temperature":"18.065","city":"Palhoça","latitude":"28.13S","longitude":"48.18W"}
{"date":"2012-08-01","average_temperature":"31.076999999999998","city":"Pallavaram","latitude":"13.66N","longitude":"80.09E"}
{"date":"2013-04-01","average_temperature":"32.124","city":"Pallavaram","latitude":"13.66N","longitude":"80.09E"}
{"date":"2012-03-01","average_temperature":"23.686","city":"Palwal","latitude":"28.13N","longitude":"77.27E"}
{"date":"2012-04-01","average_temperature":"27.609","city":"Pamulang","latitude":"5.63S","longitude":"106.55E"}
{"date":"2011-02-01","average_temperature":"25.031","city":"Panvel","latitude":"18.48N","longitude":"72.68E"}
{"date":"2012-08-01","average_temperature":"20.02","city":"Paranaguá","latitude":"24.92S","longitude":"47.88W"}
{"date":"2013-05-01","average_temperature":"20.311","city":"Paranaguá","latitude":"24.92S","longitude":"47.88W"}
{"date":"2010-02-01","average_temperature":"25.133000000000003","city":"Parbhani","latitude":"20.09N","longitude":"76.78E"}
{"date":"2011-05-01","average_temperature":"15.574000000000002","city":"Paris","latitude":"49.03N","longitude":"2.45E"}
{"date":"2010-03-01","average_temperature":"7.084","city":"Parma","latitude":"44.20N","longitude":"11.18E"}
{"date":"2011-01-01","average_temperature":"2.838","city":"Parsabad","latitude":"39.38N","longitude":"47.86E"}
{"date":"2012-03-01","average_temperature":"27.691000000000006","city":"Pasarkemis","latitude":"5.63S","longitude":"106.55E"}
{"date":"2010-04-01","average_temperature":"18.93","city":"Passo Fundo","latitude":"28.13S","longitude":"51.82W"}
{"date":"2010-01-01","average_temperature":"15.489","city":"Pate","latitude":"24.92N","longitude":"120.59E"}
{"date":"2010-03-01","average_temperature":"6.715","city":"Paterson","latitude":"40.99N","longitude":"74.56W"}
{"date":"2010-06-01","average_temperature":"21.943","city":"Paterson","latitude":"40.99N","longitude":"74.56W"}
{"date":"2013-08-01","average_temperature":"22.976999999999997","city":"Pathankot","latitude":"32.95N","longitude":"75.64E"}
{"date":"2010-04-01","average_temperature":"27.035","city":"Pati","latitude":"7.23S","longitude":"111.08E"}
{"date":"2012-12-01","average_temperature":"14.807","city":"Patiala","latitude":"29.74N","longitude":"75.69E"}
{"date":"2013-06-01","average_temperature":"34.119","city":"Patiala","latitude":"29.74N","longitude":"75.69E"}
{"date":"2011-11-01","average_temperature":"27.114","city":"Pekalongan","latitude":"7.23S","longitude":"109.46E"}
{"date":"2010-01-01","average_temperature":"-5.3050000000000015","city":"Peking","latitude":"39.38N","longitude":"116.53E"}
{"date":"2013-09-01","city":"Peking","latitude":"39.38N","longitude":"116.53E"}
{"date":"2013-03-01","average_temperature":"18.188","city":"Peoria","latitude":"32.95N","longitude":"112.02W"}
{"date":"2011-05-01","average_temperature":"16.709","city":"Peoria","latitude":"40.99N","longitude":"89.47W"}
{"date":"2010-09-01","average_temperature":"17.740000000000006","city":"Perugia","latitude":"42.59N","longitude":"13.09E"}
{"date":"2011-11-01","average_temperature":"13.814","city":"Pescara","latitude":"42.59N","longitude":"15.27E"}
{"date":"2012-12-01","average_temperature":"18.195","city":"Petapa","latitude":"15.27N","longitude":"90.83W"}
{"date":"2010-01-01","average_temperature":"0.406","city":"Philadelphia","latitude":"39.38N","longitude":"74.91W"}
{"date":"2013-05-01","average_temperature":"16.637999999999998","city":"Philadelphia","latitude":"39.38N","longitude":"74.91W"}
{"date":"2013-04-01","average_temperature":"11.389000000000001","city":"Piatra Neamt","latitude":"47.42N","longitude":"27.24E"}
{"date":"2011-10-01","average_temperature":"22.421999999999997","city":"Pietersburg","latitude":"23.31S","longitude":"28.83E"}
{"date":"2012-07-01","average_temperature":"30.985000000000007","city":"Pilibhit","latitude":"28.13N","longitude":"79.09E"}
{"date":"2011-03-01","average_temperature":"8.976","city":"Pingdingshan","latitude":"34.56N","longitude":"112.86E"}
{"date":"2012-08-01","average_temperature":"28.191","city":"Pingtung","latitude":"23.31N","longitude":"119.71E"}
{"date":"2012-01-01","average_temperature":"-3.3560000000000003","city":"Ploiesti","latitude":"45.81N","longitude":"26.54E"}
{"date":"2011-07-01","average_temperature":"19.363","city":"Poços De Caldas","latitude":"21.70S","longitude":"45.87W"}
{"date":"2010-11-01","average_temperature":"2.3629999999999995","city":"Podolsk","latitude":"55.45N","longitude":"36.85E"}
{"date":"2010-06-01","average_temperature":"27.707","city":"Ponce","latitude":"18.48N","longitude":"65.92W"}
{"date":"2013-03-01","average_temperature":"27.686","city":"Pontianak","latitude":"0.80S","longitude":"110.09E"}
{"date":"2013-09-01","city":"Pontianak","latitude":"0.80S","longitude":"110.09E"}
{"date":"2010-04-01","average_temperature":"30.636","city":"Porbandar","latitude":"21.70N","longitude":"70.10E"}
{"date":"2010-05-01","average_temperature":"18.689","city":"Port Elizabeth","latitude":"34.56S","longitude":"25.30E"}
{"date":"2011-07-01","average_temperature":"14.824000000000002","city":"Port Elizabeth","latitude":"34.56S","longitude":"25.30E"}
{"date":"2011-02-01","average_temperature":"25.892","city":"Posadas","latitude":"28.13S","longitude":"55.45W"}
{"date":"2013-03-01","average_temperature":"23.065","city":"Pouso Alegre","latitude":"21.70S","longitude":"45.87W"}
{"date":"2012-04-01","average_temperature":"25.72","city":"Prabumulih","latitude":"4.02S","longitude":"103.66E"}
{"date":"2011-03-01","average_temperature":"5.209","city":"Prague","latitude":"50.63N","longitude":"13.94E"}
{"date":"2010-07-01","average_temperature":"18.354","city":"Praia Grande","latitude":"23.31S","longitude":"46.31W"}
{"date":"2013-03-01","average_temperature":"7.178999999999999","city":"Prato","latitude":"44.20N","longitude":"11.18E"}
{"date":"2013-02-01","average_temperature":"23.712","city":"Pretoria","latitude":"24.92S","longitude":"28.37E"}
{"date":"2011-05-01","average_temperature":"27.515","city":"Probolinggo","latitude":"7.23S","longitude":"112.70E"}
{"date":"2012-03-01","average_temperature":"-0.22299999999999984","city":"Pskov","latitude":"57.05N","longitude":"28.03E"}
{"date":"2010-05-01","average_temperature":"15.134","city":"Pueblo","latitude":"37.78N","longitude":"103.73W"}
{"date":"2012-01-01","average_temperature":"24.278","city":"Puerto Vallarta","latitude":"20.09N","longitude":"105.78W"}
{"date":"2010-02-01","average_temperature":"24.162","city":"Pune","latitude":"18.48N","longitude":"74.37E"}
{"date":"2012-07-01","average_temperature":"0.395","city":"Punta Arenas","latitude":"52.24S","longitude":"70.95W"}
{"date":"2012-08-01","average_temperature":"29.023000000000003","city":"Puqi","latitude":"29.74N","longitude":"114.46E"}
{"date":"2010-12-01","average_temperature":"18.202","city":"Puruliya","latitude":"23.31N","longitude":"86.50E"}
{"date":"2011-08-01","average_temperature":"26.695","city":"Purworejo","latitude":"7.23S","longitude":"112.70E"}
{"date":"2011-10-01","average_temperature":"23.44","city":"Qalyub","latitude":"29.74N","longitude":"31.38E"}
{"date":"2010-05-01","average_temperature":"18.879","city":"Qarchak","latitude":"36.17N","longitude":"51.71E"}
{"date":"2012-11-01","average_temperature":"8.649","city":"Qingdao","latitude":"36.17N","longitude":"121.33E"}
{"date":"2011-08-01","average_temperature":"16.705","city":"Quebec","latitude":"47.42N","longitude":"72.24W"}
{"date":"2010-11-01","average_temperature":"26.54","city":"Quelimane","latitude":"18.48S","longitude":"37.18E"}
{"date":"2010-01-01","average_temperature":"23.066999999999997","city":"Quevedo","latitude":"0.80S","longitude":"79.55W"}
{"date":"2010-02-01","average_temperature":"16.169","city":"Quilpue","latitude":"32.95S","longitude":"71.81W"}
{"date":"2012-01-01","average_temperature":"16.909000000000002","city":"Quito","latitude":"0.80S","longitude":"77.95W"}
{"date":"2010-09-01","average_temperature":"28.182","city":"Raigarh","latitude":"21.70N","longitude":"83.94E"}
{"date":"2012-01-01","average_temperature":"24.175","city":"Rajamahendri","latitude":"16.87N","longitude":"82.05E"}
{"date":"2010-08-01","average_temperature":"27.363000000000003","city":"Rancho Cucamonga","latitude":"34.56N","longitude":"116.76W"}
{"date":"2012-11-01","average_temperature":"-7.52","city":"Ranghulu","latitude":"47.42N","longitude":"124.34E"}
{"date":"2013-01-01","average_temperature":"4.188","city":"Ravenna","latitude":"44.20N","longitude":"11.18E"}
{"date":"2013-07-01","average_temperature":"18.027","city":"Regina","latitude":"50.63N","longitude":"105.21W"}
{"date":"2011-04-01","average_temperature":"12.726","city":"Remscheid","latitude":"50.63N","longitude":"6.34E"}
{"date":"2012-07-01","average_temperature":"17.6","city":"Resende","latitude":"21.70S","longitude":"44.13W"}
{"date":"2013-04-01","average_temperature":"-1.232","city":"Reykjavík","latitude":"65.09N","longitude":"21.06W"}
{"date":"2011-11-01","average_temperature":"10.627","city":"Rialto","latitude":"34.56N","longitude":"116.76W"}
{"date":"2013-04-01","average_temperature":"21.706","city":"Ribeirão Das Neves","latitude":"20.09S","longitude":"44.36W"}
{"date":"2010-10-01","average_temperature":"20.38","city":"Richards Bay","latitude":"28.13S","longitude":"31.82E"}
{"date":"2012-04-01","average_temperature":"12.847000000000001","city":"Rimini","latitude":"44.20N","longitude":"13.42E"}
{"date":"2010-10-01","average_temperature":"23.131","city":"Rio Claro","latitude":"21.70S","longitude":"47.60W"}
{"date":"2011-02-01","average_temperature":"22.566","city":"Rishra","latitude":"23.31N","longitude":"88.25E"}
{"date":"2012-08-01","average_temperature":"37.143","city":"Riyadh","latitude":"24.92N","longitude":"46.11E"}
{"date":"2012-11-01","average_temperature":"21.304","city":"Riyadh","latitude":"24.92N","longitude":"46.11E"}
{"date":"2010-10-01","average_temperature":"22.315","city":"São João De Meriti","latitude":"23.31S","longitude":"42.82W"}
{"date":"2011-04-01","average_temperature":"26.131","city":"São João De Meriti","latitude":"23.31S","longitude":"42.82W"}
{"date":"2010-01-01","average_temperature":"9.763","city":"Sabadell","latitude":"40.99N","longitude":"2.13E"}
{"date":"2010-12-01","average_temperature":"15.674000000000001","city":"Sabratah","latitude":"32.95N","longitude":"12.45E"}
{"date":"2010-07-01","average_temperature":"19.191","city":"Sacramento","latitude":"37.78N","longitude":"122.03W"}
{"date":"2012-09-01","average_temperature":"29.956","city":"Sahiwal","latitude":"31.35N","longitude":"73.51E"}
{"date":"2010-05-01","average_temperature":"9.685","city":"Saint Helens","latitude":"53.84N","longitude":"4.09W"}
{"date":"2010-08-01","average_temperature":"21.974","city":"Saint Paul","latitude":"45.81N","longitude":"93.46W"}
{"date":"2011-12-01","average_temperature":"2.647","city":"Saint Petersburg","latitude":"60.27N","longitude":"29.19E"}
{"date":"2012-08-01","average_temperature":"27.701","city":"Sakai","latitude":"34.56N","longitude":"136.22E"}
{"date":"2012-06-01","average_temperature":"18.404","city":"Sakura","latitude":"36.17N","longitude":"141.22E"}
{"date":"2010-12-01","average_temperature":"12.468","city":"Salamanca","latitude":"20.09N","longitude":"100.66W"}
{"date":"2012-01-01","average_temperature":"4.340999999999998","city":"Salamanca","latitude":"40.99N","longitude":"6.39W"}
{"date":"2012-09-01","average_temperature":"21.343000000000004","city":"Salerno","latitude":"40.99N","longitude":"14.91E"}
{"date":"2010-03-01","average_temperature":"14.257","city":"Saltillo","latitude":"24.92N","longitude":"101.08W"}
{"date":"2012-07-01","average_temperature":"10.634","city":"Salto","latitude":"31.35S","longitude":"58.43W"}
{"date":"2012-11-01","average_temperature":"23.877","city":"Salto","latitude":"31.35S","longitude":"58.43W"}
{"date":"2012-02-01","average_temperature":"-0.6460000000000004","city":"Samarkand","latitude":"39.38N","longitude":"66.59E"}
{"date":"2013-09-01","city":"Samarkand","latitude":"39.38N","longitude":"66.59E"}
{"date":"2010-12-01","average_temperature":"15.914000000000001","city":"Sambhal","latitude":"28.13N","longitude":"79.09E"}
{"date":"2011-09-01","average_temperature":"18.811","city":"San Juan Del Río","latitude":"20.09N","longitude":"100.66W"}
{"date":"2010-05-01","average_temperature":"27.199","city":"San Nicolás De Los Garza","latitude":"26.52N","longitude":"100.30W"}
{"date":"2010-02-01","average_temperature":"28.065","city":"San Pédro","latitude":"5.63N","longitude":"6.46W"}
{"date":"2011-08-01","average_temperature":"8.098999999999998","city":"San Rafael","latitude":"34.56S","longitude":"68.11W"}
{"date":"2010-12-01","average_temperature":"14.338","city":"Santa Ana","latitude":"32.95N","longitude":"117.77W"}
{"date":"2010-01-01","average_temperature":"18.659","city":"Santa Cruz De Tenerife","latitude":"28.13N","longitude":"15.45W"}
{"date":"2012-06-01","average_temperature":"20.333","city":"Santa Luzia","latitude":"20.09S","longitude":"44.36W"}
{"date":"2012-10-01","average_temperature":"26.701","city":"Santa Marta","latitude":"10.45N","longitude":"74.45W"}
{"date":"2013-07-01","average_temperature":"20.565","city":"Santo Domingo","latitude":"0.80S","longitude":"79.55W"}
{"date":"2012-09-01","average_temperature":"14.241","city":"Seattle","latitude":"47.42N","longitude":"121.97W"}
{"date":"2010-03-01","average_temperature":"29.802","city":"Selam","latitude":"12.05N","longitude":"78.90E"}
{"date":"2013-08-01","average_temperature":"26.95","city":"Semarang","latitude":"7.23S","longitude":"111.08E"}
{"date":"2011-06-01","average_temperature":"27.709","city":"Sepatan","latitude":"5.63S","longitude":"106.55E"}
{"date":"2011-06-01","average_temperature":"21.64","city":"Setúbal","latitude":"39.38N","longitude":"8.32W"}
{"date":"2012-09-01","average_temperature":"23.919","city":"Shangrao","latitude":"28.13N","longitude":"117.27E"}
{"date":"2010-11-01","average_temperature":"25.436999999999998","city":"Shantipur","latitude":"23.31N","longitude":"88.25E"}
{"date":"2012-11-01","average_temperature":"19.217","city":"Shilong","latitude":"23.31N","longitude":"114.47E"}
{"date":"2010-02-01","average_temperature":"23.799000000000003","city":"Shinyanga","latitude":"4.02S","longitude":"32.95E"}
{"date":"2012-06-01","average_temperature":"29.813000000000002","city":"Shiraz","latitude":"29.74N","longitude":"51.69E"}
{"date":"2012-11-01","average_temperature":"-1.543","city":"Shizuishan","latitude":"39.38N","longitude":"106.13E"}
{"date":"2012-12-01","average_temperature":"10.648","city":"Shreveport","latitude":"32.95N","longitude":"92.87W"}
{"date":"2011-05-01","average_temperature":"34.634","city":"Sikar","latitude":"28.13N","longitude":"75.45E"}
{"date":"2011-02-01","average_temperature":"27.753","city":"Sinnar","latitude":"13.66N","longitude":"33.85E"}
{"date":"2013-03-01","average_temperature":"30.291","city":"Sinnar","latitude":"13.66N","longitude":"33.85E"}
{"date":"2012-12-01","average_temperature":"6.3900000000000015","city":"Siverek","latitude":"37.78N","longitude":"38.64E"}
{"date":"2012-02-01","average_temperature":"-4.19","city":"Skopje","latitude":"42.59N","longitude":"21.82E"}
{"date":"2011-09-01","average_temperature":"29.235","city":"Sokoto","latitude":"13.66N","longitude":"5.78E"}
{"date":"2011-03-01","average_temperature":"-6.9750000000000005","city":"Solikamsk","latitude":"60.27N","longitude":"58.38E"}
{"date":"2013-05-01","average_temperature":"7.176","city":"Solikamsk","latitude":"60.27N","longitude":"58.38E"}
{"date":"2010-10-01","average_temperature":"9.193999999999999","city":"Solingen","latitude":"50.63N","longitude":"6.34E"}
{"date":"2011-10-01","average_temperature":"11.751","city":"South Bend","latitude":"40.99N","longitude":"85.21W"}
{"date":"2010-07-01","average_temperature":"27.748","city":"Spanish Town","latitude":"18.48N","longitude":"77.75W"}
{"date":"2012-05-01","average_temperature":"13.32","city":"Springs","latitude":"26.52S","longitude":"28.66E"}
{"date":"2012-04-01","average_temperature":"13.651","city":"Stara Zagora","latitude":"42.59N","longitude":"26.18E"}
{"date":"2012-04-01","average_temperature":"4.26","city":"Stavanger","latitude":"58.66N","longitude":"6.15E"}
{"date":"2013-07-01","average_temperature":"17.02","city":"Stockholm","latitude":"58.66N","longitude":"18.46E"}
{"date":"2012-01-01","average_temperature":"25.043000000000003","city":"Subang","latitude":"7.23S","longitude":"107.84E"}
{"date":"2011-02-01","average_temperature":"-15.531000000000002","city":"Suihua","latitude":"47.42N","longitude":"126.71E"}
{"date":"2010-09-01","average_temperature":"17.862000000000005","city":"Sujiatun","latitude":"40.99N","longitude":"123.55E"}
{"date":"2010-03-01","average_temperature":"31.116999999999997","city":"Suleja","latitude":"8.84N","longitude":"7.30E"}
{"date":"2012-03-01","average_temperature":"30.613000000000003","city":"Suleja","latitude":"8.84N","longitude":"7.30E"}
{"date":"2013-01-01","average_temperature":"26.911","city":"Suleja","latitude":"8.84N","longitude":"7.30E"}
{"date":"2013-08-01","average_temperature":"20.035999999999998","city":"Sumy","latitude":"50.63N","longitude":"34.23E"}
{"date":"2011-06-01","average_temperature":"28.427","city":"Sunggal","latitude":"4.02N","longitude":"98.84E"}
{"date":"2011-05-01","average_temperature":"18.853","city":"Sunrise Manor","latitude":"36.17N","longitude":"115.36W"}
{"date":"2012-07-01","average_temperature":"29.734","city":"Sunrise Manor","latitude":"36.17N","longitude":"115.36W"}
{"date":"2010-10-01","average_temperature":"27.654","city":"Surabaya","latitude":"7.23S","longitude":"112.70E"}
{"date":"2012-05-01","average_temperature":"27.680000000000003","city":"Surabaya","latitude":"7.23S","longitude":"112.70E"}
{"date":"2010-04-01","average_temperature":"32.616","city":"Surat","latitude":"21.70N","longitude":"73.56E"}
{"date":"2012-05-01","average_temperature":"32.184","city":"Surat","latitude":"21.70N","longitude":"73.56E"}
{"date":"2013-03-01","average_temperature":"27.196","city":"Surendranagar","latitude":"23.31N","longitude":"72.52E"}
{"date":"2010-11-01","average_temperature":"21.871","city":"Surt","latitude":"31.35N","longitude":"16.96E"}
{"date":"2011-12-01","average_temperature":"15.677","city":"Surt","latitude":"31.35N","longitude":"16.96E"}
{"date":"2013-01-01","average_temperature":"22.503","city":"Suzano","latitude":"23.31S","longitude":"46.31W"}
{"date":"2010-05-01","average_temperature":"20.826999999999998","city":"Suzhou","latitude":"31.35N","longitude":"120.63E"}
{"date":"2012-08-01","average_temperature":"15.936","city":"Swansea","latitude":"52.24N","longitude":"5.26W"}
{"date":"2013-08-01","average_temperature":"23.642","city":"Szeged","latitude":"45.81N","longitude":"19.62E"}
{"date":"2010-12-01","average_temperature":"1.974","city":"Taganrog","latitude":"47.42N","longitude":"39.08E"}
{"date":"2013-05-01","average_temperature":"27.555999999999997","city":"Tagum","latitude":"7.23N","longitude":"125.68E"}
{"date":"2013-06-01","average_temperature":"26.908","city":"Taichung","latitude":"24.92N","longitude":"120.59E"}
{"date":"2012-11-01","average_temperature":"22.411","city":"Tainan","latitude":"23.31N","longitude":"119.71E"}
{"date":"2012-11-01","average_temperature":"21.322000000000006","city":"Taipei","latitude":"24.92N","longitude":"122.36E"}
{"date":"2012-09-01","average_temperature":"14.864","city":"Taiyuan","latitude":"37.78N","longitude":"111.86E"}
{"date":"2010-05-01","average_temperature":"20.412","city":"Taizhou","latitude":"32.95N","longitude":"119.68E"}
{"date":"2010-11-01","average_temperature":"9.515","city":"Takasaki","latitude":"36.17N","longitude":"139.23E"}
{"date":"2011-05-01","average_temperature":"23.305999999999997","city":"Tali","latitude":"24.92N","longitude":"120.59E"}
{"date":"2012-09-01","average_temperature":"26.205","city":"Tali","latitude":"24.92N","longitude":"120.59E"}
{"date":"2010-10-01","average_temperature":"26.112","city":"Talkha","latitude":"31.35N","longitude":"32.04E"}
{"date":"2011-06-01","average_temperature":"28.095","city":"Tamale","latitude":"8.84N","longitude":"0.81W"}
{"date":"2010-02-01","average_temperature":"27.568","city":"Tambun","latitude":"5.63S","longitude":"106.55E"}
{"date":"2010-02-01","average_temperature":"12.533","city":"Tampa","latitude":"28.13N","longitude":"82.73W"}
{"date":"2012-09-01","average_temperature":"27.076","city":"Tanete","latitude":"5.63S","longitude":"119.46E"}
{"date":"2012-12-01","average_temperature":"27.639","city":"Tanga","latitude":"5.63S","longitude":"38.74E"}
{"date":"2010-06-01","average_temperature":"25.254","city":"Tanshui","latitude":"24.92N","longitude":"120.59E"}
{"date":"2010-08-01","average_temperature":"25.641","city":"Tarsus","latitude":"37.78N","longitude":"34.58E"}
{"date":"2012-11-01","average_temperature":"3.654","city":"Tashkent","latitude":"40.99N","longitude":"70.30E"}
{"date":"2011-04-01","average_temperature":"26.422","city":"Tegal","latitude":"7.23S","longitude":"109.46E"}
{"date":"2012-11-01","average_temperature":"27.601999999999997","city":"Tegal","latitude":"7.23S","longitude":"109.46E"}
{"date":"2010-08-01","average_temperature":"20.545","city":"Tehuacán","latitude":"18.48N","longitude":"98.03W"}
{"date":"2010-09-01","average_temperature":"25.901","city":"Teshie","latitude":"5.63N","longitude":"0.00W"}
{"date":"2010-06-01","average_temperature":"28.881","city":"Thana","latitude":"18.48N","longitude":"72.68E"}
{"date":"2013-03-01","average_temperature":"26.301","city":"Thana","latitude":"18.48N","longitude":"72.68E"}
{"date":"2010-12-01","average_temperature":"19.361","city":"Thanh Hóa","latitude":"20.09N","longitude":"105.78E"}
{"date":"2012-02-01","average_temperature":"27.409000000000002","city":"Thanjavur","latitude":"10.45N","longitude":"79.36E"}
{"date":"2013-06-01","average_temperature":"28.616","city":"Thanyaburi","latitude":"13.66N","longitude":"101.56E"}
{"date":"2013-02-01","average_temperature":"1.5589999999999995","city":"The Hague","latitude":"52.24N","longitude":"5.26E"}
{"date":"2012-05-01","average_temperature":"28.489","city":"Thiruvananthapuram","latitude":"8.84N","longitude":"77.03E"}
{"date":"2010-09-01","average_temperature":"26.915","city":"Thrissur","latitude":"10.45N","longitude":"76.09E"}
{"date":"2011-09-01","average_temperature":"19.689","city":"Tianjin","latitude":"39.38N","longitude":"116.53E"}
{"date":"2011-03-01","average_temperature":"2.6069999999999998","city":"Tighina","latitude":"47.42N","longitude":"29.61E"}
{"date":"2010-12-01","average_temperature":"-0.497","city":"Timisoara","latitude":"45.81N","longitude":"21.92E"}
{"date":"2012-06-01","average_temperature":"21.14","city":"Timisoara","latitude":"45.81N","longitude":"21.92E"}
{"date":"2011-10-01","average_temperature":"28.154","city":"Tiruchchirappalli","latitude":"10.45N","longitude":"79.36E"}
{"date":"2012-01-01","average_temperature":"26.395","city":"Tirunelveli","latitude":"8.84N","longitude":"77.03E"}
{"date":"2011-05-01","average_temperature":"30.395","city":"Titagarh","latitude":"23.31N","longitude":"88.25E"}
{"date":"2012-08-01","average_temperature":"23.046999999999997","city":"Tlaquepaque","latitude":"20.09N","longitude":"104.08W"}
{"date":"2011-02-01","average_temperature":"25.406","city":"Toamasina","latitude":"18.48S","longitude":"49.01E"}
{"date":"2012-09-01","average_temperature":"17.449","city":"Toledo","latitude":"40.99N","longitude":"83.08W"}
{"date":"2013-08-01","average_temperature":"22.476999999999997","city":"Toms River","latitude":"39.38N","longitude":"74.91W"}
{"date":"2010-06-01","average_temperature":"23.357","city":"Tongchuan","latitude":"34.56N","longitude":"108.97E"}
{"date":"2011-10-01","average_temperature":"9.385000000000002","city":"Toronto","latitude":"44.20N","longitude":"80.50W"}
{"date":"2013-01-01","average_temperature":"8.812999999999999","city":"Torrance","latitude":"34.56N","longitude":"118.70W"}
{"date":"2010-11-01","average_temperature":"6.327000000000001","city":"Torrejón De Ardoz","latitude":"40.99N","longitude":"4.26W"}
{"date":"2010-06-01","average_temperature":"22.647","city":"Tottori","latitude":"34.56N","longitude":"134.27E"}
{"date":"2012-02-01","average_temperature":"3.587","city":"Tottori","latitude":"34.56N","longitude":"134.27E"}
{"date":"2012-02-01","average_temperature":"6.728","city":"Toyokawa","latitude":"34.56N","longitude":"138.16E"}
{"date":"2010-05-01","average_temperature":"20.553","city":"Tunja","latitude":"5.63N","longitude":"72.65W"}
{"date":"2010-11-01","average_temperature":"8.061","city":"Tuzla","latitude":"44.20N","longitude":"17.89E"}
{"date":"2011-10-01","average_temperature":"22.904","city":"Uberaba","latitude":"20.09S","longitude":"47.77W"}
{"date":"2011-01-01","average_temperature":"23.588","city":"Uberlândia","latitude":"18.48S","longitude":"49.01W"}
{"date":"2010-09-01","average_temperature":"28.098000000000003","city":"Ubon Ratchathani","latitude":"15.27N","longitude":"104.17E"}
{"date":"2012-01-01","average_temperature":"24.879","city":"Udupi","latitude":"13.66N","longitude":"75.14E"}
{"date":"2011-01-01","average_temperature":"0.8170000000000001","city":"Ueda","latitude":"36.17N","longitude":"139.23E"}
{"date":"2011-02-01","average_temperature":"25.031","city":"Ulhasnagar","latitude":"18.48N","longitude":"72.68E"}
{"date":"2011-05-01","average_temperature":"10.243","city":"Uppsala","latitude":"60.27N","longitude":"16.22E"}
{"date":"2010-05-01","average_temperature":"7.8420000000000005","city":"Ust Ilimsk","latitude":"58.66N","longitude":"101.54E"}
{"date":"2011-11-01","average_temperature":"-14.4","city":"Ust Ilimsk","latitude":"58.66N","longitude":"101.54E"}
{"date":"2010-06-01","average_temperature":"24.495","city":"Várzea Grande","latitude":"15.27S","longitude":"55.83W"}
{"date":"2012-11-01","average_temperature":"24.105","city":"Vadodara","latitude":"21.70N","longitude":"73.56E"}
{"date":"2011-10-01","average_temperature":"9.703","city":"Vanadzor","latitude":"40.99N","longitude":"44.73E"}
{"date":"2012-10-01","average_temperature":"13.233","city":"Vanadzor","latitude":"40.99N","longitude":"44.73E"}
{"date":"2012-04-01","average_temperature":"7.239999999999998","city":"Vancouver","latitude":"49.03N","longitude":"122.45W"}
{"date":"2012-05-01","average_temperature":"18.874000000000002","city":"Varginha","latitude":"21.70S","longitude":"45.87W"}
{"date":"2011-09-01","average_temperature":"12.062000000000001","city":"Velikie Luki","latitude":"57.05N","longitude":"30.98E"}
{"date":"2011-12-01","average_temperature":"0.7010000000000005","city":"Velikiy Novgorod","latitude":"58.66N","longitude":"30.77E"}
{"date":"2012-01-01","average_temperature":"24.11","city":"Viamão","latitude":"29.74S","longitude":"51.69W"}
{"date":"2012-08-01","average_temperature":"20.831000000000003","city":"Vila Velha","latitude":"20.09S","longitude":"40.95W"}
{"date":"2010-08-01","average_temperature":"20.961","city":"Villa Nueva","latitude":"15.27N","longitude":"90.83W"}
{"date":"2012-04-01","average_temperature":"24.659000000000002","city":"Villavicencio","latitude":"4.02N","longitude":"73.13W"}
{"date":"2012-11-01","average_temperature":"4.6080000000000005","city":"Vinnytsya","latitude":"49.03N","longitude":"29.39E"}
{"date":"2012-03-01","average_temperature":"5.831","city":"Viransehir","latitude":"37.78N","longitude":"40.68E"}
{"date":"2011-11-01","average_temperature":"21.345","city":"Virginia","latitude":"28.13S","longitude":"26.36E"}
{"date":"2010-09-01","average_temperature":"26.753","city":"Visakhapatnam","latitude":"18.48N","longitude":"82.82E"}
{"date":"2011-08-01","average_temperature":"21.688000000000002","city":"Vitoria","latitude":"42.59N","longitude":"2.18W"}
{"date":"2011-08-01","average_temperature":"16.647000000000002","city":"Vologda","latitude":"58.66N","longitude":"40.00E"}
{"date":"2010-07-01","average_temperature":"12.252","city":"Waitakere","latitude":"36.17S","longitude":"175.03E"}
{"date":"2013-05-01","average_temperature":"27.28","city":"Warri","latitude":"5.63N","longitude":"6.46E"}
{"date":"2013-05-01","average_temperature":"15.642999999999999","city":"Warsaw","latitude":"52.24N","longitude":"21.02E"}
{"date":"2012-05-01","average_temperature":"15.929","city":"Waterbury","latitude":"40.99N","longitude":"72.43W"}
{"date":"2013-05-01","average_temperature":"10.809000000000001","city":"Watford","latitude":"52.24N","longitude":"0.00W"}
{"date":"2013-03-01","average_temperature":"3.4330000000000003","city":"Weihai","latitude":"37.78N","longitude":"122.03E"}
{"date":"2010-11-01","average_temperature":"6.742000000000001","city":"Weinan","latitude":"34.56N","longitude":"108.97E"}
{"date":"2011-07-01","average_temperature":"8.302","city":"Welkom","latitude":"28.13S","longitude":"26.36E"}
{"date":"2012-10-01","average_temperature":"19.985000000000007","city":"Welkom","latitude":"28.13S","longitude":"26.36E"}
{"date":"2012-11-01","average_temperature":"7.6869999999999985","city":"Wencheng","latitude":"37.78N","longitude":"122.03E"}
{"date":"2010-06-01","average_temperature":"15.665999999999999","city":"West Bromwich","latitude":"52.24N","longitude":"2.63W"}
{"date":"2012-01-01","average_temperature":"0.21499999999999986","city":"West Valley City","latitude":"40.99N","longitude":"112.90W"}
{"date":"2011-11-01","average_temperature":"21.371","city":"Westonaria","latitude":"26.52S","longitude":"26.87E"}
{"date":"2011-03-01","average_temperature":"19.733","city":"Witbank","latitude":"26.52S","longitude":"28.66E"}
{"date":"2012-09-01","average_temperature":"16.430999999999997","city":"Wollongong","latitude":"34.56S","longitude":"151.78E"}
{"date":"2011-09-01","average_temperature":"15.122","city":"Wroclaw","latitude":"50.63N","longitude":"16.48E"}
{"date":"2011-03-01","average_temperature":"9.013","city":"Wufeng","latitude":"28.13N","longitude":"104.55E"}
{"date":"2012-08-01","average_temperature":"27.87","city":"Wuning","latitude":"29.74N","longitude":"120.00E"}
{"date":"2012-11-01","average_temperature":"8.466000000000001","city":"Xiangfan","latitude":"32.95N","longitude":"112.02E"}
{"date":"2010-06-01","average_temperature":"25.368000000000002","city":"Xiantao","latitude":"29.74N","longitude":"112.62E"}
{"date":"2013-08-01","average_temperature":"18.849","city":"Xichang","latitude":"28.13N","longitude":"102.73E"}
{"date":"2011-12-01","average_temperature":"-6.0870000000000015","city":"Xinzhou","latitude":"37.78N","longitude":"111.86E"}
{"date":"2012-10-01","average_temperature":"18.14","city":"Xuanzhou","latitude":"31.35N","longitude":"118.74E"}
{"date":"2012-02-01","average_temperature":"2.219","city":"Xuchang","latitude":"34.56N","longitude":"112.86E"}
{"date":"2013-03-01","average_temperature":"12.194","city":"Yaizu","latitude":"34.56N","longitude":"138.16E"}
{"date":"2012-10-01","average_temperature":"0.08400000000000002","city":"Yakeshi","latitude":"49.03N","longitude":"120.00E"}
{"date":"2012-03-01","average_temperature":"21.565","city":"Yamunanagar","latitude":"29.74N","longitude":"77.54E"}
{"date":"2013-04-01","average_temperature":"2.458","city":"Yanji","latitude":"42.59N","longitude":"128.73E"}
{"date":"2010-12-01","average_temperature":"-15.521","city":"Yekaterinburg","latitude":"57.05N","longitude":"60.49E"}
{"date":"2010-08-01","average_temperature":"28.46","city":"Yingcheng","latitude":"31.35N","longitude":"113.09E"}
{"date":"2013-05-01","average_temperature":"22.712","city":"Yingzhong","latitude":"31.35N","longitude":"113.09E"}
{"date":"2011-10-01","average_temperature":"20.38","city":"Yokosuka","latitude":"34.56N","longitude":"140.11E"}
{"date":"2013-06-01","average_temperature":"21.62","city":"Yokosuka","latitude":"34.56N","longitude":"140.11E"}
{"date":"2011-05-01","average_temperature":"16.27","city":"Yonago","latitude":"36.17N","longitude":"133.26E"}
{"date":"2011-08-01","average_temperature":"21.275","city":"Yushu","latitude":"44.20N","longitude":"127.45E"}
{"date":"2012-10-01","average_temperature":"11.124","city":"Zagreb","latitude":"45.81N","longitude":"15.00E"}
{"date":"2013-03-01","average_temperature":"18.425","city":"Zamora","latitude":"20.09N","longitude":"102.37W"}
{"date":"2013-09-01","city":"Zanzibar","latitude":"5.63S","longitude":"38.74E"}
{"date":"2010-07-01","average_temperature":"22.783","city":"Zapopan","latitude":"20.09N","longitude":"104.08W"}
{"date":"2011-03-01","average_temperature":"31.119","city":"Zaria","latitude":"10.45N","longitude":"7.36E"}
{"date":"2010-01-01","average_temperature":"-17.847","city":"Zelenodolsk","latitude":"55.45N","longitude":"48.19E"}
{"date":"2010-07-01","average_temperature":"24.58","city":"Zelenograd","latitude":"55.45N","longitude":"36.85E"}
{"date":"2010-02-01","average_temperature":"14.511","city":"Zhangzhou","latitude":"24.92N","longitude":"117.04E"}
{"date":"2012-06-01","average_temperature":"22.32","city":"Zhaocheng","latitude":"37.78N","longitude":"120.00E"}
{"date":"2011-09-01","average_temperature":"27.398000000000003","city":"Zhaoqing","latitude":"23.31N","longitude":"112.72E"}
{"date":"2012-07-01","average_temperature":"25.737","city":"Zhezkazgan","latitude":"47.42N","longitude":"67.50E"}
{"date":"2011-05-01","average_temperature":"18.651","city":"Zhoucheng","latitude":"24.92N","longitude":"102.86E"}
{"date":"2010-11-01","average_temperature":"8.875","city":"Zhoucun","latitude":"36.17N","longitude":"117.35E"}
{"date":"2012-05-01","average_temperature":"21.311","city":"Zhuji","latitude":"29.74N","longitude":"120.00E"}
{"date":"2011-10-01","average_temperature":"18.204","city":"Zhuzhou","latitude":"28.13N","longitude":"113.64E"}
{"date":"2012-06-01","average_temperature":"25.956999999999997","city":"Zhuzhou","latitude":"28.13N","longitude":"113.64E"}
{"date":"2011-11-01","average_temperature":"4.067","city":"Zielona Gora","latitude":"52.24N","longitude":"15.77E"}
{"date":"2010-08-01","average_temperature":"16.912000000000006","city":"Zoetermeer","latitude":"52.24N","longitude":"5.26E"}
