{"date":"2013-01-01","average_temperature":"0.01100000000000001","city":"Abbotsford","latitude":"49.03N","longitude":"122.45W"}
{"date":"2012-04-01","average_temperature":"28.3","city":"Abengourou","latitude":"7.23N","longitude":"4.05W"}
{"date":"2010-08-01","average_temperature":"30.116999999999997","city":"Abha","latitude":"18.48N","longitude":"42.25E"}
{"date":"2010-01-01","average_temperature":"4.811","city":"Abilene","latitude":"32.95N","longitude":"100.53W"}
{"date":"2013-09-01","city":"Abohar","latitude":"29.74N","longitude":"73.85E"}
{"date":"2013-01-01","average_temperature":"26.911","city":"Abuja","latitude":"8.84N","longitude":"7.30E"}
{"date":"2012-01-01","average_temperature":"-22.15","city":"Acheng","latitude":"45.81N","longitude":"128.08E"}
{"date":"2011-08-01","average_temperature":"14.091","city":"Achinsk","latitude":"57.05N","longitude":"90.00E"}
{"date":"2011-12-01","average_temperature":"11.744000000000002","city":"Adana","latitude":"36.17N","longitude":"35.80E"}
{"date":"2011-09-01","average_temperature":"25.686999999999998","city":"Agboville","latitude":"5.63N","longitude":"4.84W"}
{"date":"2013-02-01","average_temperature":"28.791","city":"Agboville","latitude":"5.63N","longitude":"4.84W"}
{"date":"2012-03-01","average_temperature":"5.617000000000001","city":"Ageo","latitude":"36.17N","longitude":"139.23E"}
{"date":"2010-04-01","average_temperature":"19.636","city":"Aguascalientes","latitude":"21.70N","longitude":"102.98W"}
{"date":"2010-10-01","average_temperature":"28.217","city":"Ahmadpur East","latitude":"29.74N","longitude":"72.00E"}
{"date":"2011-07-01","average_temperature":"26.142","city":"Aizawl","latitude":"23.31N","longitude":"93.50E"}
{"date":"2011-08-01","average_temperature":"27.756","city":"Ajdabiya","latitude":"31.35N","longitude":"20.73E"}
{"date":"2012-02-01","average_temperature":"-0.5499999999999999","city":"Akita","latitude":"39.38N","longitude":"139.42E"}
{"date":"2012-09-01","average_temperature":"27.471999999999998","city":"Akola","latitude":"20.09N","longitude":"76.78E"}
{"date":"2012-12-01","average_temperature":"2.938","city":"Akron","latitude":"40.99N","longitude":"80.95W"}
{"date":"2011-12-01","average_temperature":"26.862","city":"Alagoinhas","latitude":"12.05S","longitude":"37.81W"}
{"date":"2010-09-01","average_temperature":"19.81","city":"Albacete","latitude":"39.38N","longitude":"2.08W"}
{"date":"2013-01-01","average_temperature":"13.755999999999998","city":"Aligarh","latitude":"28.13N","longitude":"77.27E"}
{"date":"2011-07-01","average_temperature":"24.564","city":"Allentown","latitude":"40.99N","longitude":"74.56W"}
{"date":"2012-07-01","average_temperature":"17.329","city":"Almere","latitude":"52.24N","longitude":"5.26E"}
{"date":"2012-09-01","average_temperature":"30.853","city":"Ambattur","latitude":"13.66N","longitude":"80.09E"}
{"date":"2010-04-01","average_temperature":"12.724","city":"Amol","latitude":"36.17N","longitude":"51.71E"}
{"date":"2011-06-01","average_temperature":"30.304000000000002","city":"Amravati","latitude":"21.70N","longitude":"77.02E"}
{"date":"2012-04-01","average_temperature":"23.682","city":"Anápolis","latitude":"16.87S","longitude":"48.56W"}
{"date":"2012-05-01","average_temperature":"21.178","city":"Anápolis","latitude":"16.87S","longitude":"48.56W"}
{"date":"2010-04-01","average_temperature":"-3.377","city":"Angarsk","latitude":"52.24N","longitude":"105.11E"}
{"date":"2013-01-01","average_temperature":"25.497","city":"Angeles","latitude":"15.27N","longitude":"120.83E"}
{"date":"2012-06-01","average_temperature":"20.916","city":"Ankara","latitude":"39.38N","longitude":"33.29E"}
{"date":"2010-02-01","average_temperature":"6.447","city":"Anqing","latitude":"31.35N","longitude":"116.86E"}
{"date":"2010-11-01","average_temperature":"1.222","city":"Anshan","latitude":"40.99N","longitude":"123.55E"}
{"date":"2011-03-01","average_temperature":"28.688000000000002","city":"Anyama","latitude":"5.63N","longitude":"4.84W"}
{"date":"2011-04-01","average_temperature":"26.822","city":"Aracaju","latitude":"10.45S","longitude":"36.82W"}
{"date":"2010-10-01","average_temperature":"23.131","city":"Araraquara","latitude":"21.70S","longitude":"47.60W"}
{"date":"2012-04-01","average_temperature":"26.042","city":"Araruama","latitude":"23.31S","longitude":"42.82W"}
{"date":"2012-12-01","average_temperature":"5.232","city":"Ardabil","latitude":"37.78N","longitude":"48.81E"}
{"date":"2010-09-01","average_temperature":"17.157","city":"Arica","latitude":"18.48S","longitude":"70.99W"}
{"date":"2012-04-01","average_temperature":"25.644","city":"Arjawinangun","latitude":"7.23S","longitude":"107.84E"}
{"date":"2013-09-01","city":"Arzamas","latitude":"55.45N","longitude":"42.52E"}
{"date":"2010-08-01","average_temperature":"18.667","city":"Asunción","latitude":"24.92S","longitude":"58.52W"}
{"date":"2011-04-01","average_temperature":"23.666","city":"Asunción","latitude":"24.92S","longitude":"58.52W"}
{"date":"2012-03-01","average_temperature":"17.4","city":"Asyut","latitude":"26.52N","longitude":"30.45E"}
{"date":"2013-05-01","average_temperature":"16.756999999999998","city":"Atsugi","latitude":"36.17N","longitude":"139.23E"}
{"date":"2012-10-01","average_temperature":"6.0790000000000015","city":"Augsburg","latitude":"47.42N","longitude":"10.66E"}
{"date":"2013-03-01","average_temperature":"-0.946","city":"Augsburg","latitude":"47.42N","longitude":"10.66E"}
{"date":"2011-09-01","average_temperature":"17.357","city":"Aurora","latitude":"40.99N","longitude":"87.34W"}
{"date":"2011-10-01","average_temperature":"21.404","city":"Austin","latitude":"29.74N","longitude":"97.85W"}
{"date":"2010-12-01","average_temperature":"24.689","city":"Avadi","latitude":"13.66N","longitude":"80.09E"}
{"date":"2013-07-01","average_temperature":"26.086","city":"Awka","latitude":"5.63N","longitude":"6.46E"}
{"date":"2010-08-01","average_temperature":"26.378","city":"Babol","latitude":"36.17N","longitude":"51.71E"}
{"date":"2011-07-01","average_temperature":"26.919","city":"Bacoor","latitude":"15.27N","longitude":"120.83E"}
{"date":"2011-11-01","average_temperature":"21.924","city":"Bahawalnagar","latitude":"29.74N","longitude":"73.85E"}
{"date":"2013-08-01","average_temperature":"9.981","city":"Bahia Blanca","latitude":"39.38S","longitude":"62.43W"}
{"date":"2013-04-01","average_temperature":"11.856000000000002","city":"Baia Mare","latitude":"47.42N","longitude":"22.50E"}
{"date":"2011-06-01","average_temperature":"22.037","city":"Baku","latitude":"40.99N","longitude":"48.99E"}
{"date":"2012-08-01","average_temperature":"24.918000000000003","city":"Bandar E Anzali","latitude":"37.78N","longitude":"48.81E"}
{"date":"2012-10-01","average_temperature":"27.099","city":"Bandar Maharani","latitude":"2.41N","longitude":"102.05E"}
{"date":"2010-12-01","average_temperature":"18.202","city":"Bankura","latitude":"23.31N","longitude":"86.50E"}
{"date":"2012-03-01","average_temperature":"27.212","city":"Banyuwangi","latitude":"8.84S","longitude":"114.32E"}
{"date":"2012-09-01","average_temperature":"25.715","city":"Banyuwangi","latitude":"8.84S","longitude":"114.32E"}
{"date":"2012-11-01","average_temperature":"24.079","city":"Baripada","latitude":"21.70N","longitude":"87.40E"}
{"date":"2013-05-01","average_temperature":"18.377","city":"Barra Mansa","latitude":"21.70S","longitude":"44.13W"}
{"date":"2012-02-01","average_temperature":"27.529","city":"Barranquilla","latitude":"10.45N","longitude":"74.45W"}
{"date":"2011-02-01","average_temperature":"25.421999999999997","city":"Barreiras","latitude":"12.05S","longitude":"44.38W"}
{"date":"2012-11-01","average_temperature":"4.335","city":"Basel","latitude":"47.42N","longitude":"8.29E"}
{"date":"2012-08-01","average_temperature":"29.680999999999997","city":"Basti","latitude":"26.52N","longitude":"82.39E"}
{"date":"2013-06-01","average_temperature":"24.694000000000003","city":"Bata","latitude":"2.41N","longitude":"10.45E"}
{"date":"2011-01-01","average_temperature":"23.305999999999997","city":"Bauchi","latitude":"10.45N","longitude":"10.64E"}
{"date":"2013-08-01","average_temperature":"21.449","city":"Bauru","latitude":"21.70S","longitude":"49.33W"}
{"date":"2011-03-01","average_temperature":"25.323","city":"Bayamo","latitude":"20.09N","longitude":"76.78W"}
{"date":"2013-03-01","average_temperature":"25.159","city":"Bayamo","latitude":"20.09N","longitude":"76.78W"}
{"date":"2013-04-01","average_temperature":"17.840999999999994","city":"Bayrut","latitude":"34.56N","longitude":"35.03E"}
{"date":"2010-05-01","average_temperature":"36.76","city":"Beawar","latitude":"26.52N","longitude":"73.43E"}
{"date":"2010-09-01","average_temperature":"23.779","city":"Beira","latitude":"20.09S","longitude":"34.12E"}
{"date":"2011-03-01","average_temperature":"27.9","city":"Belgaum","latitude":"15.27N","longitude":"74.17E"}
{"date":"2010-05-01","average_temperature":"15.878","city":"Belgrade","latitude":"44.20N","longitude":"20.12E"}
{"date":"2011-11-01","average_temperature":"13.158","city":"Bengbu","latitude":"32.95N","longitude":"117.77E"}
{"date":"2012-08-01","average_temperature":"26.511999999999997","city":"Benghazi","latitude":"32.95N","longitude":"20.11E"}
{"date":"2012-08-01","average_temperature":"12.859000000000002","city":"Benoni","latitude":"26.52S","longitude":"28.66E"}
{"date":"2012-06-01","average_temperature":"33.304","city":"Berbera","latitude":"10.45N","longitude":"45.00E"}
{"date":"2012-03-01","average_temperature":"11.503","city":"Berkeley","latitude":"37.78N","longitude":"122.03W"}
{"date":"2011-06-01","average_temperature":"18.705","city":"Berlin","latitude":"52.24N","longitude":"13.14E"}
{"date":"2012-12-01","average_temperature":"23.589000000000002","city":"Bertoua","latitude":"4.02N","longitude":"13.66E"}
{"date":"2010-07-01","average_temperature":"20.407","city":"Besançon","latitude":"47.42N","longitude":"5.92E"}
{"date":"2011-07-01","average_temperature":"16.354","city":"Besançon","latitude":"47.42N","longitude":"5.92E"}
{"date":"2011-03-01","average_temperature":"27.394","city":"Bhadreswar","latitude":"23.31N","longitude":"88.25E"}
{"date":"2010-02-01","average_temperature":"24.338","city":"Bharuch","latitude":"21.70N","longitude":"73.56E"}
{"date":"2011-08-01","average_temperature":"30.178","city":"Bhiwani","latitude":"28.13N","longitude":"75.45E"}
{"date":"2010-10-01","average_temperature":"26.572","city":"Bhopal","latitude":"23.31N","longitude":"77.77E"}
{"date":"2012-12-01","average_temperature":"21.481","city":"Bhusawal","latitude":"21.70N","longitude":"75.29E"}
{"date":"2011-11-01","average_temperature":"24.495","city":"Bidar","latitude":"18.48N","longitude":"77.75E"}
{"date":"2012-05-01","average_temperature":"28.031999999999996","city":"Binjai","latitude":"4.02N","longitude":"98.84E"}
{"date":"2012-09-01","average_temperature":"26.026","city":"Birnin Kebbi","latitude":"12.05N","longitude":"4.93E"}
{"date":"2011-12-01","average_temperature":"19.789","city":"Bisho","latitude":"32.95S","longitude":"27.77E"}
{"date":"2012-02-01","average_temperature":"27.556","city":"Boa Vista","latitude":"2.41N","longitude":"60.27W"}
{"date":"2013-06-01","average_temperature":"27.421999999999997","city":"Boa Vista","latitude":"2.41N","longitude":"60.27W"}
{"date":"2010-11-01","average_temperature":"28.45","city":"Bohicon","latitude":"7.23N","longitude":"2.43E"}
{"date":"2010-01-01","average_temperature":"19.507","city":"Boksburg","latitude":"26.52S","longitude":"28.66E"}
{"date":"2010-01-01","average_temperature":"26.982","city":"Boma","latitude":"5.63S","longitude":"12.91E"}
{"date":"2011-04-01","average_temperature":"11.368","city":"Borujerd","latitude":"34.56N","longitude":"48.65E"}
{"date":"2010-08-01","average_temperature":"28.323","city":"Botad","latitude":"21.70N","longitude":"71.83E"}
{"date":"2012-07-01","average_temperature":"24.749","city":"Botosani","latitude":"47.42N","longitude":"27.24E"}
{"date":"2011-07-01","average_temperature":"22.319000000000003","city":"Brazzaville","latitude":"4.02S","longitude":"15.27E"}
{"date":"2010-06-01","average_temperature":"26.97","city":"Brebes","latitude":"7.23S","longitude":"109.46E"}
{"date":"2011-12-01","average_temperature":"5.722","city":"Breda","latitude":"52.24N","longitude":"5.26E"}
{"date":"2011-09-01","average_temperature":"14.754000000000001","city":"Brest","latitude":"52.24N","longitude":"23.65E"}
{"date":"2013-08-01","average_temperature":"15.384","city":"Brits","latitude":"24.92S","longitude":"28.37E"}
{"date":"2013-06-01","average_temperature":"17.599","city":"Brno","latitude":"49.03N","longitude":"17.14E"}
{"date":"2011-01-01","average_temperature":"3.8160000000000003","city":"Brugge","latitude":"50.63N","longitude":"3.80E"}
{"date":"2011-05-01","average_temperature":"15.056","city":"Brussels","latitude":"50.63N","longitude":"3.80E"}
{"date":"2013-08-01","average_temperature":"22.659000000000002","city":"Budapest","latitude":"47.42N","longitude":"20.13E"}
{"date":"2010-07-01","average_temperature":"22.846","city":"Buffalo","latitude":"42.59N","longitude":"78.55W"}
{"date":"2013-04-01","average_temperature":"7.152","city":"Buffalo","latitude":"42.59N","longitude":"78.55W"}
{"date":"2010-01-01","average_temperature":"27.803","city":"Bugama","latitude":"4.02N","longitude":"7.23E"}
{"date":"2011-07-01","average_temperature":"26.646","city":"Bugama","latitude":"4.02N","longitude":"7.23E"}
{"date":"2012-11-01","average_temperature":"20.973000000000003","city":"Bukavu","latitude":"2.41S","longitude":"28.13E"}
{"date":"2013-09-01","city":"Bukit Mertajam","latitude":"5.63N","longitude":"100.09E"}
{"date":"2011-03-01","average_temperature":"27.156999999999996","city":"Bulaon","latitude":"15.27N","longitude":"120.83E"}
{"date":"2012-07-01","average_temperature":"23.851","city":"Burbank","latitude":"34.56N","longitude":"118.70W"}
{"date":"2012-12-01","average_temperature":"8.712","city":"Burbank","latitude":"34.56N","longitude":"118.70W"}
{"date":"2010-08-01","average_temperature":"21.652","city":"Buzau","latitude":"45.81N","longitude":"26.54E"}
{"date":"2010-05-01","average_temperature":"24.838","city":"Cabo Frio","latitude":"23.31S","longitude":"42.82W"}
{"date":"2010-09-01","average_temperature":"13.349","city":"Calama","latitude":"23.31S","longitude":"69.03W"}
{"date":"2012-12-01","average_temperature":"18.183","city":"Calama","latitude":"23.31S","longitude":"69.03W"}
{"date":"2012-04-01","average_temperature":"24.526","city":"Cam Pha","latitude":"21.70N","longitude":"108.17E"}
{"date":"2012-10-01","average_temperature":"26.519","city":"Camagüey","latitude":"21.70N","longitude":"78.75W"}
{"date":"2012-09-01","average_temperature":"16.115","city":"Cambridge","latitude":"42.59N","longitude":"72.00W"}
{"date":"2011-07-01","average_temperature":"23.229","city":"Campina Grande","latitude":"7.23S","longitude":"36.49W"}
{"date":"2011-01-01","average_temperature":"22.313","city":"Cancún","latitude":"21.70N","longitude":"87.40W"}
{"date":"2011-12-01","average_temperature":"-0.9520000000000001","city":"Cangzhou","latitude":"37.78N","longitude":"115.93E"}
{"date":"2011-03-01","average_temperature":"22.455","city":"Canoas","latitude":"29.74S","longitude":"51.69W"}
{"date":"2013-08-01","average_temperature":"12.374","city":"Cape Town","latitude":"32.95S","longitude":"18.19E"}
{"date":"2012-01-01","average_temperature":"25.195","city":"Caruaru","latitude":"8.84S","longitude":"36.49W"}
{"date":"2013-04-01","average_temperature":"27.526","city":"Caucaia","latitude":"4.02S","longitude":"39.38W"}
{"date":"2011-02-01","average_temperature":"24.254","city":"Caxias Do Sul","latitude":"29.74S","longitude":"51.69W"}
{"date":"2011-06-01","average_temperature":"21.471999999999998","city":"Changchun","latitude":"44.20N","longitude":"125.22E"}
{"date":"2012-10-01","average_temperature":"25.908","city":"Chas","latitude":"23.31N","longitude":"86.50E"}
{"date":"2010-05-01","average_temperature":"14.85","city":"Cherepovets","latitude":"58.66N","longitude":"36.92E"}
{"date":"2010-02-01","average_temperature":"-0.895","city":"Cherkessk","latitude":"44.20N","longitude":"42.48E"}
{"date":"2012-06-01","average_temperature":"19.52","city":"Cherkessk","latitude":"44.20N","longitude":"42.48E"}
{"date":"2011-03-01","average_temperature":"-0.8470000000000001","city":"Chernihiv","latitude":"52.24N","longitude":"31.53E"}
{"date":"2011-11-01","average_temperature":"26.541","city":"Chetumal","latitude":"18.48N","longitude":"87.89W"}
{"date":"2011-03-01","average_temperature":"25.509","city":"Chhatarpur","latitude":"24.92N","longitude":"79.80E"}
{"date":"2010-01-01","average_temperature":"23.116","city":"Chiang Mai","latitude":"18.48N","longitude":"99.72E"}
{"date":"2011-06-01","average_temperature":"19.186","city":"Chincha Alta","latitude":"13.66S","longitude":"76.79W"}
{"date":"2010-02-01","average_temperature":"17.948999999999995","city":"Chishtian Mandi","latitude":"29.74N","longitude":"72.00E"}
{"date":"2010-01-01","average_temperature":"23.203000000000003","city":"Chitradurga","latitude":"13.66N","longitude":"76.79E"}
{"date":"2010-02-01","average_temperature":"21.208","city":"Chosica","latitude":"12.05S","longitude":"77.26W"}
{"date":"2010-06-01","average_temperature":"24.259","city":"Cincinnati","latitude":"39.38N","longitude":"85.32W"}
{"date":"2011-12-01","average_temperature":"25.669","city":"Ciparay","latitude":"7.23S","longitude":"107.84E"}
{"date":"2011-05-01","average_temperature":"26.373","city":"Ciudad Guayana","latitude":"8.84N","longitude":"62.43W"}
{"date":"2011-03-01","average_temperature":"10.637","city":"Clarksville","latitude":"36.17N","longitude":"87.51W"}
{"date":"2013-03-01","average_temperature":"20.607000000000006","city":"Colombo","latitude":"24.92S","longitude":"49.66W"}
{"date":"2012-03-01","average_temperature":"27.707","city":"Colombo","latitude":"7.23N","longitude":"80.27E"}
{"date":"2013-06-01","average_temperature":"27.919","city":"Conakry","latitude":"8.84N","longitude":"13.78W"}
{"date":"2010-03-01","average_temperature":"15.376","city":"Concepcion","latitude":"36.17S","longitude":"73.59W"}
{"date":"2010-02-01","average_temperature":"15.479","city":"Coral Springs","latitude":"26.52N","longitude":"80.60W"}
{"date":"2012-09-01","average_temperature":"22.851999999999997","city":"Costa Mesa","latitude":"32.95N","longitude":"117.77W"}
{"date":"2010-12-01","average_temperature":"26.735","city":"Cotabato","latitude":"7.23N","longitude":"124.05E"}
{"date":"2011-06-01","average_temperature":"15.932","city":"Cotia","latitude":"23.31S","longitude":"46.31W"}
{"date":"2010-12-01","average_temperature":"28.506","city":"Cotonou","latitude":"7.23N","longitude":"2.43E"}
{"date":"2011-01-01","average_temperature":"1.614","city":"Cottbus","latitude":"52.24N","longitude":"13.14E"}
{"date":"2011-11-01","average_temperature":"3.315","city":"Cracow","latitude":"50.63N","longitude":"19.01E"}
{"date":"2012-01-01","average_temperature":"7.645","city":"Crawley","latitude":"50.63N","longitude":"1.27W"}
{"date":"2010-03-01","average_temperature":"23.445","city":"Cuenca","latitude":"2.41S","longitude":"79.55W"}
{"date":"2012-09-01","average_temperature":"29.366","city":"Dahuk","latitude":"36.17N","longitude":"43.76E"}
{"date":"2011-08-01","average_temperature":"27.376","city":"Daito","latitude":"34.56N","longitude":"136.22E"}
{"date":"2010-07-01","average_temperature":"18.365","city":"Dali","latitude":"26.52N","longitude":"100.30E"}
{"date":"2011-09-01","average_temperature":"27.256999999999998","city":"Danshui","latitude":"23.31N","longitude":"114.47E"}
{"date":"2012-04-01","average_temperature":"23.147","city":"Danshui","latitude":"23.31N","longitude":"114.47E"}
{"date":"2011-07-01","average_temperature":"19.735","city":"Datong","latitude":"40.99N","longitude":"112.90E"}
{"date":"2011-01-01","average_temperature":"-13.865","city":"Dawukou","latitude":"39.38N","longitude":"106.13E"}
{"date":"2012-06-01","average_temperature":"22.201","city":"Dawukou","latitude":"39.38N","longitude":"106.13E"}
{"date":"2012-06-01","average_temperature":"24.212","city":"Daxian","latitude":"31.35N","longitude":"107.43E"}
{"date":"2012-02-01","average_temperature":"14.315999999999999","city":"Dekernes","latitude":"31.35N","longitude":"32.04E"}
{"date":"2011-03-01","average_temperature":"24.765","city":"Deoria","latitude":"26.52N","longitude":"84.18E"}
{"date":"2011-12-01","average_temperature":"3.741","city":"Derbent","latitude":"42.59N","longitude":"48.00E"}
{"date":"2013-05-01","average_temperature":"16.287","city":"Detroit","latitude":"42.59N","longitude":"82.91W"}
{"date":"2011-01-01","average_temperature":"4.376","city":"Dezful","latitude":"32.95N","longitude":"48.83E"}
{"date":"2011-03-01","average_temperature":"30.197","city":"Dharmavaram","latitude":"15.27N","longitude":"77.50E"}
{"date":"2012-06-01","average_temperature":"18.113","city":"Diadema","latitude":"23.31S","longitude":"46.31W"}
{"date":"2010-06-01","average_temperature":"27.138","city":"Digos","latitude":"7.23N","longitude":"125.68E"}
{"date":"2010-02-01","average_temperature":"-13.686","city":"Dimitrovgrad","latitude":"53.84N","longitude":"50.45E"}
{"date":"2011-12-01","average_temperature":"23.712","city":"Dodoma","latitude":"5.63S","longitude":"35.52E"}
{"date":"2013-03-01","average_temperature":"9.353","city":"Dongtai","latitude":"32.95N","longitude":"119.68E"}
{"date":"2010-06-01","average_temperature":"16.213","city":"Dordrecht","latitude":"52.24N","longitude":"5.26E"}
{"date":"2012-06-01","average_temperature":"14.889000000000001","city":"Dortmund","latitude":"52.24N","longitude":"7.88E"}
{"date":"2011-09-01","average_temperature":"24.043000000000003","city":"Douala","latitude":"4.02N","longitude":"10.45E"}
{"date":"2012-01-01","average_temperature":"11.581","city":"Downey","latitude":"34.56N","longitude":"118.70W"}
{"date":"2012-10-01","average_temperature":"27.111","city":"Dumaguete","latitude":"8.84N","longitude":"124.05E"}
{"date":"2011-06-01","average_temperature":"26.461","city":"Ede","latitude":"7.23N","longitude":"4.05E"}
{"date":"2010-07-01","average_temperature":"15.199000000000002","city":"Edinburgh","latitude":"55.45N","longitude":"2.83W"}
{"date":"2011-08-01","average_temperature":"13.565","city":"Edinburgh","latitude":"55.45N","longitude":"2.83W"}
{"date":"2012-10-01","average_temperature":"6.959000000000001","city":"Edinburgh","latitude":"55.45N","longitude":"2.83W"}
{"date":"2010-07-01","average_temperature":"19.775","city":"Eindhoven","latitude":"52.24N","longitude":"5.26E"}
{"date":"2012-02-01","average_temperature":"10.609000000000002","city":"El Monte","latitude":"34.56N","longitude":"118.70W"}
{"date":"2011-12-01","average_temperature":"3.56","city":"El Paso","latitude":"31.35N","longitude":"105.55W"}
{"date":"2011-10-01","average_temperature":"23.619","city":"El Progreso","latitude":"15.27N","longitude":"87.50W"}
{"date":"2012-02-01","average_temperature":"-13.002","city":"Elektrostal","latitude":"55.45N","longitude":"39.69E"}
{"date":"2013-07-01","average_temperature":"22.616999999999997","city":"Engels","latitude":"50.63N","longitude":"46.90E"}
{"date":"2012-12-01","average_temperature":"0.6579999999999999","city":"Erfurt","latitude":"50.63N","longitude":"11.41E"}
{"date":"2011-03-01","average_temperature":"-0.897","city":"Erzurum","latitude":"39.38N","longitude":"41.62E"}
{"date":"2011-09-01","average_temperature":"16.179000000000002","city":"Erzurum","latitude":"39.38N","longitude":"41.62E"}
{"date":"2013-06-01","average_temperature":"21.758000000000006","city":"Esenyurt","latitude":"40.99N","longitude":"27.69E"}
{"date":"2012-11-01","average_temperature":"11.261","city":"Eslamshahr","latitude":"36.17N","longitude":"51.71E"}
{"date":"2011-06-01","average_temperature":"15.52","city":"Espoo","latitude":"60.27N","longitude":"25.95E"}
{"date":"2012-06-01","average_temperature":"35.631","city":"Farrukhabad","latitude":"28.13N","longitude":"79.09E"}
{"date":"2013-05-01","average_temperature":"33.95","city":"Fatehpur","latitude":"26.52N","longitude":"80.60E"}
{"date":"2012-04-01","average_temperature":"24.321","city":"Fengshan","latitude":"23.31N","longitude":"119.71E"}
{"date":"2011-04-01","average_temperature":"29.634","city":"Firozabad","latitude":"26.52N","longitude":"78.81E"}
{"date":"2012-02-01","average_temperature":"4.523","city":"Foggia","latitude":"40.99N","longitude":"14.91E"}
{"date":"2010-11-01","average_temperature":"13.966","city":"Fort Worth","latitude":"32.95N","longitude":"96.70W"}
{"date":"2010-08-01","average_temperature":"21.825","city":"Franca","latitude":"20.09S","longitude":"47.77W"}
{"date":"2012-10-01","average_temperature":"15.722000000000001","city":"Fuchu","latitude":"36.17N","longitude":"139.23E"}
{"date":"2011-02-01","average_temperature":"-12.779000000000002","city":"Fuyu","latitude":"45.81N","longitude":"125.77E"}
{"date":"2012-04-01","average_temperature":"24.58","city":"Gandajika","latitude":"7.23S","longitude":"23.51E"}
{"date":"2011-11-01","average_temperature":"21.924","city":"Ganganagar","latitude":"29.74N","longitude":"73.85E"}
{"date":"2013-04-01","average_temperature":"25.29","city":"Garanhuns","latitude":"8.84S","longitude":"36.49W"}
{"date":"2010-10-01","average_temperature":"19.387999999999998","city":"Garland","latitude":"32.95N","longitude":"96.70W"}
{"date":"2012-06-01","average_temperature":"29.956999999999997","city":"Garza García","latitude":"26.52N","longitude":"100.30W"}
{"date":"2012-06-01","average_temperature":"26.88","city":"Gboko","latitude":"7.23N","longitude":"8.92E"}
{"date":"2013-05-01","average_temperature":"26.956","city":"Gbongan","latitude":"7.23N","longitude":"4.05E"}
{"date":"2011-10-01","average_temperature":"23.153","city":"General Escobedo","latitude":"26.52N","longitude":"100.30W"}
{"date":"2011-02-01","average_temperature":"18.136","city":"Ghaziabad","latitude":"28.13N","longitude":"77.27E"}
{"date":"2010-04-01","average_temperature":"13.315","city":"Giugliano In Campania","latitude":"40.99N","longitude":"14.91E"}
{"date":"2012-11-01","average_temperature":"13.902999999999999","city":"Glendale","latitude":"34.56N","longitude":"118.70W"}
{"date":"2011-03-01","average_temperature":"18.877","city":"Goma","latitude":"2.41S","longitude":"29.73E"}
{"date":"2010-04-01","average_temperature":"9.287","city":"Gomel","latitude":"52.24N","longitude":"31.53E"}
{"date":"2011-07-01","average_temperature":"21.677","city":"Gomel","latitude":"52.24N","longitude":"31.53E"}
{"date":"2011-07-01","average_temperature":"18.702","city":"Gorzow Wielkopolski","latitude":"52.24N","longitude":"15.77E"}
{"date":"2010-06-01","average_temperature":"20.416","city":"Governador Valadares","latitude":"18.48S","longitude":"42.25W"}
{"date":"2013-07-01","average_temperature":"22.283","city":"Grand Rapids","latitude":"42.59N","longitude":"85.09W"}
{"date":"2011-02-01","average_temperature":"-1.237","city":"Graz","latitude":"47.42N","longitude":"15.39E"}
{"date":"2011-04-01","average_temperature":"5.41","city":"Green Bay","latitude":"44.20N","longitude":"87.20W"}
{"date":"2012-12-01","average_temperature":"1.914","city":"Grenoble","latitude":"45.81N","longitude":"5.77E"}
{"date":"2013-01-01","average_temperature":"23.622","city":"Guaratinguetá","latitude":"23.31S","longitude":"44.56W"}
{"date":"2010-03-01","average_temperature":"2.0269999999999997","city":"Guelph","latitude":"44.20N","longitude":"80.50W"}
{"date":"2012-12-01","average_temperature":"16.416","city":"Gwalior","latitude":"26.52N","longitude":"78.81E"}
{"date":"2013-02-01","average_temperature":"0.762","city":"Gyumri","latitude":"40.99N","longitude":"44.73E"}
{"date":"2011-02-01","average_temperature":"15.607999999999999","city":"Ha Noi","latitude":"21.70N","longitude":"106.44E"}
{"date":"2011-01-01","average_temperature":"17.864","city":"Habra","latitude":"23.31N","longitude":"88.25E"}
{"date":"2011-09-01","average_temperature":"29.856","city":"Hafizabad","latitude":"31.35N","longitude":"73.51E"}
{"date":"2011-09-01","average_temperature":"26.518","city":"Hagonoy","latitude":"15.27N","longitude":"120.83E"}
{"date":"2012-03-01","average_temperature":"21.38","city":"Haikou","latitude":"20.09N","longitude":"110.90E"}
{"date":"2010-03-01","average_temperature":"18.203","city":"Haldwani","latitude":"29.74N","longitude":"79.38E"}
{"date":"2011-07-01","average_temperature":"22.343000000000004","city":"Haldwani","latitude":"29.74N","longitude":"79.38E"}
{"date":"2011-02-01","average_temperature":"0.412","city":"Hamadan","latitude":"34.56N","longitude":"48.65E"}
{"date":"2012-06-01","average_temperature":"19.115","city":"Hamilton","latitude":"42.59N","longitude":"80.73W"}
{"date":"2010-06-01","average_temperature":"26.372","city":"Hampton","latitude":"36.17N","longitude":"75.58W"}
{"date":"2010-03-01","average_temperature":"20.206","city":"Hanoi","latitude":"21.70N","longitude":"106.44E"}
{"date":"2012-02-01","average_temperature":"14.992","city":"Hanumangarh","latitude":"29.74N","longitude":"73.85E"}
{"date":"2010-11-01","average_temperature":"9.033999999999999","city":"Hanzhong","latitude":"32.95N","longitude":"106.28E"}
{"date":"2010-11-01","average_temperature":"19.866","city":"Haridwar","latitude":"29.74N","longitude":"77.54E"}
{"date":"2010-07-01","average_temperature":"31.465","city":"Hathras","latitude":"28.13N","longitude":"77.27E"}
{"date":"2011-05-01","average_temperature":"31.533","city":"Hazaribag","latitude":"23.31N","longitude":"84.76E"}
{"date":"2010-08-01","average_temperature":"17.188","city":"Hildesheim","latitude":"52.24N","longitude":"10.51E"}
{"date":"2013-05-01","average_temperature":"29.286","city":"Hindupur","latitude":"13.66N","longitude":"76.79E"}
{"date":"2013-03-01","average_temperature":"7.955","city":"Hino","latitude":"36.17N","longitude":"139.23E"}
{"date":"2010-04-01","average_temperature":"31.899","city":"Hisar","latitude":"29.74N","longitude":"75.69E"}
{"date":"2012-05-01","average_temperature":"28.929000000000002","city":"Ho Chi Minh City","latitude":"10.45N","longitude":"107.18E"}
{"date":"2013-02-01","average_temperature":"7.15","city":"Honghu","latitude":"29.74N","longitude":"112.62E"}
{"date":"2010-02-01","average_temperature":"0.5239999999999998","city":"Houma","latitude":"36.17N","longitude":"111.38E"}
{"date":"2013-05-01","average_temperature":"15.685","city":"Hrodna","latitude":"53.84N","longitude":"23.18E"}
{"date":"2011-05-01","average_temperature":"24.558000000000003","city":"Huicheng","latitude":"23.31N","longitude":"116.21E"}
{"date":"2011-02-01","average_temperature":"-12.779000000000002","city":"Hulan","latitude":"45.81N","longitude":"125.77E"}
{"date":"2010-07-01","average_temperature":"22.543000000000006","city":"Iasi","latitude":"47.42N","longitude":"27.24E"}
{"date":"2010-11-01","average_temperature":"11.601","city":"Ichinomiya","latitude":"34.56N","longitude":"136.22E"}
{"date":"2013-01-01","average_temperature":"3.917","city":"Ichinomiya","latitude":"34.56N","longitude":"136.22E"}
{"date":"2013-05-01","average_temperature":"18.358","city":"Ikoma","latitude":"34.56N","longitude":"136.22E"}
{"date":"2011-07-01","average_temperature":"25.290000000000006","city":"Ikorodu","latitude":"7.23N","longitude":"4.05E"}
{"date":"2011-04-01","average_temperature":"21.029","city":"Ilam","latitude":"32.95N","longitude":"46.91E"}
{"date":"2011-02-01","average_temperature":"25.195","city":"Iligan","latitude":"8.84N","longitude":"124.05E"}
{"date":"2011-10-01","average_temperature":"27.179000000000002","city":"Iligan","latitude":"8.84N","longitude":"124.05E"}
{"date":"2011-01-01","average_temperature":"26.391","city":"Iloilo","latitude":"10.45N","longitude":"121.91E"}
{"date":"2011-08-01","average_temperature":"25.209","city":"Ilorin","latitude":"8.84N","longitude":"4.05E"}
{"date":"2012-01-01","average_temperature":"27.324","city":"Ilorin","latitude":"8.84N","longitude":"4.05E"}
{"date":"2012-06-01","average_temperature":"18.095","city":"Indaiatuba","latitude":"23.31S","longitude":"48.06W"}
{"date":"2010-11-01","average_temperature":"23.188000000000002","city":"Indore","latitude":"23.31N","longitude":"76.02E"}
{"date":"2011-07-01","average_temperature":"16.6","city":"Ingolstadt","latitude":"49.03N","longitude":"12.24E"}
{"date":"2010-12-01","average_temperature":"19.12","city":"Ingraj Bazar","latitude":"24.92N","longitude":"88.67E"}
{"date":"2013-02-01","average_temperature":"24.056","city":"Ipatinga","latitude":"20.09S","longitude":"42.65W"}
{"date":"2011-03-01","average_temperature":"19.232","city":"Iquique","latitude":"20.09S","longitude":"69.95W"}
{"date":"2013-09-01","city":"Iruma","latitude":"36.17N","longitude":"139.23E"}
{"date":"2011-09-01","average_temperature":"28.441999999999997","city":"Islamabad","latitude":"32.95N","longitude":"73.72E"}
{"date":"2012-01-01","average_temperature":"21.566999999999997","city":"Itapecerica Da Serra","latitude":"23.31S","longitude":"46.31W"}
{"date":"2011-12-01","average_temperature":"22.244","city":"Itaquaquecetuba","latitude":"23.31S","longitude":"46.31W"}
{"date":"2010-02-01","average_temperature":"6.8420000000000005","city":"Izumi","latitude":"34.56N","longitude":"136.22E"}
{"date":"2011-10-01","average_temperature":"25.289","city":"Jaboatão","latitude":"8.84S","longitude":"34.86W"}
{"date":"2011-10-01","average_temperature":"27.035999999999998","city":"Jakarta","latitude":"5.63S","longitude":"106.55E"}
{"date":"2013-02-01","average_temperature":"28.554","city":"Jamame","latitude":"0.80N","longitude":"42.59E"}
{"date":"2013-03-01","average_temperature":"29.561","city":"Jamame","latitude":"0.80N","longitude":"42.59E"}
{"date":"2013-05-01","average_temperature":"28.66","city":"Jamame","latitude":"0.80N","longitude":"42.59E"}
{"date":"2011-03-01","average_temperature":"27.17","city":"Jambi","latitude":"0.80S","longitude":"103.66E"}
{"date":"2011-01-01","average_temperature":"20.244","city":"Jamnagar","latitude":"21.70N","longitude":"70.10E"}
{"date":"2010-06-01","average_temperature":"31.636999999999997","city":"Jamuria","latitude":"23.31N","longitude":"86.50E"}
{"date":"2011-11-01","average_temperature":"20.383","city":"Jandira","latitude":"23.31S","longitude":"46.31W"}
{"date":"2010-02-01","average_temperature":"27.948","city":"Jember","latitude":"8.84S","longitude":"114.32E"}
{"date":"2012-11-01","average_temperature":"18.326","city":"Jhelum","latitude":"32.95N","longitude":"73.72E"}
{"date":"2010-03-01","average_temperature":"-5.6400000000000015","city":"Jiayuguan","latitude":"39.38N","longitude":"97.80E"}
{"date":"2010-06-01","average_temperature":"13.597","city":"Jiayuguan","latitude":"39.38N","longitude":"97.80E"}
{"date":"2010-10-01","average_temperature":"22.963","city":"Jiazi","latitude":"23.31N","longitude":"116.21E"}
{"date":"2011-01-01","average_temperature":"-21.895","city":"Jilin","latitude":"44.20N","longitude":"127.45E"}
{"date":"2013-08-01","average_temperature":"27.978","city":"Jinan","latitude":"36.17N","longitude":"117.35E"}
{"date":"2011-03-01","average_temperature":"9.18","city":"Jining","latitude":"34.56N","longitude":"116.76E"}
{"date":"2010-09-01","average_temperature":"24.644000000000002","city":"Jiujiang","latitude":"29.74N","longitude":"116.31E"}
{"date":"2010-09-01","average_temperature":"19.638","city":"Joinville","latitude":"26.52S","longitude":"48.36W"}
{"date":"2011-04-01","average_temperature":"28.916999999999998","city":"Jos","latitude":"10.45N","longitude":"9.00E"}
{"date":"2013-01-01","average_temperature":"4.365","city":"Juarez","latitude":"31.35N","longitude":"105.55W"}
{"date":"2012-12-01","average_temperature":"0.2849999999999999","city":"Kaifeng","latitude":"34.56N","longitude":"114.81E"}
{"date":"2011-07-01","average_temperature":"21.671999999999997","city":"Kalemie","latitude":"5.63S","longitude":"29.06E"}
{"date":"2011-04-01","average_temperature":"6.026999999999999","city":"Kaluga","latitude":"53.84N","longitude":"36.82E"}
{"date":"2011-11-01","average_temperature":"-0.857","city":"Kaluga","latitude":"53.84N","longitude":"36.82E"}
{"date":"2013-02-01","average_temperature":"23.331","city":"Kalyan","latitude":"20.09N","longitude":"73.36E"}
{"date":"2010-08-01","average_temperature":"31.18","city":"Kamalia","latitude":"31.35N","longitude":"73.51E"}
{"date":"2011-09-01","average_temperature":"13.911","city":"Kamyshin","latitude":"50.63N","longitude":"44.37E"}
{"date":"2010-02-01","average_temperature":"18.987000000000002","city":"Kanpur","latitude":"26.52N","longitude":"80.60E"}
{"date":"2010-08-01","average_temperature":"26.496","city":"Kansas City","latitude":"39.38N","longitude":"93.64W"}
{"date":"2011-07-01","average_temperature":"28.371","city":"Kaohsiung","latitude":"23.31N","longitude":"119.71E"}
{"date":"2010-06-01","average_temperature":"31.858","city":"Karachi","latitude":"24.92N","longitude":"67.39E"}
{"date":"2011-05-01","average_temperature":"18.948","city":"Karaj","latitude":"36.17N","longitude":"51.71E"}
{"date":"2011-02-01","average_temperature":"25.246","city":"Karimnagar","latitude":"18.48N","longitude":"79.44E"}
{"date":"2011-09-01","average_temperature":"28.136","city":"Karimnagar","latitude":"18.48N","longitude":"79.44E"}
{"date":"2010-08-01","average_temperature":"28.65","city":"Karnal","latitude":"29.74N","longitude":"77.54E"}
{"date":"2013-03-01","average_temperature":"11.194","city":"Kashi","latitude":"39.38N","longitude":"76.99E"}
{"date":"2010-09-01","average_temperature":"24.894","city":"Kasugai","latitude":"34.56N","longitude":"136.22E"}
{"date":"2011-08-01","average_temperature":"19.398","city":"Katowice","latitude":"50.63N","longitude":"19.01E"}
{"date":"2011-12-01","average_temperature":"2.074","city":"Katowice","latitude":"50.63N","longitude":"19.01E"}
{"date":"2010-09-01","average_temperature":"12.104000000000001","city":"Kaunas","latitude":"55.45N","longitude":"22.68E"}
{"date":"2012-06-01","average_temperature":"10.326","city":"Kelowna","latitude":"49.03N","longitude":"120.00W"}
{"date":"2013-05-01","average_temperature":"12.76","city":"Khabarovsk","latitude":"49.03N","longitude":"134.69E"}
{"date":"2012-12-01","average_temperature":"17.055999999999997","city":"Khairpur","latitude":"28.13N","longitude":"68.18E"}
{"date":"2011-12-01","average_temperature":"13.237","city":"Khorramshahr","latitude":"29.74N","longitude":"48.00E"}
{"date":"2012-03-01","average_temperature":"3.89","city":"Khujand","latitude":"40.99N","longitude":"70.30E"}
{"date":"2011-01-01","average_temperature":"9.12","city":"Khuzdar","latitude":"28.13N","longitude":"66.36E"}
{"date":"2010-01-01","average_temperature":"21.569000000000006","city":"Kigoma","latitude":"4.02S","longitude":"29.73E"}
{"date":"2010-08-01","average_temperature":"23.776999999999997","city":"Kindu","latitude":"2.41S","longitude":"26.52E"}
{"date":"2013-05-01","average_temperature":"14.397","city":"Kingston","latitude":"44.20N","longitude":"76.02W"}
{"date":"2012-10-01","average_temperature":"28.331999999999997","city":"Kingston","latitude":"18.48N","longitude":"76.06W"}
{"date":"2012-11-01","average_temperature":"14.950999999999999","city":"Kisarazu","latitude":"34.56N","longitude":"140.11E"}
{"date":"2010-08-01","average_temperature":"28.041","city":"Kitakyushu","latitude":"34.56N","longitude":"130.38E"}
{"date":"2012-03-01","average_temperature":"27.331999999999997","city":"Klang","latitude":"2.41N","longitude":"102.05E"}
{"date":"2010-08-01","average_temperature":"26.898000000000003","city":"Kluang","latitude":"2.41N","longitude":"103.66E"}
{"date":"2011-02-01","average_temperature":"26.860000000000007","city":"Kluang","latitude":"2.41N","longitude":"103.66E"}
{"date":"2013-07-01","average_temperature":"19.869","city":"Koblenz","latitude":"50.63N","longitude":"6.34E"}
{"date":"2011-02-01","average_temperature":"3.734","city":"Kokubunji","latitude":"36.17N","longitude":"139.23E"}
{"date":"2011-11-01","average_temperature":"10.802999999999999","city":"Kokubunji","latitude":"36.17N","longitude":"139.23E"}
{"date":"2011-12-01","average_temperature":"24.663","city":"Kolhapur","latitude":"16.87N","longitude":"73.67E"}
{"date":"2011-11-01","average_temperature":"-9.559","city":"Komsomolsk Na Amure","latitude":"50.63N","longitude":"138.17E"}
{"date":"2012-07-01","average_temperature":"25.529","city":"Korhogo","latitude":"8.84N","longitude":"5.68W"}
{"date":"2012-03-01","average_temperature":"20.611","city":"Kot Addu","latitude":"29.74N","longitude":"70.15E"}
{"date":"2010-07-01","average_temperature":"24.764","city":"Kremenchuk","latitude":"49.03N","longitude":"34.29E"}
{"date":"2010-10-01","average_temperature":"5.997000000000001","city":"Kremenchuk","latitude":"49.03N","longitude":"34.29E"}
{"date":"2012-08-01","average_temperature":"20.524","city":"Kuito","latitude":"12.05S","longitude":"16.44E"}
{"date":"2012-02-01","average_temperature":"-4.19","city":"Kumanovo","latitude":"42.59N","longitude":"21.82E"}
{"date":"2010-05-01","average_temperature":"17.572999999999997","city":"Kurashiki","latitude":"34.56N","longitude":"134.27E"}
{"date":"2012-09-01","average_temperature":"23.391","city":"Lárisa","latitude":"39.38N","longitude":"22.89E"}
{"date":"2010-06-01","average_temperature":"26.665","city":"La Ceiba","latitude":"15.27N","longitude":"87.50W"}
{"date":"2012-12-01","average_temperature":"24.232","city":"Lages","latitude":"28.13S","longitude":"50.00W"}
{"date":"2010-04-01","average_temperature":"29.03","city":"Lagos","latitude":"5.63N","longitude":"3.23E"}
{"date":"2013-01-01","average_temperature":"27.353","city":"Lagos","latitude":"5.63N","longitude":"3.23E"}
{"date":"2013-09-01","city":"Laiyang","latitude":"36.17N","longitude":"121.33E"}
{"date":"2013-04-01","average_temperature":"30.131","city":"Lampang","latitude":"18.48N","longitude":"99.72E"}
{"date":"2012-08-01","average_temperature":"26.892000000000003","city":"Lancaster","latitude":"34.56N","longitude":"118.70W"}
{"date":"2010-04-01","average_temperature":"27.123","city":"Lashio","latitude":"23.31N","longitude":"96.99E"}
{"date":"2011-02-01","average_temperature":"10.300999999999998","city":"Latina","latitude":"40.99N","longitude":"12.78E"}
{"date":"2011-07-01","average_temperature":"16.694000000000003","city":"Lausanne","latitude":"45.81N","longitude":"5.77E"}
{"date":"2013-02-01","average_temperature":"2.7560000000000002","city":"Leeds","latitude":"53.84N","longitude":"1.36W"}
{"date":"2013-08-01","average_temperature":"22.599","city":"Leganés","latitude":"40.99N","longitude":"4.26W"}
{"date":"2010-11-01","average_temperature":"23.331","city":"Likasi","latitude":"10.45S","longitude":"27.00E"}
{"date":"2011-05-01","average_temperature":"16.948","city":"Lincoln","latitude":"40.99N","longitude":"95.86W"}
{"date":"2012-07-01","average_temperature":"28.566","city":"Lincoln","latitude":"40.99N","longitude":"95.86W"}
{"date":"2013-01-01","average_temperature":"6.864999999999998","city":"Linhai","latitude":"28.13N","longitude":"120.91E"}
{"date":"2012-03-01","average_temperature":"2.166","city":"Linxia","latitude":"36.17N","longitude":"103.43E"}
{"date":"2011-09-01","average_temperature":"23.726999999999997","city":"Lira","latitude":"2.41N","longitude":"32.95E"}
{"date":"2010-08-01","average_temperature":"25.543000000000006","city":"Lisbon","latitude":"39.38N","longitude":"8.32W"}
{"date":"2010-10-01","average_temperature":"17.777","city":"Long Beach","latitude":"32.95N","longitude":"117.77W"}
{"date":"2012-11-01","average_temperature":"-4.365","city":"Longjing","latitude":"42.59N","longitude":"128.73E"}
{"date":"2011-11-01","average_temperature":"22.834","city":"Los Mochis","latitude":"26.52N","longitude":"109.25W"}
{"date":"2010-08-01","average_temperature":"17.996","city":"Los Reyes","latitude":"20.09N","longitude":"98.96W"}
{"date":"2011-12-01","average_temperature":"13.267000000000001","city":"Los Reyes","latitude":"20.09N","longitude":"98.96W"}
{"date":"2010-12-01","average_temperature":"-1.5929999999999995","city":"Louisville","latitude":"37.78N","longitude":"85.42W"}
{"date":"2010-05-01","average_temperature":"25.263","city":"Luanda","latitude":"8.84S","longitude":"13.78E"}
{"date":"2011-01-01","average_temperature":"21.186","city":"Lubumbashi","latitude":"12.05S","longitude":"27.95E"}
{"date":"2013-01-01","average_temperature":"12.116","city":"Ludhiana","latitude":"31.35N","longitude":"75.39E"}
{"date":"2012-11-01","average_temperature":"13.283","city":"Luzhou","latitude":"29.74N","longitude":"105.23E"}
{"date":"2010-05-01","average_temperature":"22.513","city":"Luziânia","latitude":"16.87S","longitude":"48.56W"}
{"date":"2011-06-01","average_temperature":"27.406","city":"Mérida","latitude":"21.70N","longitude":"89.13W"}
{"date":"2010-04-01","average_temperature":"11.455","city":"Móstoles","latitude":"40.99N","longitude":"4.26W"}
{"date":"2010-10-01","average_temperature":"9.193999999999999","city":"Mülheim","latitude":"50.63N","longitude":"6.34E"}
{"date":"2012-10-01","average_temperature":"18.14","city":"Maanshan","latitude":"31.35N","longitude":"118.74E"}
{"date":"2012-04-01","average_temperature":"26.386","city":"Macapá","latitude":"0.80N","longitude":"50.63W"}
{"date":"2012-09-01","average_temperature":"24.772","city":"Maceió","latitude":"10.45S","longitude":"35.18W"}
{"date":"2010-05-01","average_temperature":"16.337","city":"Machida","latitude":"36.17N","longitude":"139.23E"}
{"date":"2011-06-01","average_temperature":"21.085","city":"Machida","latitude":"36.17N","longitude":"139.23E"}
{"date":"2011-05-01","average_temperature":"14.71","city":"Madison","latitude":"42.59N","longitude":"89.45W"}
{"date":"2010-07-01","average_temperature":"23.974","city":"Madrid","latitude":"40.99N","longitude":"4.26W"}
{"date":"2012-10-01","average_temperature":"25.828000000000007","city":"Madurai","latitude":"10.45N","longitude":"77.73E"}
{"date":"2010-02-01","average_temperature":"28.849","city":"Magé","latitude":"23.31S","longitude":"42.82W"}
{"date":"2013-07-01","average_temperature":"29.076999999999998","city":"Magangué","latitude":"8.84N","longitude":"75.41W"}
{"date":"2012-07-01","average_temperature":"29.796999999999997","city":"Mahesana","latitude":"23.31N","longitude":"72.52E"}
{"date":"2010-07-01","average_temperature":"27.125999999999998","city":"Makasar","latitude":"5.63S","longitude":"119.46E"}
{"date":"2010-06-01","average_temperature":"28.514","city":"Makati","latitude":"15.27N","longitude":"120.83E"}
{"date":"2012-02-01","average_temperature":"-1.033","city":"Malmö","latitude":"55.45N","longitude":"14.17E"}
{"date":"2013-07-01","average_temperature":"25.972","city":"Manado","latitude":"0.80N","longitude":"124.55E"}
{"date":"2011-01-01","average_temperature":"24.583","city":"Mangaluru","latitude":"13.66N","longitude":"75.14E"}
{"date":"2010-03-01","average_temperature":"5.465","city":"Mannheim","latitude":"49.03N","longitude":"7.35E"}
{"date":"2010-10-01","average_temperature":"29.341","city":"Maradi","latitude":"13.66N","longitude":"7.43E"}
{"date":"2012-03-01","average_temperature":"13.958","city":"Marbella","latitude":"36.17N","longitude":"3.98W"}
{"date":"2013-09-01","city":"Mariara","latitude":"10.45N","longitude":"67.91W"}
{"date":"2012-07-01","average_temperature":"18.37","city":"Maringá","latitude":"23.31S","longitude":"51.55W"}
{"date":"2012-08-01","average_temperature":"26.666999999999998","city":"Martapura","latitude":"4.02S","longitude":"114.91E"}
{"date":"2013-03-01","average_temperature":"24.025","city":"Mathura","latitude":"28.13N","longitude":"77.27E"}
{"date":"2010-11-01","average_temperature":"11.601","city":"Matsubara","latitude":"34.56N","longitude":"136.22E"}
{"date":"2011-01-01","average_temperature":"14.562999999999999","city":"Mau","latitude":"26.52N","longitude":"84.18E"}
{"date":"2012-02-01","average_temperature":"18.973","city":"Mau","latitude":"26.52N","longitude":"84.18E"}
{"date":"2013-07-01","average_temperature":"21.541","city":"Maykop","latitude":"44.20N","longitude":"40.25E"}
{"date":"2010-01-01","average_temperature":"-10.92","city":"Mazyr","latitude":"52.24N","longitude":"28.91E"}
{"date":"2011-05-01","average_temperature":"24.24","city":"Mbour","latitude":"13.66N","longitude":"17.34W"}
{"date":"2010-04-01","average_temperature":"26.241999999999997","city":"Mbuji Mayi","latitude":"5.63S","longitude":"24.22E"}
{"date":"2012-03-01","average_temperature":"25.206","city":"Mbuji Mayi","latitude":"5.63S","longitude":"24.22E"}
{"date":"2012-11-01","average_temperature":"23.779","city":"Mecca","latitude":"21.70N","longitude":"40.67E"}
{"date":"2010-04-01","average_temperature":"17.656","city":"Mexico","latitude":"20.09N","longitude":"98.96W"}
{"date":"2010-05-01","average_temperature":"5.7269999999999985","city":"Mezhdurechensk","latitude":"53.84N","longitude":"88.64E"}
{"date":"2012-02-01","average_temperature":"21.021","city":"Miami","latitude":"26.52N","longitude":"80.60W"}
{"date":"2011-10-01","average_temperature":"20.185","city":"Mingaora","latitude":"34.56N","longitude":"72.00E"}
{"date":"2012-03-01","average_temperature":"24.801","city":"Mirzapur","latitude":"24.92N","longitude":"83.35E"}
{"date":"2010-08-01","average_temperature":"20.961","city":"Mixco","latitude":"15.27N","longitude":"90.83W"}
{"date":"2011-07-01","average_temperature":"20.739","city":"Mixco","latitude":"15.27N","longitude":"90.83W"}
{"date":"2011-07-01","average_temperature":"25.290000000000006","city":"Modakeke","latitude":"7.23N","longitude":"4.05E"}
{"date":"2013-03-01","average_temperature":"28.539","city":"Mombasa","latitude":"4.02S","longitude":"39.38E"}
{"date":"2010-08-01","average_temperature":"27.468000000000004","city":"Monclova","latitude":"26.52N","longitude":"102.09W"}
{"date":"2013-08-01","average_temperature":"10.342","city":"Montevideo","latitude":"34.56S","longitude":"56.43W"}
{"date":"2012-01-01","average_temperature":"10.093","city":"Moreno Valley","latitude":"34.56N","longitude":"116.76W"}
{"date":"2010-10-01","average_temperature":"28.084","city":"Mubi","latitude":"10.45N","longitude":"13.91E"}
{"date":"2010-08-01","average_temperature":"19.47","city":"Mufulira","latitude":"12.05S","longitude":"27.95E"}
{"date":"2010-10-01","average_temperature":"7.004","city":"Mulhouse","latitude":"47.42N","longitude":"8.29E"}
{"date":"2010-05-01","average_temperature":"35.374","city":"Multan","latitude":"29.74N","longitude":"72.00E"}
{"date":"2010-08-01","average_temperature":"32.46","city":"Multan","latitude":"29.74N","longitude":"72.00E"}
{"date":"2010-04-01","average_temperature":"32.359","city":"Munger","latitude":"24.92N","longitude":"86.90E"}
{"date":"2012-02-01","average_temperature":"-7.55","city":"Munich","latitude":"47.42N","longitude":"10.66E"}
{"date":"2012-10-01","average_temperature":"25.48","city":"Muridke","latitude":"31.35N","longitude":"73.51E"}
{"date":"2011-11-01","average_temperature":"-2.655","city":"Murom","latitude":"55.45N","longitude":"42.52E"}
{"date":"2013-07-01","average_temperature":"26.808000000000003","city":"Murwara","latitude":"23.31N","longitude":"81.26E"}
{"date":"2013-05-01","average_temperature":"21.910999999999998","city":"Musoma","latitude":"0.80S","longitude":"34.55E"}
{"date":"2013-01-01","average_temperature":"13.667","city":"Muzaffargarh","latitude":"29.74N","longitude":"72.00E"}
{"date":"2010-09-01","average_temperature":"27.043000000000003","city":"Muzaffarnagar","latitude":"29.74N","longitude":"77.54E"}
{"date":"2012-01-01","average_temperature":"23.717","city":"Mwene Ditu","latitude":"7.23S","longitude":"23.51E"}
{"date":"2011-03-01","average_temperature":"28.293000000000003","city":"My Tho","latitude":"10.45N","longitude":"105.55E"}
{"date":"2011-04-01","average_temperature":"13.879","city":"Nîmes","latitude":"44.20N","longitude":"4.47E"}
{"date":"2013-06-01","average_temperature":"28.764","city":"Naga","latitude":"13.66N","longitude":"123.03E"}
{"date":"2012-06-01","average_temperature":"19.338","city":"Nagaoka","latitude":"37.78N","longitude":"138.31E"}
{"date":"2010-01-01","average_temperature":"18.679000000000002","city":"Nagpur","latitude":"21.70N","longitude":"78.75E"}
{"date":"2012-04-01","average_temperature":"28.402","city":"Nakhon Si Thammarat","latitude":"8.84N","longitude":"99.73E"}
{"date":"2011-09-01","average_temperature":"16.726","city":"Namur","latitude":"50.63N","longitude":"3.80E"}
{"date":"2011-09-01","average_temperature":"17.357","city":"Naperville","latitude":"40.99N","longitude":"87.34W"}
{"date":"2011-12-01","average_temperature":"3.25","city":"Narashino","latitude":"36.17N","longitude":"139.23E"}
{"date":"2011-02-01","average_temperature":"6.561","city":"Narita","latitude":"36.17N","longitude":"141.22E"}
{"date":"2012-09-01","average_temperature":"24.503","city":"Narita","latitude":"36.17N","longitude":"141.22E"}
{"date":"2011-12-01","average_temperature":"5.9689999999999985","city":"Nashville","latitude":"36.17N","longitude":"87.51W"}
{"date":"2011-02-01","average_temperature":"-20.125999999999998","city":"Nefteyugansk","latitude":"61.88N","longitude":"73.02E"}
{"date":"2011-06-01","average_temperature":"19.512999999999998","city":"Nehe","latitude":"49.03N","longitude":"124.90E"}
{"date":"2010-11-01","average_temperature":"19.318","city":"Nelspruit","latitude":"24.92S","longitude":"30.15E"}
{"date":"2012-03-01","average_temperature":"25.053","city":"Ngaoundéré","latitude":"7.23N","longitude":"13.78E"}
{"date":"2012-12-01","average_temperature":"24.167","city":"Nha Trang","latitude":"12.05N","longitude":"108.49E"}
{"date":"2012-03-01","average_temperature":"8.296","city":"Nishio","latitude":"34.56N","longitude":"136.22E"}
{"date":"2011-02-01","average_temperature":"28.146","city":"Niterói","latitude":"23.31S","longitude":"42.82W"}
{"date":"2013-04-01","average_temperature":"25.357","city":"Niterói","latitude":"23.31S","longitude":"42.82W"}
{"date":"2011-03-01","average_temperature":"-6.114000000000001","city":"Nizhnevartovsk","latitude":"60.27N","longitude":"77.84E"}
{"date":"2012-05-01","average_temperature":"23.881999999999998","city":"Nkongsamba","latitude":"5.63N","longitude":"9.69E"}
{"date":"2010-10-01","average_temperature":"19.246","city":"Nogales","latitude":"31.35N","longitude":"111.20W"}
{"date":"2013-02-01","average_temperature":"-5.102","city":"Noginsk","latitude":"55.45N","longitude":"39.69E"}
{"date":"2012-09-01","average_temperature":"27.935","city":"Nonthaburi","latitude":"13.66N","longitude":"99.91E"}
{"date":"2013-02-01","average_temperature":"2.7560000000000002","city":"Nottingham","latitude":"53.84N","longitude":"1.36W"}
{"date":"2012-10-01","average_temperature":"20.231","city":"Novo Hamburgo","latitude":"29.74S","longitude":"51.69W"}
{"date":"2011-04-01","average_temperature":"5.376","city":"Novomoskovsk","latitude":"53.84N","longitude":"39.55E"}
{"date":"2010-05-01","average_temperature":"8.736999999999998","city":"Novosibirsk","latitude":"55.45N","longitude":"82.20E"}
{"date":"2011-05-01","average_temperature":"27.546","city":"Nueva San Salvador","latitude":"13.66N","longitude":"90.00W"}
{"date":"2011-07-01","average_temperature":"31.353","city":"Nuevo Laredo","latitude":"28.13N","longitude":"99.09W"}
{"date":"2010-07-01","average_temperature":"20.56","city":"Oberhausen","latitude":"50.63N","longitude":"6.34E"}
{"date":"2012-08-01","average_temperature":"18.959","city":"Oberhausen","latitude":"50.63N","longitude":"6.34E"}
{"date":"2011-07-01","average_temperature":"22.796999999999997","city":"Odesa","latitude":"45.81N","longitude":"31.15E"}
{"date":"2012-04-01","average_temperature":"29.328000000000003","city":"Ogbomosho","latitude":"8.84N","longitude":"4.05E"}
{"date":"2012-06-01","average_temperature":"15.534999999999998","city":"Olsztyn","latitude":"53.84N","longitude":"20.45E"}
{"date":"2012-02-01","average_temperature":"27.175","city":"Opobo","latitude":"4.02N","longitude":"7.23E"}
{"date":"2011-06-01","average_temperature":"18.493","city":"Opole","latitude":"50.63N","longitude":"19.01E"}
{"date":"2011-03-01","average_temperature":"24.791999999999998","city":"Orai","latitude":"26.52N","longitude":"78.81E"}
{"date":"2011-07-01","average_temperature":"17.597","city":"Osasco","latitude":"23.31S","longitude":"46.31W"}
{"date":"2012-06-01","average_temperature":"18.113","city":"Osasco","latitude":"23.31S","longitude":"46.31W"}
{"date":"2013-02-01","average_temperature":"-6.558000000000002","city":"Oshawa","latitude":"44.20N","longitude":"78.26W"}
{"date":"2011-01-01","average_temperature":"0.8170000000000001","city":"Ota","latitude":"36.17N","longitude":"139.23E"}
{"date":"2012-11-01","average_temperature":"-0.8860000000000001","city":"Ottawa","latitude":"45.81N","longitude":"75.00W"}
{"date":"2011-01-01","average_temperature":"4.359","city":"Oviedo","latitude":"42.59N","longitude":"6.55W"}
{"date":"2012-10-01","average_temperature":"22.955","city":"Pôrto Seguro","latitude":"16.87S","longitude":"38.51W"}
{"date":"2013-06-01","average_temperature":"19.982000000000006","city":"Padova","latitude":"45.81N","longitude":"12.69E"}
{"date":"2013-01-01","average_temperature":"8.649000000000001","city":"Palermo","latitude":"37.78N","longitude":"14.24E"}
{"date":"2013-03-01","average_temperature":"8.486","city":"Pamplona","latitude":"42.59N","longitude":"2.18W"}
{"date":"2013-05-01","average_temperature":"24.518","city":"Panchiao","latitude":"24.92N","longitude":"122.36E"}
{"date":"2011-11-01","average_temperature":"20.318","city":"Panipat","latitude":"29.74N","longitude":"77.54E"}
{"date":"2011-04-01","average_temperature":"17.086","city":"Panzhihua","latitude":"26.52N","longitude":"102.09E"}
{"date":"2012-02-01","average_temperature":"9.209","city":"Paradise","latitude":"36.17N","longitude":"115.36W"}
{"date":"2011-04-01","average_temperature":"23.279","city":"Pasadena","latitude":"29.74N","longitude":"96.00W"}
{"date":"2010-12-01","average_temperature":"5.696000000000001","city":"Pathankot","latitude":"32.95N","longitude":"75.64E"}
{"date":"2010-04-01","average_temperature":"31.899","city":"Patiala","latitude":"29.74N","longitude":"75.69E"}
{"date":"2011-01-01","average_temperature":"-6.787000000000001","city":"Pavlohrad","latitude":"49.03N","longitude":"36.73E"}
{"date":"2010-04-01","average_temperature":"26.203000000000003","city":"Payakumbuh","latitude":"0.80S","longitude":"100.45E"}
{"date":"2013-02-01","average_temperature":"-1.246","city":"Peking","latitude":"39.38N","longitude":"116.53E"}
{"date":"2011-07-01","average_temperature":"12.05","city":"Pelotas","latitude":"31.35S","longitude":"52.77W"}
{"date":"2013-09-01","city":"Pelotas","latitude":"31.35S","longitude":"52.77W"}
{"date":"2011-09-01","average_temperature":"26.318","city":"Petare","latitude":"10.45N","longitude":"66.27W"}
{"date":"2012-01-01","average_temperature":"-10.675999999999998","city":"Petropavlovsk Kamchatskiy","latitude":"53.84N","longitude":"159.55E"}
{"date":"2013-02-01","average_temperature":"-5.439000000000001","city":"Petrozavodsk","latitude":"61.88N","longitude":"35.66E"}
{"date":"2010-11-01","average_temperature":"17.695999999999994","city":"Piedras Negras","latitude":"28.13N","longitude":"100.91W"}
{"date":"2010-10-01","average_temperature":"24.095","city":"Pietersburg","latitude":"23.31S","longitude":"28.83E"}
{"date":"2013-01-01","average_temperature":"23.662000000000006","city":"Pinar Del Río","latitude":"21.70N","longitude":"83.94W"}
{"date":"2011-09-01","average_temperature":"19.023","city":"Pindamonhangaba","latitude":"23.31S","longitude":"46.31W"}
{"date":"2010-02-01","average_temperature":"8.769","city":"Pingxiang","latitude":"28.13N","longitude":"113.64E"}
{"date":"2010-08-01","average_temperature":"29.158","city":"Pingxiang","latitude":"28.13N","longitude":"113.64E"}
{"date":"2012-08-01","average_temperature":"24.812","city":"Pleven","latitude":"44.20N","longitude":"24.60E"}
{"date":"2011-05-01","average_temperature":"19.307000000000002","city":"Poços De Caldas","latitude":"21.70S","longitude":"45.87W"}
{"date":"2011-09-01","average_temperature":"19.965999999999998","city":"Pokhara","latitude":"28.13N","longitude":"84.55E"}
{"date":"2012-06-01","average_temperature":"31.068","city":"Porbandar","latitude":"21.70N","longitude":"70.10E"}
{"date":"2012-06-01","average_temperature":"28.8","city":"Port Blair","latitude":"12.05N","longitude":"92.05E"}
{"date":"2012-08-01","average_temperature":"20.426","city":"Porto","latitude":"40.99N","longitude":"8.52W"}
{"date":"2012-03-01","average_temperature":"22.764","city":"Porto Alegre","latitude":"29.74S","longitude":"51.69W"}
{"date":"2012-04-01","average_temperature":"20.345","city":"Posadas","latitude":"28.13S","longitude":"55.45W"}
{"date":"2011-10-01","average_temperature":"22.421999999999997","city":"Potgietersrus","latitude":"23.31S","longitude":"28.83E"}
{"date":"2011-02-01","average_temperature":"0.13399999999999998","city":"Potsdam","latitude":"52.24N","longitude":"13.14E"}
{"date":"2012-07-01","average_temperature":"26.406","city":"Pringsewu","latitude":"5.63S","longitude":"104.93E"}
{"date":"2013-05-01","average_temperature":"27.631","city":"Probolinggo","latitude":"7.23S","longitude":"112.70E"}
{"date":"2011-02-01","average_temperature":"-5.149","city":"Providence","latitude":"42.59N","longitude":"72.00W"}
{"date":"2012-07-01","average_temperature":"23.521","city":"Provo","latitude":"39.38N","longitude":"112.37W"}
{"date":"2011-11-01","average_temperature":"26.661","city":"Pudukkottai","latitude":"10.45N","longitude":"79.36E"}
{"date":"2012-11-01","average_temperature":"24.023000000000003","city":"Puri","latitude":"20.09N","longitude":"85.31E"}
{"date":"2011-07-01","average_temperature":"28.249","city":"Puyang","latitude":"36.17N","longitude":"115.36E"}
{"date":"2012-03-01","average_temperature":"7.604","city":"Puyang","latitude":"36.17N","longitude":"115.36E"}
{"date":"2013-02-01","average_temperature":"-2.6430000000000002","city":"Qinhuangdao","latitude":"39.38N","longitude":"118.61E"}
{"date":"2010-08-01","average_temperature":"20.961","city":"Quetzaltenango","latitude":"15.27N","longitude":"90.83W"}
{"date":"2013-02-01","average_temperature":"-0.7689999999999997","city":"Radom","latitude":"50.63N","longitude":"21.55E"}
{"date":"2010-02-01","average_temperature":"9.081","city":"Rafsanjan","latitude":"29.74N","longitude":"55.38E"}
{"date":"2012-09-01","average_temperature":"27.232","city":"Raichur","latitude":"16.87N","longitude":"77.02E"}
{"date":"2013-09-01","city":"Raiganj","latitude":"24.92N","longitude":"88.67E"}
{"date":"2011-06-01","average_temperature":"0.155","city":"Rancagua","latitude":"34.56S","longitude":"70.05W"}
{"date":"2010-09-01","average_temperature":"27.941000000000006","city":"Rawalpindi","latitude":"32.95N","longitude":"73.72E"}
{"date":"2012-12-01","average_temperature":"7.862","city":"Reading","latitude":"50.63N","longitude":"1.27W"}
{"date":"2012-10-01","average_temperature":"2.536","city":"Regina","latitude":"50.63N","longitude":"105.21W"}
{"date":"2010-04-01","average_temperature":"10.286","city":"Reims","latitude":"49.03N","longitude":"4.90E"}
{"date":"2011-04-01","average_temperature":"27.654","city":"Rengasdengklok","latitude":"5.63S","longitude":"106.55E"}
{"date":"2011-10-01","average_temperature":"27.035999999999998","city":"Rengasdengklok","latitude":"5.63S","longitude":"106.55E"}
{"date":"2010-11-01","average_temperature":"23.068","city":"Resistencia","latitude":"28.13S","longitude":"59.09W"}
{"date":"2011-11-01","average_temperature":"4.409999999999998","city":"Reutlingen","latitude":"49.03N","longitude":"9.80E"}
{"date":"2012-06-01","average_temperature":"36.33900000000001","city":"Rewari","latitude":"28.13N","longitude":"77.27E"}
{"date":"2011-12-01","average_temperature":"24.19","city":"Ribeirão Prêto","latitude":"21.70S","longitude":"47.60W"}
{"date":"2013-07-01","average_temperature":"22.233","city":"Rijeka","latitude":"45.81N","longitude":"15.00E"}
{"date":"2010-07-01","average_temperature":"12.898","city":"Rio Grande","latitude":"31.35S","longitude":"52.77W"}
{"date":"2011-10-01","average_temperature":"21.889","city":"Riobamba","latitude":"2.41S","longitude":"77.95W"}
{"date":"2011-08-01","average_temperature":"26.909","city":"Robertsonpet","latitude":"13.66N","longitude":"78.44E"}
{"date":"2013-01-01","average_temperature":"4.261","city":"Rome","latitude":"42.59N","longitude":"13.09E"}
{"date":"2012-12-01","average_temperature":"14.702","city":"Rongcheng","latitude":"23.31N","longitude":"116.21E"}
{"date":"2013-05-01","average_temperature":"13.713","city":"Rostock","latitude":"53.84N","longitude":"12.27E"}
{"date":"2013-09-01","city":"Rostov Na Donu","latitude":"47.42N","longitude":"39.08E"}
{"date":"2011-09-01","average_temperature":"28.685","city":"Roxas","latitude":"12.05N","longitude":"123.29E"}
{"date":"2011-12-01","average_temperature":"8.917","city":"Ruian","latitude":"28.13N","longitude":"120.91E"}
{"date":"2013-03-01","average_temperature":"12.521","city":"Ruian","latitude":"28.13N","longitude":"120.91E"}
{"date":"2013-08-01","average_temperature":"12.952","city":"Rustenburg","latitude":"26.52S","longitude":"26.87E"}
{"date":"2011-11-01","average_temperature":"-1.7039999999999995","city":"Ryazan","latitude":"53.84N","longitude":"39.55E"}
{"date":"2012-11-01","average_temperature":"-0.7979999999999999","city":"Rybinsk","latitude":"58.66N","longitude":"40.00E"}
{"date":"2012-08-01","average_temperature":"23.517","city":"São Gonçalo","latitude":"23.31S","longitude":"42.82W"}
{"date":"2013-01-01","average_temperature":"13.597999999999999","city":"Sabratah","latitude":"32.95N","longitude":"12.45E"}
{"date":"2013-05-01","average_temperature":"23.496","city":"Sabzevar","latitude":"36.17N","longitude":"57.68E"}
{"date":"2010-08-01","average_temperature":"18.015","city":"Saint Petersburg","latitude":"60.27N","longitude":"29.19E"}
{"date":"2010-02-01","average_temperature":"5.903","city":"Sakura","latitude":"36.17N","longitude":"141.22E"}
{"date":"2012-04-01","average_temperature":"27.463","city":"Salalah","latitude":"16.87N","longitude":"53.58E"}
{"date":"2012-01-01","average_temperature":"14.259","city":"Salamanca","latitude":"20.09N","longitude":"100.66W"}
{"date":"2011-12-01","average_temperature":"2.9989999999999997","city":"Salem","latitude":"44.20N","longitude":"122.98W"}
{"date":"2013-09-01","average_temperature":"17.143","city":"Salem","latitude":"44.20N","longitude":"122.98W"}
{"date":"2010-12-01","average_temperature":"10.497","city":"Salinas","latitude":"36.17N","longitude":"121.33W"}
{"date":"2011-12-01","average_temperature":"-1.729","city":"Salzburg","latitude":"47.42N","longitude":"13.03E"}
{"date":"2011-12-01","average_temperature":"-0.6809999999999999","city":"Samarkand","latitude":"39.38N","longitude":"66.59E"}
{"date":"2012-09-01","average_temperature":"19.91","city":"Samarkand","latitude":"39.38N","longitude":"66.59E"}
{"date":"2013-07-01","average_temperature":"28.045","city":"Sambalpur","latitude":"21.70N","longitude":"83.94E"}
{"date":"2013-01-01","average_temperature":"24.388","city":"San Juan","latitude":"18.48N","longitude":"65.92W"}
{"date":"2012-09-01","average_temperature":"20.915","city":"San Juan Sacatepéquez","latitude":"15.27N","longitude":"90.83W"}
{"date":"2010-07-01","average_temperature":"28.315","city":"San Pedro De Macorís","latitude":"18.48N","longitude":"69.30W"}
{"date":"2012-05-01","average_temperature":"19.942","city":"Sanandaj","latitude":"34.56N","longitude":"46.70E"}
{"date":"2012-04-01","average_temperature":"14.667","city":"Sanmenxia","latitude":"34.56N","longitude":"110.92E"}
{"date":"2012-11-01","average_temperature":"5.242000000000001","city":"Sanmenxia","latitude":"34.56N","longitude":"110.92E"}
{"date":"2011-08-01","average_temperature":"26.581","city":"Santa Ana","latitude":"13.66N","longitude":"90.00W"}
{"date":"2012-04-01","average_temperature":"14.751","city":"Santa Clarita","latitude":"34.56N","longitude":"118.70W"}
{"date":"2013-01-01","average_temperature":"24.537","city":"Santa Maria","latitude":"29.74S","longitude":"53.54W"}
{"date":"2011-07-01","average_temperature":"19.649","city":"Santa Rosa","latitude":"37.78N","longitude":"122.03W"}
{"date":"2013-09-01","average_temperature":"20.471","city":"Santa Rosa","latitude":"37.78N","longitude":"122.03W"}
{"date":"2012-12-01","average_temperature":"27.315","city":"Santarém","latitude":"2.41S","longitude":"55.45W"}
{"date":"2010-03-01","average_temperature":"23.756999999999998","city":"Santo Domingo","latitude":"0.80S","longitude":"79.55W"}
{"date":"2013-03-01","average_temperature":"22.951","city":"Santo Domingo","latitude":"0.80S","longitude":"79.55W"}
{"date":"2010-12-01","average_temperature":"8.297999999999998","city":"Savannah","latitude":"31.35N","longitude":"81.05W"}
{"date":"2012-12-01","average_temperature":"17.62","city":"Sawai Madhopur","latitude":"26.52N","longitude":"77.01E"}
{"date":"2011-12-01","average_temperature":"9.137","city":"Scottsdale","latitude":"32.95N","longitude":"112.02W"}
{"date":"2010-12-01","average_temperature":"27.405","city":"Sekondi","latitude":"5.63N","longitude":"1.61W"}
{"date":"2013-09-01","city":"Sepatan","latitude":"5.63S","longitude":"106.55E"}
{"date":"2012-09-01","average_temperature":"27.879","city":"Serekunda","latitude":"13.66N","longitude":"17.34W"}
{"date":"2012-09-01","average_temperature":"12.010000000000002","city":"Sergiyev Posad","latitude":"57.05N","longitude":"36.89E"}
{"date":"2010-07-01","average_temperature":"28.862","city":"Sevilla","latitude":"37.78N","longitude":"6.10W"}
{"date":"2011-07-01","average_temperature":"29.799000000000003","city":"Shahjahanpur","latitude":"28.13N","longitude":"79.09E"}
{"date":"2013-05-01","average_temperature":"22.714000000000002","city":"Shahrud","latitude":"36.17N","longitude":"55.69E"}
{"date":"2013-02-01","average_temperature":"29.84","city":"Shaki","latitude":"8.84N","longitude":"4.05E"}
{"date":"2012-07-01","average_temperature":"29.441","city":"Shanghai","latitude":"31.35N","longitude":"120.63E"}
{"date":"2010-04-01","average_temperature":"14.768999999999998","city":"Shaoyang","latitude":"26.52N","longitude":"111.04E"}
{"date":"2010-09-01","average_temperature":"24.052","city":"Shaoyang","latitude":"26.52N","longitude":"111.04E"}
{"date":"2010-09-01","average_temperature":"24.544","city":"Shashi","latitude":"29.74N","longitude":"112.62E"}
{"date":"2012-06-01","average_temperature":"26.539","city":"Shashi","latitude":"29.74N","longitude":"112.62E"}
{"date":"2012-07-01","average_temperature":"20.772","city":"Sherbrooke","latitude":"45.81N","longitude":"72.69W"}
{"date":"2010-09-01","average_temperature":"17.025000000000002","city":"Shimla","latitude":"31.35N","longitude":"77.28E"}
{"date":"2012-02-01","average_temperature":"26.5","city":"Shimoga","latitude":"13.66N","longitude":"75.14E"}
{"date":"2012-08-01","average_temperature":"23.638","city":"Shinyanga","latitude":"4.02S","longitude":"32.95E"}
{"date":"2011-08-01","average_temperature":"23.889","city":"Shizuishan","latitude":"39.38N","longitude":"106.13E"}
{"date":"2012-12-01","average_temperature":"19.621","city":"Shrirampur","latitude":"23.31N","longitude":"88.25E"}
{"date":"2013-03-01","average_temperature":"-9.064","city":"Shuangyashan","latitude":"47.42N","longitude":"131.45E"}
{"date":"2012-12-01","average_temperature":"-4.737","city":"Siauliai","latitude":"55.45N","longitude":"22.68E"}
{"date":"2011-12-01","average_temperature":"27.438000000000002","city":"Sidoarjo","latitude":"7.23S","longitude":"112.70E"}
{"date":"2013-01-01","average_temperature":"26.127","city":"Sikasso","latitude":"10.45N","longitude":"5.73W"}
{"date":"2012-08-01","average_temperature":"27.555999999999997","city":"Singapore","latitude":"0.80N","longitude":"103.66E"}
{"date":"2012-10-01","average_temperature":"25.57","city":"Sirsa","latitude":"29.74N","longitude":"75.69E"}
{"date":"2013-01-01","average_temperature":"28.449","city":"Sobral","latitude":"4.02S","longitude":"40.98W"}
{"date":"2010-07-01","average_temperature":"32.714","city":"Sohag","latitude":"26.52N","longitude":"32.24E"}
{"date":"2013-03-01","average_temperature":"21.62","city":"Sohag","latitude":"26.52N","longitude":"32.24E"}
{"date":"2010-11-01","average_temperature":"9.515","city":"Soka","latitude":"36.17N","longitude":"139.23E"}
{"date":"2013-07-01","average_temperature":"19.869","city":"Solingen","latitude":"50.63N","longitude":"6.34E"}
{"date":"2011-01-01","average_temperature":"4.1","city":"Southend On Sea","latitude":"52.24N","longitude":"0.00W"}
{"date":"2011-07-01","average_temperature":"27.529","city":"Spanish Town","latitude":"18.48N","longitude":"77.75W"}
{"date":"2013-03-01","average_temperature":"2.521","city":"Springfield","latitude":"39.38N","longitude":"89.48W"}
{"date":"2010-02-01","average_temperature":"24.96","city":"Srikakulam","latitude":"18.48N","longitude":"84.51E"}
{"date":"2012-06-01","average_temperature":"19.958","city":"Staryy Oskol","latitude":"50.63N","longitude":"36.76E"}
{"date":"2012-10-01","average_temperature":"11.34","city":"Suceava","latitude":"47.42N","longitude":"27.24E"}
{"date":"2012-10-01","average_temperature":"8.511000000000001","city":"Sudbury","latitude":"45.81N","longitude":"81.92W"}
{"date":"2013-04-01","average_temperature":"19.256","city":"Suining","latitude":"29.74N","longitude":"105.23E"}
{"date":"2010-06-01","average_temperature":"33.873000000000005","city":"Sultanpur","latitude":"26.52N","longitude":"82.39E"}
{"date":"2011-11-01","average_temperature":"13.718","city":"Sur","latitude":"32.95N","longitude":"35.43E"}
{"date":"2012-12-01","average_temperature":"27.612","city":"Surabaya","latitude":"7.23S","longitude":"112.70E"}
{"date":"2013-04-01","average_temperature":"27.046999999999997","city":"Surakarta","latitude":"7.23S","longitude":"111.08E"}
{"date":"2013-02-01","average_temperature":"23.93","city":"Surat","latitude":"21.70N","longitude":"73.56E"}
{"date":"2010-05-01","average_temperature":"11.279000000000002","city":"Sutton Coldfield","latitude":"52.24N","longitude":"2.63W"}
{"date":"2011-05-01","average_temperature":"18.11","city":"Suzuka","latitude":"34.56N","longitude":"136.22E"}
{"date":"2012-04-01","average_temperature":"18.695","city":"Sydney","latitude":"34.56S","longitude":"151.78E"}
{"date":"2011-08-01","average_temperature":"20.605999999999998","city":"Syracuse","latitude":"42.59N","longitude":"76.36W"}
{"date":"2012-10-01","average_temperature":"11.032","city":"Syracuse","latitude":"42.59N","longitude":"76.36W"}
{"date":"2011-03-01","average_temperature":"6.417000000000001","city":"Székesfehérvár","latitude":"47.42N","longitude":"17.76E"}
{"date":"2011-06-01","average_temperature":"17.435000000000002","city":"Szczecin","latitude":"53.84N","longitude":"15.00E"}
{"date":"2011-04-01","average_temperature":"21.478","city":"Taboão Da Serra","latitude":"23.31S","longitude":"46.31W"}
{"date":"2012-01-01","average_temperature":"9.737","city":"Tabuk","latitude":"28.13N","longitude":"37.27E"}
{"date":"2013-04-01","average_temperature":"28.755000000000006","city":"Tacloban","latitude":"12.05N","longitude":"124.93E"}
{"date":"2010-09-01","average_temperature":"27.923","city":"Taicheng","latitude":"21.70N","longitude":"113.37E"}
{"date":"2011-01-01","average_temperature":"15.732999999999999","city":"Talkha","latitude":"31.35N","longitude":"32.04E"}
{"date":"2011-08-01","average_temperature":"28.208","city":"Talkha","latitude":"31.35N","longitude":"32.04E"}
{"date":"2011-06-01","average_temperature":"21.085","city":"Tama","latitude":"36.17N","longitude":"139.23E"}
{"date":"2012-08-01","average_temperature":"26.680999999999997","city":"Tama","latitude":"36.17N","longitude":"139.23E"}
{"date":"2010-06-01","average_temperature":"35.01","city":"Tando Adam","latitude":"26.52N","longitude":"68.06E"}
{"date":"2010-11-01","average_temperature":"26.994","city":"Tanete","latitude":"5.63S","longitude":"119.46E"}
{"date":"2012-01-01","average_temperature":"26.427","city":"Tanete","latitude":"5.63S","longitude":"119.46E"}
{"date":"2010-01-01","average_temperature":"26.736","city":"Tanjung Morawa","latitude":"4.02N","longitude":"98.84E"}
{"date":"2011-01-01","average_temperature":"8.221","city":"Taranto","latitude":"40.99N","longitude":"17.04E"}
{"date":"2010-01-01","average_temperature":"19.045","city":"Tarija","latitude":"21.70S","longitude":"64.90W"}
{"date":"2010-03-01","average_temperature":"-2.343","city":"Tartu","latitude":"58.66N","longitude":"27.69E"}
{"date":"2012-12-01","average_temperature":"20.895","city":"Taunggyi","latitude":"20.09N","longitude":"97.25E"}
{"date":"2011-04-01","average_temperature":"8.427999999999999","city":"Temirtau","latitude":"50.63N","longitude":"72.25E"}
{"date":"2011-11-01","average_temperature":"13.92","city":"Temuco","latitude":"39.38S","longitude":"72.83W"}
{"date":"2010-05-01","average_temperature":"28.56","city":"Teshie","latitude":"5.63N","longitude":"0.00W"}
{"date":"2012-10-01","average_temperature":"25.612","city":"Thanh Hóa","latitude":"20.09N","longitude":"105.78E"}
{"date":"2012-11-01","average_temperature":"27.789","city":"Thanjavur","latitude":"10.45N","longitude":"79.36E"}
{"date":"2013-08-01","average_temperature":"28.358","city":"Thiès","latitude":"15.27N","longitude":"17.50W"}
{"date":"2011-02-01","average_temperature":"25.761000000000006","city":"Timon","latitude":"5.63S","longitude":"43.59W"}
{"date":"2012-12-01","average_temperature":"8.652999999999999","city":"Tirana","latitude":"40.99N","longitude":"19.17E"}
{"date":"2011-09-01","average_temperature":"23.788","city":"Tokuyama","latitude":"34.56N","longitude":"132.32E"}
{"date":"2011-10-01","average_temperature":"15.488","city":"Tokyo","latitude":"36.17N","longitude":"139.23E"}
{"date":"2013-03-01","average_temperature":"7.955","city":"Tokyo","latitude":"36.17N","longitude":"139.23E"}
{"date":"2012-06-01","average_temperature":"20.666999999999998","city":"Tolyatti","latitude":"53.84N","longitude":"50.45E"}
{"date":"2012-03-01","average_temperature":"-1.94","city":"Tongliao","latitude":"44.20N","longitude":"122.98E"}
{"date":"2013-06-01","average_temperature":"24.366000000000003","city":"Tongzhou","latitude":"39.38N","longitude":"116.53E"}
{"date":"2010-01-01","average_temperature":"12.23","city":"Torreón","latitude":"24.92N","longitude":"102.86W"}
{"date":"2013-02-01","average_temperature":"4.8","city":"Tottori","latitude":"34.56N","longitude":"134.27E"}
{"date":"2012-12-01","average_temperature":"5.090999999999998","city":"Toulouse","latitude":"44.20N","longitude":"2.24E"}
{"date":"2010-12-01","average_temperature":"7.487","city":"Toyota","latitude":"34.56N","longitude":"136.22E"}
{"date":"2013-08-01","average_temperature":"28.180999999999997","city":"Toyota","latitude":"34.56N","longitude":"136.22E"}
{"date":"2011-02-01","average_temperature":"2.197","city":"Trabzon","latitude":"40.99N","longitude":"40.47E"}
{"date":"2011-07-01","average_temperature":"21.499000000000002","city":"Trabzon","latitude":"40.99N","longitude":"40.47E"}
{"date":"2012-03-01","average_temperature":"18.378","city":"Trelew","latitude":"42.59S","longitude":"65.45W"}
{"date":"2011-12-01","average_temperature":"-4.111000000000001","city":"Trois Rivières","latitude":"45.81N","longitude":"72.69W"}
{"date":"2013-04-01","average_temperature":"17.412","city":"Tucson","latitude":"31.35N","longitude":"111.20W"}
{"date":"2013-06-01","average_temperature":"19.187","city":"Tula","latitude":"53.84N","longitude":"36.82E"}
{"date":"2010-07-01","average_temperature":"29.674","city":"Tungi","latitude":"23.31N","longitude":"90.00E"}
{"date":"2011-01-01","average_temperature":"17.516000000000002","city":"Tungi","latitude":"23.31N","longitude":"90.00E"}
{"date":"2012-07-01","average_temperature":"26.454","city":"Tuxtla Gutiérrez","latitude":"16.87N","longitude":"93.77W"}
{"date":"2012-11-01","average_temperature":"8.008000000000001","city":"Tuzla","latitude":"44.20N","longitude":"17.89E"}
{"date":"2011-02-01","average_temperature":"-12.503","city":"Tver","latitude":"57.05N","longitude":"36.89E"}
{"date":"2012-07-01","average_temperature":"16.192","city":"Ukhta","latitude":"63.49N","longitude":"52.20E"}
{"date":"2012-03-01","average_temperature":"7.909000000000002","city":"Ulm","latitude":"49.03N","longitude":"9.80E"}
{"date":"2013-05-01","average_temperature":"12.129","city":"Ulm","latitude":"49.03N","longitude":"9.80E"}
{"date":"2011-12-01","average_temperature":"24.771","city":"Uruguaiana","latitude":"29.74S","longitude":"57.23W"}
{"date":"2013-09-01","city":"Usak","latitude":"39.38N","longitude":"29.13E"}
{"date":"2013-01-01","average_temperature":"26.92","city":"Várzea Grande","latitude":"15.27S","longitude":"55.83W"}
{"date":"2010-12-01","average_temperature":"10.037","city":"Valencia","latitude":"39.38N","longitude":"0.00W"}
{"date":"2013-02-01","average_temperature":"10.229","city":"Vallejo","latitude":"37.78N","longitude":"122.03W"}
{"date":"2012-03-01","average_temperature":"19.097","city":"Vanderbijlpark","latitude":"26.52S","longitude":"28.66E"}
{"date":"2012-12-01","average_temperature":"5.375","city":"Varamin","latitude":"36.17N","longitude":"51.71E"}
{"date":"2013-06-01","average_temperature":"26.566","city":"Veracruz","latitude":"18.48N","longitude":"96.34W"}
{"date":"2010-08-01","average_temperature":"19.628","city":"Verona","latitude":"45.81N","longitude":"10.38E"}
{"date":"2012-11-01","average_temperature":"9.929","city":"Vicenza","latitude":"45.81N","longitude":"12.69E"}
{"date":"2010-09-01","average_temperature":"12.833","city":"Vienna","latitude":"49.03N","longitude":"17.14E"}
{"date":"2010-04-01","average_temperature":"7.12","city":"Vilnius","latitude":"55.45N","longitude":"25.51E"}
{"date":"2010-07-01","average_temperature":"28.225","city":"Vinh Long","latitude":"10.45N","longitude":"105.55E"}
{"date":"2010-01-01","average_temperature":"-8.311","city":"Vinnitsa","latitude":"49.03N","longitude":"29.39E"}
{"date":"2011-03-01","average_temperature":"27.675","city":"Vitória De Santo Antão","latitude":"8.84S","longitude":"34.86W"}
{"date":"2010-05-01","average_temperature":"18.682","city":"Volgograd","latitude":"49.03N","longitude":"44.08E"}
{"date":"2011-09-01","average_temperature":"19.493","city":"Volta Redonda","latitude":"21.70S","longitude":"44.13W"}
{"date":"2012-06-01","average_temperature":"19.4","city":"Voronezh","latitude":"52.24N","longitude":"39.42E"}
{"date":"2010-01-01","average_temperature":"-2.782","city":"Würzburg","latitude":"49.03N","longitude":"9.80E"}
{"date":"2013-02-01","average_temperature":"-0.8280000000000001","city":"Würzburg","latitude":"49.03N","longitude":"9.80E"}
{"date":"2013-05-01","average_temperature":"25.03","city":"Wah","latitude":"34.56N","longitude":"72.00E"}
{"date":"2013-06-01","average_temperature":"30.51","city":"Warangal","latitude":"18.48N","longitude":"79.44E"}
{"date":"2011-07-01","average_temperature":"28.163","city":"Wardha","latitude":"20.09N","longitude":"78.48E"}
{"date":"2010-11-01","average_temperature":"17.590999999999998","city":"Warqla","latitude":"31.35N","longitude":"5.65E"}
{"date":"2010-03-01","average_temperature":"8.815999999999997","city":"Washington","latitude":"39.38N","longitude":"76.99W"}
{"date":"2011-10-01","average_temperature":"24.624","city":"Wazirabad","latitude":"32.95N","longitude":"73.72E"}
{"date":"2010-05-01","average_temperature":"20.344","city":"Wenzhou","latitude":"28.13N","longitude":"120.91E"}
{"date":"2011-09-01","average_temperature":"14.777999999999999","city":"West Bromwich","latitude":"52.24N","longitude":"2.63W"}
{"date":"2010-04-01","average_temperature":"8.177999999999999","city":"West Valley City","latitude":"40.99N","longitude":"112.90W"}
{"date":"2011-02-01","average_temperature":"0.15100000000000002","city":"West Valley City","latitude":"40.99N","longitude":"112.90W"}
{"date":"2011-12-01","average_temperature":"-3.0610000000000004","city":"Westminster","latitude":"39.38N","longitude":"104.05W"}
{"date":"2010-06-01","average_temperature":"29.004","city":"Wichita Falls","latitude":"34.56N","longitude":"99.24W"}
{"date":"2010-09-01","average_temperature":"12.522","city":"Wiesbaden","latitude":"50.63N","longitude":"8.87E"}
{"date":"2011-10-01","average_temperature":"11.339","city":"Windsor","latitude":"42.59N","longitude":"82.91W"}
{"date":"2012-06-01","average_temperature":"22.201","city":"Wuda","latitude":"39.38N","longitude":"106.13E"}
{"date":"2012-06-01","average_temperature":"20.736","city":"Wufeng","latitude":"28.13N","longitude":"104.55E"}
{"date":"2012-09-01","average_temperature":"23.718000000000004","city":"Wuhan","latitude":"29.74N","longitude":"114.46E"}
{"date":"2011-10-01","average_temperature":"22.158","city":"Xiamen","latitude":"24.92N","longitude":"118.82E"}
{"date":"2011-07-01","average_temperature":"17.445999999999998","city":"Xico","latitude":"20.09N","longitude":"98.96W"}
{"date":"2010-02-01","average_temperature":"-24.798","city":"Yakeshi","latitude":"49.03N","longitude":"120.00E"}
{"date":"2010-10-01","average_temperature":"-0.546","city":"Yakeshi","latitude":"49.03N","longitude":"120.00E"}
{"date":"2012-12-01","average_temperature":"-1.376","city":"Yantai","latitude":"37.78N","longitude":"122.03E"}
{"date":"2013-01-01","average_temperature":"-1.713","city":"Yantai","latitude":"37.78N","longitude":"122.03E"}
{"date":"2010-08-01","average_temperature":"27.835","city":"Yavatmal","latitude":"20.09N","longitude":"78.48E"}
{"date":"2013-06-01","average_temperature":"30.33","city":"Yavatmal","latitude":"20.09N","longitude":"78.48E"}
{"date":"2011-08-01","average_temperature":"19.611","city":"Yelets","latitude":"52.24N","longitude":"39.42E"}
{"date":"2013-02-01","average_temperature":"10.054","city":"Yibin","latitude":"28.13N","longitude":"104.55E"}
{"date":"2010-06-01","average_temperature":"25.965999999999998","city":"Yingzhong","latitude":"31.35N","longitude":"113.09E"}
{"date":"2011-11-01","average_temperature":"13.524000000000001","city":"Yizheng","latitude":"32.95N","longitude":"119.68E"}
{"date":"2010-11-01","average_temperature":"27.369000000000003","city":"Yogyakarta","latitude":"7.23S","longitude":"111.08E"}
{"date":"2012-04-01","average_temperature":"25.12","city":"Yulin","latitude":"21.70N","longitude":"109.90E"}
{"date":"2012-11-01","average_temperature":"14.217","city":"Zacatecas","latitude":"23.31N","longitude":"102.23W"}
{"date":"2010-12-01","average_temperature":"-19.53","city":"Zalantun","latitude":"47.42N","longitude":"121.97E"}
{"date":"2010-05-01","average_temperature":"15.338","city":"Zanjan","latitude":"36.17N","longitude":"47.73E"}
{"date":"2010-09-01","average_temperature":"11.602","city":"Zelenograd","latitude":"55.45N","longitude":"36.85E"}
{"date":"2012-01-01","average_temperature":"-7.713000000000001","city":"Zelenograd","latitude":"55.45N","longitude":"36.85E"}
{"date":"2011-02-01","average_temperature":"0.336","city":"Zenica","latitude":"44.20N","longitude":"17.89E"}
{"date":"2011-10-01","average_temperature":"9.512","city":"Zenica","latitude":"44.20N","longitude":"17.89E"}
{"date":"2011-10-01","average_temperature":"15.03","city":"Zhaocheng","latitude":"37.78N","longitude":"120.00E"}
{"date":"2012-06-01","average_temperature":"23.8","city":"Zhezkazgan","latitude":"47.42N","longitude":"67.50E"}
{"date":"2010-12-01","average_temperature":"6.712999999999999","city":"Zhicheng","latitude":"29.74N","longitude":"110.77E"}
{"date":"2012-09-01","average_temperature":"21.315","city":"Zhicheng","latitude":"29.74N","longitude":"110.77E"}
{"date":"2012-02-01","average_temperature":"15.242","city":"Zhongshan","latitude":"21.70N","longitude":"113.37E"}
{"date":"2011-07-01","average_temperature":"28.355","city":"Zhumadian","latitude":"32.95N","longitude":"113.94E"}
{"date":"2013-04-01","average_temperature":"9.199","city":"Zhytomyr","latitude":"50.63N","longitude":"29.15E"}
{"date":"2012-08-01","average_temperature":"27.304000000000002","city":"Ziguinchor","latitude":"12.05N","longitude":"16.44W"}
{"date":"2013-03-01","average_temperature":"32.198","city":"Zinder","latitude":"13.66N","longitude":"9.08E"}
{"date":"2011-03-01","average_temperature":"5.787999999999999","city":"Zonguldak","latitude":"40.99N","longitude":"31.95E"}
