{"date":"2013-02-01","average_temperature":"29.271","city":"Aba","latitude":"5.63N","longitude":"8.07E"}
{"date":"2011-01-01","average_temperature":"25.305999999999997","city":"Acapulco","latitude":"16.87N","longitude":"100.47W"}
{"date":"2013-01-01","average_temperature":"26.085","city":"Acapulco","latitude":"16.87N","longitude":"100.47W"}
{"date":"2010-10-01","average_temperature":"27.096999999999998","city":"Aden","latitude":"13.66N","longitude":"45.41E"}
{"date":"2013-03-01","average_temperature":"1.285","city":"Akron","latitude":"40.99N","longitude":"80.95W"}
{"date":"2012-05-01","average_temperature":"15.392000000000001","city":"Aksaray","latitude":"37.78N","longitude":"34.58E"}
{"date":"2010-12-01","average_temperature":"16.131","city":"Alanya","latitude":"36.17N","longitude":"31.82E"}
{"date":"2013-06-01","average_temperature":"23.418000000000003","city":"Albuquerque","latitude":"34.56N","longitude":"107.03W"}
{"date":"2012-08-01","average_temperature":"23.021","city":"Alcobendas","latitude":"40.99N","longitude":"4.26W"}
{"date":"2011-02-01","average_temperature":"5.803999999999999","city":"Alcorcón","latitude":"40.99N","longitude":"4.26W"}
{"date":"2011-01-01","average_temperature":"-1.709","city":"Alexandria","latitude":"39.38N","longitude":"76.99W"}
{"date":"2013-08-01","average_temperature":"25.813000000000002","city":"Algeciras","latitude":"36.17N","longitude":"5.97W"}
{"date":"2011-02-01","average_temperature":"18.136","city":"Aligarh","latitude":"28.13N","longitude":"77.27E"}
{"date":"2012-08-01","average_temperature":"19.363","city":"Almetyevsk","latitude":"55.45N","longitude":"51.02E"}
{"date":"2010-08-01","average_temperature":"30.031","city":"Alwar","latitude":"28.13N","longitude":"77.27E"}
{"date":"2010-04-01","average_temperature":"16.201","city":"Amadora","latitude":"39.38N","longitude":"8.32W"}
{"date":"2012-09-01","average_temperature":"28.201","city":"Ambala","latitude":"29.74N","longitude":"77.54E"}
{"date":"2012-01-01","average_temperature":"27.818","city":"Ambon","latitude":"4.02S","longitude":"127.77E"}
{"date":"2012-03-01","average_temperature":"9.721","city":"Amiens","latitude":"49.03N","longitude":"2.45E"}
{"date":"2012-06-01","average_temperature":"32.5","city":"Anand","latitude":"23.31N","longitude":"72.52E"}
{"date":"2010-12-01","average_temperature":"-17.757","city":"Anda","latitude":"45.81N","longitude":"125.77E"}
{"date":"2010-01-01","average_temperature":"25.454","city":"Angeles","latitude":"15.27N","longitude":"120.83E"}
{"date":"2011-08-01","average_temperature":"21.144","city":"Angra Dos Reis","latitude":"23.31S","longitude":"44.56W"}
{"date":"2013-05-01","average_temperature":"21.624000000000002","city":"Angra Dos Reis","latitude":"23.31S","longitude":"44.56W"}
{"date":"2012-09-01","average_temperature":"26.132","city":"Anyama","latitude":"5.63N","longitude":"4.84W"}
{"date":"2011-07-01","average_temperature":"24.392","city":"Anyang","latitude":"36.17N","longitude":"113.37E"}
{"date":"2013-05-01","average_temperature":"11.464","city":"Apeldoorn","latitude":"52.24N","longitude":"5.26E"}
{"date":"2011-01-01","average_temperature":"13.512","city":"Apodaca","latitude":"26.52N","longitude":"100.30W"}
{"date":"2013-07-01","average_temperature":"23.768","city":"Araruama","latitude":"23.31S","longitude":"42.82W"}
{"date":"2010-07-01","average_temperature":"22.15","city":"Armenia","latitude":"4.02N","longitude":"76.34W"}
{"date":"2012-06-01","average_temperature":"14.702","city":"Arnhem","latitude":"52.24N","longitude":"5.26E"}
{"date":"2010-12-01","average_temperature":"5.7189999999999985","city":"Asaka","latitude":"36.17N","longitude":"139.23E"}
{"date":"2012-06-01","average_temperature":"25.409000000000002","city":"Astanajapura","latitude":"7.23S","longitude":"107.84E"}
{"date":"2011-03-01","average_temperature":"1.9509999999999998","city":"Astrakhan","latitude":"45.81N","longitude":"47.31E"}
{"date":"2012-01-01","average_temperature":"28.561","city":"Asunción","latitude":"24.92S","longitude":"58.52W"}
{"date":"2010-02-01","average_temperature":"-3.5050000000000003","city":"Augsburg","latitude":"47.42N","longitude":"10.66E"}
{"date":"2012-06-01","average_temperature":"13.819","city":"Augsburg","latitude":"47.42N","longitude":"10.66E"}
{"date":"2010-06-01","average_temperature":"19.962","city":"Aurora","latitude":"39.38N","longitude":"104.05W"}
{"date":"2011-06-01","average_temperature":"28.734","city":"Bac Lieu","latitude":"8.84N","longitude":"106.22E"}
{"date":"2012-06-01","average_temperature":"18.054","city":"Badaojiang","latitude":"42.59N","longitude":"126.55E"}
{"date":"2012-07-01","average_temperature":"25.217","city":"Baglan","latitude":"36.17N","longitude":"69.61E"}
{"date":"2013-02-01","average_temperature":"16.276","city":"Bahawalpur","latitude":"29.74N","longitude":"72.00E"}
{"date":"2011-10-01","average_temperature":"18.793","city":"Bahir Dar","latitude":"12.05N","longitude":"37.81E"}
{"date":"2013-05-01","average_temperature":"21.681","city":"Bahir Dar","latitude":"12.05N","longitude":"37.81E"}
{"date":"2013-08-01","average_temperature":"22.689","city":"Baicheng","latitude":"45.81N","longitude":"123.46E"}
{"date":"2011-06-01","average_temperature":"29.873","city":"Baidyabati","latitude":"23.31N","longitude":"88.25E"}
{"date":"2010-07-01","average_temperature":"24.58","city":"Balashikha","latitude":"55.45N","longitude":"36.85E"}
{"date":"2012-10-01","average_temperature":"26.631999999999998","city":"Baliuag","latitude":"15.27N","longitude":"120.83E"}
{"date":"2011-11-01","average_temperature":"23.334","city":"Balurghat","latitude":"24.92N","longitude":"88.67E"}
{"date":"2011-10-01","average_temperature":"29.493000000000002","city":"Bama","latitude":"12.05N","longitude":"13.15E"}
{"date":"2011-09-01","average_temperature":"22.612","city":"Baneh","latitude":"36.17N","longitude":"45.75E"}
{"date":"2011-09-01","average_temperature":"19.007","city":"Banja Luka","latitude":"44.20N","longitude":"17.89E"}
{"date":"2012-11-01","average_temperature":"4.069","city":"Baoji","latitude":"34.56N","longitude":"107.03E"}
{"date":"2010-07-01","average_temperature":"22.048","city":"Baoshan","latitude":"47.42N","longitude":"131.45E"}
{"date":"2012-03-01","average_temperature":"12.508","city":"Bari","latitude":"40.99N","longitude":"17.04E"}
{"date":"2013-02-01","average_temperature":"-14.983","city":"Barnaul","latitude":"53.84N","longitude":"83.18E"}
{"date":"2011-06-01","average_temperature":"32.489000000000004","city":"Batala","latitude":"31.35N","longitude":"75.39E"}
{"date":"2012-12-01","average_temperature":"14.412","city":"Batala","latitude":"31.35N","longitude":"75.39E"}
{"date":"2012-01-01","average_temperature":"25.732","city":"Batangas","latitude":"13.66N","longitude":"121.38E"}
{"date":"2013-03-01","average_temperature":"15.744000000000002","city":"Bayrut","latitude":"34.56N","longitude":"35.03E"}
{"date":"2010-07-01","average_temperature":"13.665999999999999","city":"Belfast","latitude":"55.45N","longitude":"5.67W"}
{"date":"2011-11-01","average_temperature":"22.294","city":"Belford Roxo","latitude":"23.31S","longitude":"42.82W"}
{"date":"2010-11-01","average_temperature":"26.206999999999997","city":"Belgaum","latitude":"15.27N","longitude":"74.17E"}
{"date":"2012-05-01","average_temperature":"21.965000000000003","city":"Bene Beraq","latitude":"32.95N","longitude":"35.43E"}
{"date":"2010-07-01","average_temperature":"29.5","city":"Benha","latitude":"29.74N","longitude":"31.38E"}
{"date":"2011-05-01","average_temperature":"13.493","city":"Bern","latitude":"47.42N","longitude":"8.29E"}
{"date":"2012-12-01","average_temperature":"25.759","city":"Bhadravati","latitude":"13.66N","longitude":"75.14E"}
{"date":"2010-10-01","average_temperature":"27.695","city":"Bhagalpur","latitude":"24.92N","longitude":"86.90E"}
{"date":"2013-02-01","average_temperature":"8.399999999999999","city":"Bharatpur","latitude":"28.13N","longitude":"84.55E"}
{"date":"2010-05-01","average_temperature":"31.308000000000003","city":"Bhatpara","latitude":"23.31N","longitude":"88.25E"}
{"date":"2012-11-01","average_temperature":"26.112","city":"Bhimavaram","latitude":"16.87N","longitude":"82.05E"}
{"date":"2011-05-01","average_temperature":"30.493","city":"Bhiwandi","latitude":"20.09N","longitude":"73.36E"}
{"date":"2013-03-01","average_temperature":"29.070999999999998","city":"Bhubaneswar","latitude":"20.09N","longitude":"85.31E"}
{"date":"2010-02-01","average_temperature":"22.835","city":"Bhuj","latitude":"23.31N","longitude":"69.03E"}
{"date":"2012-09-01","average_temperature":"27.022","city":"Bhusawal","latitude":"21.70N","longitude":"75.29E"}
{"date":"2012-06-01","average_temperature":"19.99","city":"Bila Tserkva","latitude":"49.03N","longitude":"29.39E"}
{"date":"2012-11-01","average_temperature":"8.359","city":"Bilbao","latitude":"42.59N","longitude":"2.18W"}
{"date":"2012-07-01","average_temperature":"20.801","city":"Birigui","latitude":"21.70S","longitude":"51.06W"}
{"date":"2010-01-01","average_temperature":"26.513","city":"Bissau","latitude":"12.05N","longitude":"14.79W"}
{"date":"2012-11-01","average_temperature":"26.160999999999998","city":"Blantyre","latitude":"15.27S","longitude":"35.83E"}
{"date":"2011-06-01","average_temperature":"26.753","city":"Bogor","latitude":"7.23S","longitude":"106.22E"}
{"date":"2010-12-01","average_temperature":"25.552","city":"Boma","latitude":"5.63S","longitude":"12.91E"}
{"date":"2011-07-01","average_temperature":"26.116999999999997","city":"Borujerd","latitude":"34.56N","longitude":"48.65E"}
{"date":"2012-01-01","average_temperature":"7.645","city":"Bournemouth","latitude":"50.63N","longitude":"1.27W"}
{"date":"2010-02-01","average_temperature":"24.83","city":"Bragança Paulista","latitude":"23.31S","longitude":"46.31W"}
{"date":"2013-01-01","average_temperature":"-4.9270000000000005","city":"Brest","latitude":"52.24N","longitude":"23.65E"}
{"date":"2011-02-01","average_temperature":"-10.948","city":"Bryansk","latitude":"53.84N","longitude":"34.09E"}
{"date":"2010-07-01","average_temperature":"30.574","city":"Budaun","latitude":"28.13N","longitude":"79.09E"}
{"date":"2011-07-01","average_temperature":"29.799000000000003","city":"Budaun","latitude":"28.13N","longitude":"79.09E"}
{"date":"2011-03-01","average_temperature":"27.274","city":"Butterworth","latitude":"5.63N","longitude":"100.09E"}
{"date":"2012-05-01","average_temperature":"27.406999999999996","city":"Butuan","latitude":"8.84N","longitude":"125.68E"}
{"date":"2013-08-01","average_temperature":"20.189","city":"Buzau","latitude":"45.81N","longitude":"26.54E"}
{"date":"2013-09-01","city":"Bytom","latitude":"50.63N","longitude":"19.01E"}
{"date":"2011-01-01","average_temperature":"24.963","city":"Cabanatuan","latitude":"15.27N","longitude":"120.83E"}
{"date":"2011-07-01","average_temperature":"28.691000000000006","city":"Cabimas","latitude":"10.45N","longitude":"71.18W"}
{"date":"2011-12-01","average_temperature":"24.819000000000006","city":"Cachoeiro De Itapemirim","latitude":"20.09S","longitude":"40.95W"}
{"date":"2013-03-01","average_temperature":"26.01","city":"Cachoeiro De Itapemirim","latitude":"20.09S","longitude":"40.95W"}
{"date":"2010-02-01","average_temperature":"26.855999999999998","city":"Cagua","latitude":"10.45N","longitude":"67.91W"}
{"date":"2010-07-01","average_temperature":"29.5","city":"Cairo","latitude":"29.74N","longitude":"31.38E"}
{"date":"2011-05-01","average_temperature":"27.591","city":"Calabozo","latitude":"8.84N","longitude":"67.30W"}
{"date":"2011-07-01","average_temperature":"24.417","city":"Camaragibe","latitude":"7.23S","longitude":"34.86W"}
{"date":"2010-05-01","average_temperature":"14.634","city":"Cape Town","latitude":"32.95S","longitude":"18.19E"}
{"date":"2010-10-01","average_temperature":"22.405","city":"Capiatá","latitude":"24.92S","longitude":"56.75W"}
{"date":"2013-01-01","average_temperature":"28.025","city":"Capiatá","latitude":"24.92S","longitude":"56.75W"}
{"date":"2010-01-01","average_temperature":"6.006","city":"Carrollton","latitude":"32.95N","longitude":"96.70W"}
{"date":"2011-07-01","average_temperature":"26.377","city":"Casablanca","latitude":"32.95N","longitude":"6.70W"}
{"date":"2010-02-01","average_temperature":"26.274","city":"Catanduva","latitude":"21.70S","longitude":"49.33W"}
{"date":"2010-11-01","average_temperature":"13.762","city":"Catania","latitude":"37.78N","longitude":"14.24E"}
{"date":"2011-06-01","average_temperature":"22.374","city":"Catania","latitude":"37.78N","longitude":"14.24E"}
{"date":"2010-07-01","average_temperature":"26.41","city":"Catia La Mar","latitude":"10.45N","longitude":"66.27W"}
{"date":"2010-02-01","average_temperature":"13.629000000000001","city":"Celaya","latitude":"20.09N","longitude":"100.66W"}
{"date":"2011-02-01","average_temperature":"14.372","city":"Chakwal","latitude":"32.95N","longitude":"73.72E"}
{"date":"2011-04-01","average_temperature":"15.001","city":"Chandigarh","latitude":"31.35N","longitude":"77.28E"}
{"date":"2011-10-01","average_temperature":"17.563","city":"Chaohu","latitude":"31.35N","longitude":"118.74E"}
{"date":"2011-12-01","average_temperature":"26.392000000000003","city":"Chavakachcheri","latitude":"8.84N","longitude":"80.27E"}
{"date":"2010-03-01","average_temperature":"27.128","city":"Chiang Mai","latitude":"18.48N","longitude":"99.72E"}
{"date":"2011-03-01","average_temperature":"24.793000000000003","city":"Chiang Mai","latitude":"18.48N","longitude":"99.72E"}
{"date":"2013-06-01","average_temperature":"18.196","city":"Chingola","latitude":"12.05S","longitude":"27.95E"}
{"date":"2010-09-01","average_temperature":"25.956","city":"Choloma","latitude":"15.27N","longitude":"87.50W"}
{"date":"2013-04-01","average_temperature":"17.755999999999997","city":"Chosica","latitude":"12.05S","longitude":"77.26W"}
{"date":"2010-10-01","average_temperature":"17.777","city":"Chula Vista","latitude":"32.95N","longitude":"117.77W"}
{"date":"2011-09-01","average_temperature":"26.790000000000006","city":"Chungho","latitude":"24.92N","longitude":"120.59E"}
{"date":"2013-03-01","average_temperature":"18.025","city":"Chungho","latitude":"24.92N","longitude":"120.59E"}
{"date":"2012-11-01","average_temperature":"26.804","city":"Ciampea","latitude":"7.23S","longitude":"106.22E"}
{"date":"2011-09-01","average_temperature":"25.772","city":"Cikampek","latitude":"7.23S","longitude":"107.84E"}
{"date":"2011-06-01","average_temperature":"27.709","city":"Cikarang","latitude":"5.63S","longitude":"106.55E"}
{"date":"2012-06-01","average_temperature":"27.718000000000004","city":"Cilegon","latitude":"5.63S","longitude":"106.55E"}
{"date":"2010-10-01","average_temperature":"26.32","city":"Citeureup","latitude":"5.63S","longitude":"106.55E"}
{"date":"2013-01-01","average_temperature":"24.684","city":"Ciudad Guayana","latitude":"8.84N","longitude":"62.43W"}
{"date":"2012-08-01","average_temperature":"28.084000000000003","city":"Clearwater","latitude":"28.13N","longitude":"82.73W"}
{"date":"2011-09-01","average_temperature":"18.655","city":"Cleveland","latitude":"40.99N","longitude":"80.95W"}
{"date":"2011-02-01","average_temperature":"-2.24","city":"Cluj Napoca","latitude":"47.42N","longitude":"22.50E"}
{"date":"2011-04-01","average_temperature":"19.398","city":"Coacalco","latitude":"20.09N","longitude":"98.96W"}
{"date":"2013-09-01","average_temperature":"23.450000000000006","city":"Columbia","latitude":"34.56N","longitude":"81.73W"}
{"date":"2010-10-01","average_temperature":"17.953","city":"Columbus","latitude":"32.95N","longitude":"85.21W"}
{"date":"2013-05-01","average_temperature":"8.425","city":"Comodoro Rivadavia","latitude":"45.81S","longitude":"68.08W"}
{"date":"2012-02-01","average_temperature":"26.577","city":"Conakry","latitude":"8.84N","longitude":"13.78W"}
{"date":"2011-11-01","average_temperature":"23.4","city":"Concordia","latitude":"31.35S","longitude":"58.43W"}
{"date":"2012-04-01","average_temperature":"18.843","city":"Concordia","latitude":"31.35S","longitude":"58.43W"}
{"date":"2010-11-01","average_temperature":"22.372","city":"Conselheiro Lafaiete","latitude":"20.09S","longitude":"44.36W"}
{"date":"2011-03-01","average_temperature":"20.173","city":"Corpus Christi","latitude":"28.13N","longitude":"97.27W"}
{"date":"2011-02-01","average_temperature":"24.412","city":"Cotia","latitude":"23.31S","longitude":"46.31W"}
{"date":"2012-06-01","average_temperature":"17.298000000000002","city":"Cracow","latitude":"50.63N","longitude":"19.01E"}
{"date":"2012-03-01","average_temperature":"30.451","city":"Cuddapah","latitude":"15.27N","longitude":"79.17E"}
{"date":"2012-05-01","average_temperature":"22.876","city":"Cuenca","latitude":"2.41S","longitude":"79.55W"}
{"date":"2010-06-01","average_temperature":"24.495","city":"Cuiabá","latitude":"15.27S","longitude":"55.83W"}
{"date":"2012-06-01","average_temperature":"27.729000000000006","city":"Cumaná","latitude":"10.45N","longitude":"64.64W"}
{"date":"2012-12-01","average_temperature":"22.816","city":"Curitiba","latitude":"24.92S","longitude":"49.66W"}
{"date":"2011-08-01","average_temperature":"19.398","city":"Dabrowa Gornicza","latitude":"50.63N","longitude":"19.01E"}
{"date":"2013-01-01","average_temperature":"-2.557","city":"Dabrowa Gornicza","latitude":"50.63N","longitude":"19.01E"}
{"date":"2012-03-01","average_temperature":"25.575000000000006","city":"Damoh","latitude":"23.31N","longitude":"79.51E"}
{"date":"2011-03-01","average_temperature":"23.864","city":"Delhi","latitude":"28.13N","longitude":"77.27E"}
{"date":"2011-07-01","average_temperature":"25.956","city":"Depok","latitude":"7.23S","longitude":"109.46E"}
{"date":"2012-05-01","average_temperature":"31.862","city":"Dera Ghazi Khan","latitude":"29.74N","longitude":"70.15E"}
{"date":"2013-09-01","average_temperature":"17.503","city":"Detroit","latitude":"42.59N","longitude":"82.91W"}
{"date":"2012-03-01","average_temperature":"30.872","city":"Dharmavaram","latitude":"15.27N","longitude":"77.50E"}
{"date":"2013-02-01","average_temperature":"23.864","city":"Dhule","latitude":"20.09N","longitude":"75.07E"}
{"date":"2013-01-01","average_temperature":"25.316999999999997","city":"Digos","latitude":"7.23N","longitude":"125.68E"}
{"date":"2010-10-01","average_temperature":"25.341","city":"Dimapur","latitude":"26.52N","longitude":"93.13E"}
{"date":"2012-10-01","average_temperature":"26.586","city":"Divo","latitude":"5.63N","longitude":"4.84W"}
{"date":"2013-03-01","average_temperature":"24.016","city":"Dodoma","latitude":"5.63S","longitude":"35.52E"}
{"date":"2013-03-01","average_temperature":"19.302","city":"Donghai","latitude":"23.31N","longitude":"116.21E"}
{"date":"2013-06-01","average_temperature":"27.963","city":"Donghai","latitude":"23.31N","longitude":"116.21E"}
{"date":"2011-06-01","average_temperature":"26.169","city":"Dongying","latitude":"37.78N","longitude":"117.97E"}
{"date":"2012-06-01","average_temperature":"33.833","city":"Dubai","latitude":"24.92N","longitude":"54.98E"}
{"date":"2013-06-01","average_temperature":"33.344","city":"Dubai","latitude":"24.92N","longitude":"54.98E"}
{"date":"2012-09-01","average_temperature":"12.013","city":"Dublin","latitude":"53.84N","longitude":"6.82W"}
{"date":"2010-06-01","average_temperature":"25.038","city":"Durango","latitude":"24.92N","longitude":"104.63W"}
{"date":"2010-06-01","average_temperature":"32.485","city":"Durg","latitude":"21.70N","longitude":"80.48E"}
{"date":"2010-12-01","average_temperature":"-2.2159999999999997","city":"Dushanbe","latitude":"39.38N","longitude":"68.67E"}
{"date":"2013-06-01","average_temperature":"16.203","city":"East London","latitude":"32.95S","longitude":"27.77E"}
{"date":"2011-10-01","average_temperature":"18.244","city":"East Los Angeles","latitude":"34.56N","longitude":"118.70W"}
{"date":"2011-02-01","average_temperature":"6.979","city":"Eastbourne","latitude":"50.63N","longitude":"1.27E"}
{"date":"2011-09-01","average_temperature":"12.968","city":"Edmonton","latitude":"53.84N","longitude":"113.18W"}
{"date":"2012-01-01","average_temperature":"24.054","city":"Ejido","latitude":"8.84N","longitude":"70.54W"}
{"date":"2013-04-01","average_temperature":"21.146","city":"El Faiyûm","latitude":"29.74N","longitude":"31.38E"}
{"date":"2013-06-01","average_temperature":"28.392","city":"El Faiyûm","latitude":"29.74N","longitude":"31.38E"}
{"date":"2012-12-01","average_temperature":"6.657","city":"El Paso","latitude":"31.35N","longitude":"105.55W"}
{"date":"2012-11-01","average_temperature":"18.656","city":"Escuintla","latitude":"15.27N","longitude":"90.83W"}
{"date":"2010-03-01","average_temperature":"8.118","city":"Esenyurt","latitude":"40.99N","longitude":"27.69E"}
{"date":"2012-07-01","average_temperature":"26.295","city":"Esenyurt","latitude":"40.99N","longitude":"27.69E"}
{"date":"2011-10-01","average_temperature":"13.027999999999999","city":"Esfahan","latitude":"32.95N","longitude":"50.74E"}
{"date":"2010-11-01","average_temperature":"21.72","city":"Etawah","latitude":"26.52N","longitude":"78.81E"}
{"date":"2011-09-01","average_temperature":"15.847000000000001","city":"Exeter","latitude":"50.63N","longitude":"3.80W"}
{"date":"2012-08-01","average_temperature":"20.054000000000002","city":"Fürth","latitude":"49.03N","longitude":"9.80E"}
{"date":"2012-04-01","average_temperature":"14.15","city":"Fairfield","latitude":"37.78N","longitude":"122.03W"}
{"date":"2012-10-01","average_temperature":"25.451","city":"Fatehpur","latitude":"26.52N","longitude":"80.60E"}
{"date":"2010-01-01","average_temperature":"17.930999999999997","city":"Fengshan","latitude":"23.31N","longitude":"119.71E"}
{"date":"2011-11-01","average_temperature":"14.85","city":"Fez","latitude":"34.56N","longitude":"5.84W"}
{"date":"2013-03-01","average_temperature":"18.915","city":"Florencia","latitude":"2.41N","longitude":"76.34W"}
{"date":"2012-05-01","average_temperature":"15.26","city":"Focsani","latitude":"45.81N","longitude":"26.54E"}
{"date":"2010-04-01","average_temperature":"13.315","city":"Foggia","latitude":"40.99N","longitude":"14.91E"}
{"date":"2013-05-01","average_temperature":"18.214000000000002","city":"Fort Wayne","latitude":"40.99N","longitude":"85.21W"}
{"date":"2012-08-01","average_temperature":"28.84","city":"Foshan","latitude":"23.31N","longitude":"112.72E"}
{"date":"2012-07-01","average_temperature":"16.159000000000002","city":"Foz Do Iguaçu","latitude":"24.92S","longitude":"54.98W"}
{"date":"2010-08-01","average_temperature":"18.781","city":"Fremont","latitude":"37.78N","longitude":"122.03W"}
{"date":"2012-05-01","average_temperature":"19.772000000000002","city":"Fresno","latitude":"36.17N","longitude":"119.34W"}
{"date":"2010-08-01","average_temperature":"27.295","city":"Funabashi","latitude":"36.17N","longitude":"139.23E"}
{"date":"2011-04-01","average_temperature":"8.691","city":"Fushun","latitude":"40.99N","longitude":"123.55E"}
{"date":"2012-03-01","average_temperature":"-0.9570000000000001","city":"Fuxin","latitude":"42.59N","longitude":"122.18E"}
{"date":"2012-04-01","average_temperature":"8.205","city":"Göttingen","latitude":"52.24N","longitude":"10.51E"}
{"date":"2010-06-01","average_temperature":"11.498","city":"Gaborone","latitude":"24.92S","longitude":"26.60E"}
{"date":"2010-08-01","average_temperature":"25.660999999999998","city":"Galati","latitude":"45.81N","longitude":"28.85E"}
{"date":"2012-08-01","average_temperature":"23.756999999999998","city":"Galati","latitude":"45.81N","longitude":"28.85E"}
{"date":"2012-09-01","average_temperature":"19.27","city":"Galati","latitude":"45.81N","longitude":"28.85E"}
{"date":"2010-02-01","average_temperature":"13.774000000000001","city":"Garden Grove","latitude":"32.95N","longitude":"117.77W"}
{"date":"2011-02-01","average_temperature":"15.686","city":"Garza García","latitude":"26.52N","longitude":"100.30W"}
{"date":"2010-10-01","average_temperature":"26.553","city":"Gaya","latitude":"24.92N","longitude":"85.12E"}
{"date":"2013-01-01","average_temperature":"20.274","city":"Geelong","latitude":"37.78S","longitude":"144.41E"}
{"date":"2010-03-01","average_temperature":"5.551","city":"Gelsenkirchen","latitude":"52.24N","longitude":"7.88E"}
{"date":"2011-11-01","average_temperature":"8.280999999999999","city":"Gent","latitude":"50.63N","longitude":"3.80E"}
{"date":"2012-10-01","average_temperature":"12.509","city":"Getafe","latitude":"40.99N","longitude":"4.26W"}
{"date":"2013-05-01","average_temperature":"34.746","city":"Ghaziabad","latitude":"28.13N","longitude":"77.27E"}
{"date":"2013-07-01","average_temperature":"31.053","city":"Ghaziabad","latitude":"28.13N","longitude":"77.27E"}
{"date":"2010-10-01","average_temperature":"15.597000000000001","city":"Gijón","latitude":"44.20N","longitude":"6.71W"}
{"date":"2010-05-01","average_temperature":"26.747","city":"Girón","latitude":"7.23N","longitude":"73.78W"}
{"date":"2012-08-01","average_temperature":"26.443","city":"Giugliano In Campania","latitude":"40.99N","longitude":"14.91E"}
{"date":"2011-08-01","average_temperature":"28.79","city":"Gizeh","latitude":"29.74N","longitude":"31.38E"}
{"date":"2010-06-01","average_temperature":"17.599","city":"Gliwice","latitude":"50.63N","longitude":"19.01E"}
{"date":"2011-06-01","average_temperature":"18.493","city":"Gliwice","latitude":"50.63N","longitude":"19.01E"}
{"date":"2012-08-01","average_temperature":"16.253","city":"Gold Coast","latitude":"28.13S","longitude":"153.64E"}
{"date":"2010-12-01","average_temperature":"24.218000000000004","city":"Gombe","latitude":"10.45N","longitude":"10.64E"}
{"date":"2013-06-01","average_temperature":"20.01","city":"Gondar","latitude":"12.05N","longitude":"37.81E"}
{"date":"2011-12-01","average_temperature":"-13.638","city":"Gongzhuling","latitude":"44.20N","longitude":"125.22E"}
{"date":"2011-03-01","average_temperature":"24.818","city":"Governador Valadares","latitude":"18.48S","longitude":"42.25W"}
{"date":"2010-11-01","average_temperature":"18.667","city":"Guadalajara","latitude":"20.09N","longitude":"104.08W"}
{"date":"2011-11-01","average_temperature":"25.526","city":"Guarenas","latitude":"10.45N","longitude":"66.27W"}
{"date":"2010-06-01","average_temperature":"21.572","city":"Guatemala","latitude":"15.27N","longitude":"90.83W"}
{"date":"2011-09-01","average_temperature":"26.318","city":"Guatire","latitude":"10.45N","longitude":"66.27W"}
{"date":"2012-06-01","average_temperature":"26.427","city":"Guatire","latitude":"10.45N","longitude":"66.27W"}
{"date":"2012-03-01","average_temperature":"10.293","city":"Guiyang","latitude":"26.52N","longitude":"107.46E"}
{"date":"2010-07-01","average_temperature":"19.775","city":"Haarlemmermeer","latitude":"52.24N","longitude":"5.26E"}
{"date":"2010-02-01","average_temperature":"3.306","city":"Hachioji","latitude":"36.17N","longitude":"139.23E"}
{"date":"2012-09-01","average_temperature":"23.275","city":"Hadano","latitude":"36.17N","longitude":"139.23E"}
{"date":"2010-05-01","average_temperature":"33.383","city":"Hadejia","latitude":"12.05N","longitude":"9.86E"}
{"date":"2010-09-01","average_temperature":"29.795","city":"Hafizabad","latitude":"31.35N","longitude":"73.51E"}
{"date":"2011-11-01","average_temperature":"26.626","city":"Hagonoy","latitude":"15.27N","longitude":"120.83E"}
{"date":"2010-03-01","average_temperature":"-0.993","city":"Haicheng","latitude":"40.99N","longitude":"123.55E"}
{"date":"2010-03-01","average_temperature":"15.005","city":"Haikou","latitude":"24.92N","longitude":"102.86E"}
{"date":"2010-02-01","average_temperature":"-24.798","city":"Hailar","latitude":"49.03N","longitude":"120.00E"}
{"date":"2012-06-01","average_temperature":"16.599999999999998","city":"Hailar","latitude":"49.03N","longitude":"120.00E"}
{"date":"2012-11-01","average_temperature":"-7.9940000000000015","city":"Hailun","latitude":"47.42N","longitude":"126.71E"}
{"date":"2010-10-01","average_temperature":"19.274","city":"Haldwani","latitude":"29.74N","longitude":"79.38E"}
{"date":"2011-11-01","average_temperature":"16.195","city":"Haldwani","latitude":"29.74N","longitude":"79.38E"}
{"date":"2013-03-01","average_temperature":"7.747999999999999","city":"Hampton","latitude":"36.17N","longitude":"75.58W"}
{"date":"2013-07-01","average_temperature":"26.276999999999997","city":"Hangu","latitude":"39.38N","longitude":"118.61E"}
{"date":"2011-06-01","average_temperature":"27.648000000000003","city":"Hanoi","latitude":"21.70N","longitude":"106.44E"}
{"date":"2010-02-01","average_temperature":"23.116","city":"Harare","latitude":"18.48S","longitude":"30.42E"}
{"date":"2011-11-01","average_temperature":"21.395","city":"Hardoi","latitude":"26.52N","longitude":"80.60E"}
{"date":"2011-04-01","average_temperature":"9.226","city":"Hartford","latitude":"40.99N","longitude":"72.43W"}
{"date":"2012-12-01","average_temperature":"8.95","city":"Hayward","latitude":"37.78N","longitude":"122.03W"}
{"date":"2010-06-01","average_temperature":"17.708000000000006","city":"Heilbronn","latitude":"49.03N","longitude":"9.80E"}
{"date":"2010-04-01","average_temperature":"6.41","city":"Hirosaki","latitude":"40.99N","longitude":"140.59E"}
{"date":"2010-03-01","average_temperature":"7.872000000000001","city":"Hitachi","latitude":"36.17N","longitude":"141.22E"}
{"date":"2010-08-01","average_temperature":"29.211","city":"Hollywood","latitude":"26.52N","longitude":"80.60W"}
{"date":"2013-05-01","average_temperature":"18.933","city":"Hortolândia","latitude":"23.31S","longitude":"48.06W"}
{"date":"2011-07-01","average_temperature":"28.061","city":"Huaibei","latitude":"34.56N","longitude":"116.76E"}
{"date":"2013-01-01","average_temperature":"4.84","city":"Huaihua","latitude":"28.13N","longitude":"110.00E"}
{"date":"2013-05-01","average_temperature":"7.031999999999999","city":"Huancayo","latitude":"12.05S","longitude":"75.62W"}
{"date":"2012-01-01","average_temperature":"3.603","city":"Huangzhou","latitude":"29.74N","longitude":"114.46E"}
{"date":"2010-01-01","average_temperature":"28.237","city":"Igboho","latitude":"8.84N","longitude":"4.05E"}
{"date":"2010-12-01","average_temperature":"26.773000000000003","city":"Igboho","latitude":"8.84N","longitude":"4.05E"}
{"date":"2011-05-01","average_temperature":"25.552","city":"Iguala","latitude":"18.48N","longitude":"99.72W"}
{"date":"2010-01-01","average_temperature":"27.948","city":"Ikere","latitude":"7.23N","longitude":"5.68E"}
{"date":"2012-05-01","average_temperature":"26.744","city":"Ikole","latitude":"7.23N","longitude":"5.68E"}
{"date":"2010-06-01","average_temperature":"26.611","city":"Ikorodu","latitude":"7.23N","longitude":"4.05E"}
{"date":"2012-04-01","average_temperature":"28.303","city":"Ikorodu","latitude":"7.23N","longitude":"4.05E"}
{"date":"2010-04-01","average_temperature":"25.2","city":"Ilhéus","latitude":"15.27S","longitude":"39.17W"}
{"date":"2011-12-01","average_temperature":"27.12","city":"Iloilo","latitude":"10.45N","longitude":"121.91E"}
{"date":"2010-06-01","average_temperature":"26.995","city":"Ilorin","latitude":"8.84N","longitude":"4.05E"}
{"date":"2013-05-01","average_temperature":"27.182","city":"Imperatriz","latitude":"5.63S","longitude":"46.82W"}
{"date":"2011-01-01","average_temperature":"26.451","city":"Indramayu","latitude":"5.63S","longitude":"108.16E"}
{"date":"2013-09-01","city":"Indramayu","latitude":"5.63S","longitude":"108.16E"}
{"date":"2011-09-01","average_temperature":"26.438000000000002","city":"Iquitos","latitude":"4.02S","longitude":"73.13W"}
{"date":"2011-12-01","average_temperature":"13.258","city":"Irvine","latitude":"32.95N","longitude":"117.77W"}
{"date":"2013-09-01","city":"Ishinomaki","latitude":"39.38N","longitude":"141.50E"}
{"date":"2011-01-01","average_temperature":"11.675999999999998","city":"Iskenderun","latitude":"36.17N","longitude":"35.80E"}
{"date":"2012-11-01","average_temperature":"18.326","city":"Islamabad","latitude":"32.95N","longitude":"73.72E"}
{"date":"2011-10-01","average_temperature":"21.203000000000003","city":"Itaguaí","latitude":"23.31S","longitude":"44.56W"}
{"date":"2010-09-01","average_temperature":"10.925999999999998","city":"Ivanovo","latitude":"57.05N","longitude":"39.84E"}
{"date":"2013-02-01","average_temperature":"-0.08799999999999998","city":"Iwaki","latitude":"37.78N","longitude":"140.34E"}
{"date":"2011-10-01","average_temperature":"17.250999999999998","city":"Izmir","latitude":"37.78N","longitude":"26.44E"}
{"date":"2010-09-01","average_temperature":"25.909","city":"Jalna","latitude":"20.09N","longitude":"75.07E"}
{"date":"2011-02-01","average_temperature":"23.145","city":"Jalna","latitude":"20.09N","longitude":"75.07E"}
{"date":"2010-12-01","average_temperature":"18.202","city":"Jamshedpur","latitude":"23.31N","longitude":"86.50E"}
{"date":"2010-06-01","average_temperature":"19.941","city":"Jaraguá Do Sul","latitude":"26.52S","longitude":"48.36W"}
{"date":"2010-10-01","average_temperature":"25.879","city":"Jerusalem","latitude":"31.35N","longitude":"35.81E"}
{"date":"2013-01-01","average_temperature":"20.457","city":"Jetpur","latitude":"21.70N","longitude":"70.10E"}
{"date":"2013-03-01","average_temperature":"26.99","city":"Jetpur","latitude":"21.70N","longitude":"70.10E"}
{"date":"2011-09-01","average_temperature":"13.100999999999999","city":"Jiamusi","latitude":"47.42N","longitude":"131.45E"}
{"date":"2012-05-01","average_temperature":"24.441999999999997","city":"Jinchengjiang","latitude":"24.92N","longitude":"108.18E"}
{"date":"2013-09-01","city":"Jinchengjiang","latitude":"24.92N","longitude":"108.18E"}
{"date":"2012-01-01","average_temperature":"3.97","city":"Jinhua","latitude":"29.74N","longitude":"120.00E"}
{"date":"2013-04-01","average_temperature":"4.232","city":"Jining","latitude":"40.99N","longitude":"112.90E"}
{"date":"2011-10-01","average_temperature":"12.752","city":"Jinzhou","latitude":"40.99N","longitude":"121.42E"}
{"date":"2011-09-01","average_temperature":"22.868","city":"Jishou","latitude":"28.13N","longitude":"110.00E"}
{"date":"2013-05-01","average_temperature":"15.399","city":"Jixi","latitude":"45.81N","longitude":"130.38E"}
{"date":"2010-03-01","average_temperature":"27.881999999999998","city":"Johor Bahru","latitude":"0.80N","longitude":"103.66E"}
{"date":"2011-06-01","average_temperature":"22.375","city":"Joliet","latitude":"40.99N","longitude":"87.34W"}
{"date":"2010-07-01","average_temperature":"23.281","city":"Kütahya","latitude":"39.38N","longitude":"29.13E"}
{"date":"2013-04-01","average_temperature":"29.459000000000003","city":"Kabankalan","latitude":"10.45N","longitude":"123.55E"}
{"date":"2010-01-01","average_temperature":"23.459","city":"Kadoma","latitude":"18.48S","longitude":"30.42E"}
{"date":"2011-06-01","average_temperature":"31.339","city":"Kakinada","latitude":"16.87N","longitude":"82.05E"}
{"date":"2013-01-01","average_temperature":"25.085","city":"Kakinada","latitude":"16.87N","longitude":"82.05E"}
{"date":"2011-09-01","average_temperature":"23.375","city":"Kalemie","latitude":"5.63S","longitude":"29.06E"}
{"date":"2011-12-01","average_temperature":"26.320999999999998","city":"Kalmunai","latitude":"7.23N","longitude":"81.89E"}
{"date":"2013-03-01","average_temperature":"-7.906000000000001","city":"Kamensk Uralskiy","latitude":"55.45N","longitude":"62.36E"}
{"date":"2010-04-01","average_temperature":"33.249","city":"Kapra","latitude":"16.87N","longitude":"78.70E"}
{"date":"2010-02-01","average_temperature":"-15.610999999999999","city":"Karamay","latitude":"45.81N","longitude":"84.23E"}
{"date":"2013-08-01","average_temperature":"26.16","city":"Karang Tengah","latitude":"7.23S","longitude":"106.22E"}
{"date":"2013-01-01","average_temperature":"3.227","city":"Kasuga","latitude":"32.95N","longitude":"131.17E"}
{"date":"2013-02-01","average_temperature":"2.046","city":"Kasukabe","latitude":"36.17N","longitude":"139.23E"}
{"date":"2010-09-01","average_temperature":"27.996","city":"Katsina","latitude":"13.66N","longitude":"7.43E"}
{"date":"2013-03-01","average_temperature":"7.955","city":"Kawasaki","latitude":"36.17N","longitude":"139.23E"}
{"date":"2011-06-01","average_temperature":"24.664","city":"Kenitra","latitude":"34.56N","longitude":"5.84W"}
{"date":"2012-03-01","average_temperature":"15.027000000000001","city":"Kenitra","latitude":"34.56N","longitude":"5.84W"}
{"date":"2013-03-01","average_temperature":"-10.159","city":"Khabarovsk","latitude":"49.03N","longitude":"134.69E"}
{"date":"2012-09-01","average_temperature":"29.653000000000002","city":"Khardaha","latitude":"23.31N","longitude":"88.25E"}
{"date":"2011-12-01","average_temperature":"24.97","city":"Khartoum","latitude":"15.27N","longitude":"32.50E"}
{"date":"2012-01-01","average_temperature":"-7.713000000000001","city":"Khimki","latitude":"55.45N","longitude":"36.85E"}
{"date":"2012-11-01","average_temperature":"21.667","city":"Khorramshahr","latitude":"29.74N","longitude":"48.00E"}
{"date":"2011-08-01","average_temperature":"30.075","city":"Khurja","latitude":"28.13N","longitude":"77.27E"}
{"date":"2010-03-01","average_temperature":"4.654","city":"Kiel","latitude":"53.84N","longitude":"9.55E"}
{"date":"2012-06-01","average_temperature":"19.813","city":"Kigali","latitude":"2.41S","longitude":"29.73E"}
{"date":"2012-07-01","average_temperature":"9.596","city":"Kimberley","latitude":"28.13S","longitude":"24.55E"}
{"date":"2012-01-01","average_temperature":"24.368000000000002","city":"Kindia","latitude":"10.45N","longitude":"12.27W"}
{"date":"2011-06-01","average_temperature":"27.774","city":"Kingston","latitude":"18.48N","longitude":"76.06W"}
{"date":"2011-12-01","average_temperature":"-6.2410000000000005","city":"Kirov","latitude":"58.66N","longitude":"49.23E"}
{"date":"2010-11-01","average_temperature":"25.213","city":"Kisangani","latitude":"0.80N","longitude":"24.91E"}
{"date":"2011-07-01","average_temperature":"26.44","city":"Kishiwada","latitude":"34.56N","longitude":"136.22E"}
{"date":"2012-12-01","average_temperature":"21.991999999999997","city":"Kisumu","latitude":"0.80S","longitude":"34.55E"}
{"date":"2011-08-01","average_temperature":"25.645","city":"Komatsu","latitude":"36.17N","longitude":"137.24E"}
{"date":"2010-07-01","average_temperature":"24.398000000000003","city":"Kostroma","latitude":"57.05N","longitude":"39.84E"}
{"date":"2010-06-01","average_temperature":"22.191000000000006","city":"Kremenchuk","latitude":"49.03N","longitude":"34.29E"}
{"date":"2012-04-01","average_temperature":"14.713","city":"Krugersdorp","latitude":"26.52S","longitude":"28.66E"}
{"date":"2012-12-01","average_temperature":"5.5","city":"Kure","latitude":"34.56N","longitude":"132.32E"}
{"date":"2012-01-01","average_temperature":"4.188","city":"Kusatsu","latitude":"34.56N","longitude":"136.22E"}
{"date":"2013-04-01","average_temperature":"13.069","city":"Kusatsu","latitude":"34.56N","longitude":"136.22E"}
{"date":"2010-06-01","average_temperature":"22.649","city":"Kuwana","latitude":"34.56N","longitude":"136.22E"}
{"date":"2010-03-01","average_temperature":"10.976","city":"Lárisa","latitude":"39.38N","longitude":"22.89E"}
{"date":"2012-08-01","average_temperature":"27.967","city":"Lárisa","latitude":"39.38N","longitude":"22.89E"}
{"date":"2012-02-01","average_temperature":"23.748","city":"La Ceiba","latitude":"15.27N","longitude":"87.50W"}
{"date":"2011-04-01","average_temperature":"17.991999999999994","city":"La Plata","latitude":"34.56S","longitude":"58.38W"}
{"date":"2013-04-01","average_temperature":"25.831999999999997","city":"La Vega","latitude":"18.48N","longitude":"70.99W"}
{"date":"2013-09-01","average_temperature":"27.705","city":"Lafayette","latitude":"29.74N","longitude":"92.31W"}
{"date":"2012-10-01","average_temperature":"15.932","city":"Laiwu","latitude":"36.17N","longitude":"117.35E"}
{"date":"2011-05-01","average_temperature":"16.79","city":"Laiyang","latitude":"36.17N","longitude":"121.33E"}
{"date":"2010-08-01","average_temperature":"29.618000000000002","city":"Lakhnau","latitude":"26.52N","longitude":"80.60E"}
{"date":"2012-05-01","average_temperature":"22.124000000000002","city":"Laohekou","latitude":"32.95N","longitude":"112.02E"}
{"date":"2012-12-01","average_temperature":"1.977","city":"Laohekou","latitude":"32.95N","longitude":"112.02E"}
{"date":"2013-08-01","average_temperature":"27.185","city":"Lashio","latitude":"23.31N","longitude":"96.99E"}
{"date":"2010-12-01","average_temperature":"3.258","city":"León","latitude":"42.59N","longitude":"6.55W"}
{"date":"2011-04-01","average_temperature":"14.002","city":"León","latitude":"42.59N","longitude":"6.55W"}
{"date":"2011-02-01","average_temperature":"6.2970000000000015","city":"Le Mans","latitude":"47.42N","longitude":"1.18E"}
{"date":"2011-04-01","average_temperature":"13.925999999999998","city":"Le Mans","latitude":"47.42N","longitude":"1.18E"}
{"date":"2012-07-01","average_temperature":"21.831","city":"Leganés","latitude":"40.99N","longitude":"4.26W"}
{"date":"2011-05-01","average_temperature":"13.29","city":"Leicester","latitude":"52.24N","longitude":"0.00W"}
{"date":"2011-02-01","average_temperature":"-0.247","city":"Leipzig","latitude":"50.63N","longitude":"11.41E"}
{"date":"2011-04-01","average_temperature":"23.291","city":"Liancheng","latitude":"21.70N","longitude":"109.90E"}
{"date":"2013-04-01","average_temperature":"23.45","city":"Liancheng","latitude":"21.70N","longitude":"109.90E"}
{"date":"2011-03-01","average_temperature":"7.678","city":"Lille","latitude":"50.63N","longitude":"3.80E"}
{"date":"2010-01-01","average_temperature":"-1.176","city":"Linqing","latitude":"36.17N","longitude":"115.36E"}
{"date":"2011-08-01","average_temperature":"19.611","city":"Lipetsk","latitude":"52.24N","longitude":"39.42E"}
{"date":"2011-08-01","average_temperature":"23.369","city":"Lira","latitude":"2.41N","longitude":"32.95E"}
{"date":"2011-10-01","average_temperature":"19.500999999999998","city":"Lisbon","latitude":"39.38N","longitude":"8.32W"}
{"date":"2012-01-01","average_temperature":"7.229","city":"Liverpool","latitude":"53.84N","longitude":"4.09W"}
{"date":"2010-11-01","average_temperature":"27.122","city":"Loa Janan","latitude":"0.80S","longitude":"116.52E"}
{"date":"2011-11-01","average_temperature":"10.728","city":"Logroño","latitude":"42.59N","longitude":"2.18W"}
{"date":"2010-11-01","average_temperature":"19.910999999999998","city":"Loja","latitude":"4.02S","longitude":"79.55W"}
{"date":"2011-02-01","average_temperature":"25.128","city":"Londrina","latitude":"23.31S","longitude":"51.55W"}
{"date":"2012-08-01","average_temperature":"22.415","city":"Long Beach","latitude":"32.95N","longitude":"117.77W"}
{"date":"2011-12-01","average_temperature":"-15.603","city":"Longfeng","latitude":"45.81N","longitude":"125.77E"}
{"date":"2011-08-01","average_temperature":"22.639","city":"Longjiang","latitude":"47.42N","longitude":"124.34E"}
{"date":"2012-06-01","average_temperature":"18.923","city":"Los Reyes","latitude":"20.09N","longitude":"98.96W"}
{"date":"2012-08-01","average_temperature":"17.764","city":"Los Reyes","latitude":"20.09N","longitude":"98.96W"}
{"date":"2011-09-01","average_temperature":"17.891","city":"Lowell","latitude":"42.59N","longitude":"72.00W"}
{"date":"2012-01-01","average_temperature":"-2.645","city":"Lowell","latitude":"42.59N","longitude":"72.00W"}
{"date":"2013-07-01","average_temperature":"30.423000000000002","city":"Luan","latitude":"31.35N","longitude":"116.86E"}
{"date":"2012-10-01","average_temperature":"26.946","city":"Lucena","latitude":"13.66N","longitude":"121.38E"}
{"date":"2010-10-01","average_temperature":"8.821","city":"Ludwigshafen","latitude":"49.03N","longitude":"7.35E"}
{"date":"2010-12-01","average_temperature":"9.695","city":"Luqiao","latitude":"28.13N","longitude":"120.91E"}
{"date":"2011-08-01","average_temperature":"28.006","city":"Luqiao","latitude":"28.13N","longitude":"120.91E"}
{"date":"2013-07-01","average_temperature":"18.694000000000006","city":"Luton","latitude":"52.24N","longitude":"0.00W"}
{"date":"2013-09-01","city":"Luzhou","latitude":"29.74N","longitude":"105.23E"}
{"date":"2012-01-01","average_temperature":"21.982000000000006","city":"Luziânia","latitude":"16.87S","longitude":"48.56W"}
{"date":"2010-11-01","average_temperature":"6.646","city":"Lvov","latitude":"50.63N","longitude":"24.08E"}
{"date":"2010-04-01","average_temperature":"24.723000000000003","city":"Mérida","latitude":"21.70N","longitude":"89.13W"}
{"date":"2013-07-01","average_temperature":"26.384","city":"Mérida","latitude":"21.70N","longitude":"89.13W"}
{"date":"2012-03-01","average_temperature":"27.613000000000003","city":"Maceió","latitude":"10.45S","longitude":"35.18W"}
{"date":"2010-05-01","average_temperature":"27.255","city":"Madiun","latitude":"7.23S","longitude":"111.08E"}
{"date":"2012-01-01","average_temperature":"25.134","city":"Madras","latitude":"13.66N","longitude":"80.09E"}
{"date":"2011-01-01","average_temperature":"19.252","city":"Mahesana","latitude":"23.31N","longitude":"72.52E"}
{"date":"2013-08-01","average_temperature":"26.648000000000003","city":"Makasar","latitude":"5.63S","longitude":"119.46E"}
{"date":"2012-07-01","average_temperature":"26.384","city":"Makurdi","latitude":"7.23N","longitude":"8.92E"}
{"date":"2010-11-01","average_temperature":"23.605","city":"Manama","latitude":"26.52N","longitude":"50.15E"}
{"date":"2012-08-01","average_temperature":"28.236","city":"Manaus","latitude":"2.41S","longitude":"60.27W"}
{"date":"2013-07-01","average_temperature":"27.24","city":"Manaus","latitude":"2.41S","longitude":"60.27W"}
{"date":"2010-10-01","average_temperature":"27.441","city":"Mandalay","latitude":"21.70N","longitude":"96.06E"}
{"date":"2012-10-01","average_temperature":"27.487","city":"Mandaue","latitude":"10.45N","longitude":"123.55E"}
{"date":"2013-06-01","average_temperature":"20.36","city":"Manizales","latitude":"5.63N","longitude":"75.87W"}
{"date":"2011-04-01","average_temperature":"24.565","city":"Manzanillo","latitude":"18.48N","longitude":"104.79W"}
{"date":"2010-09-01","average_temperature":"21.862","city":"Manzini","latitude":"26.52S","longitude":"32.24E"}
{"date":"2013-02-01","average_temperature":"28.521","city":"Maracanaú","latitude":"4.02S","longitude":"39.38W"}
{"date":"2011-02-01","average_temperature":"25.416999999999998","city":"Maracay","latitude":"10.45N","longitude":"67.91W"}
{"date":"2010-11-01","average_temperature":"27.816000000000006","city":"Maradi","latitude":"13.66N","longitude":"7.43E"}
{"date":"2010-03-01","average_temperature":"6.562","city":"Marand","latitude":"39.38N","longitude":"45.78E"}
{"date":"2012-12-01","average_temperature":"26.554","city":"Maringá","latitude":"23.31S","longitude":"51.55W"}
{"date":"2010-09-01","average_temperature":"23.505","city":"Marv Dasht","latitude":"29.74N","longitude":"53.54E"}
{"date":"2013-09-01","city":"Mashhad","latitude":"36.17N","longitude":"59.67E"}
{"date":"2010-03-01","average_temperature":"26.953000000000003","city":"Mathura","latitude":"28.13N","longitude":"77.27E"}
{"date":"2010-04-01","average_temperature":"10.098","city":"Maykop","latitude":"44.20N","longitude":"40.25E"}
{"date":"2011-01-01","average_temperature":"0.21900000000000008","city":"Maykop","latitude":"44.20N","longitude":"40.25E"}
{"date":"2010-03-01","average_temperature":"0.626","city":"Mazyr","latitude":"52.24N","longitude":"28.91E"}
{"date":"2010-01-01","average_temperature":"24.678","city":"Mbouda","latitude":"5.63N","longitude":"9.69E"}
{"date":"2013-01-01","average_temperature":"-4.977","city":"Mentougou","latitude":"39.38N","longitude":"116.53E"}
{"date":"2010-10-01","average_temperature":"24.575","city":"Miami","latitude":"26.52N","longitude":"80.60W"}
{"date":"2011-12-01","average_temperature":"22.018","city":"Milagro","latitude":"2.41S","longitude":"79.55W"}
{"date":"2012-11-01","average_temperature":"0.3470000000000001","city":"Minneapolis","latitude":"45.81N","longitude":"93.46W"}
{"date":"2010-03-01","average_temperature":"27.473000000000003","city":"Miri","latitude":"4.02N","longitude":"113.30E"}
{"date":"2011-07-01","average_temperature":"27.895000000000003","city":"Miri","latitude":"4.02N","longitude":"113.30E"}
{"date":"2010-11-01","average_temperature":"24.398000000000003","city":"Mirpur Khas","latitude":"24.92N","longitude":"69.16E"}
{"date":"2011-02-01","average_temperature":"21.219","city":"Mirpur Khas","latitude":"24.92N","longitude":"69.16E"}
{"date":"2012-03-01","average_temperature":"15.069","city":"Misratah","latitude":"32.95N","longitude":"14.36E"}
{"date":"2011-10-01","average_temperature":"18.81","city":"Mixco","latitude":"15.27N","longitude":"90.83W"}
{"date":"2010-03-01","average_temperature":"29.925","city":"Modakeke","latitude":"7.23N","longitude":"4.05E"}
{"date":"2010-08-01","average_temperature":"21.175","city":"Modesto","latitude":"37.78N","longitude":"120.00W"}
{"date":"2010-09-01","average_temperature":"19.663","city":"Modesto","latitude":"37.78N","longitude":"120.00W"}
{"date":"2013-04-01","average_temperature":"8.374","city":"Moers","latitude":"50.63N","longitude":"6.34E"}
{"date":"2012-09-01","average_temperature":"27.246","city":"Montalban","latitude":"15.27N","longitude":"120.83E"}
{"date":"2011-05-01","average_temperature":"13.074000000000002","city":"Montevideo","latitude":"34.56S","longitude":"56.43W"}
{"date":"2012-08-01","average_temperature":"13.259","city":"Montevideo","latitude":"34.56S","longitude":"56.43W"}
{"date":"2011-07-01","average_temperature":"22.434","city":"Moscow","latitude":"55.45N","longitude":"36.85E"}
{"date":"2010-06-01","average_temperature":"22.337","city":"Moshi","latitude":"4.02S","longitude":"37.77E"}
{"date":"2010-07-01","average_temperature":"17.791","city":"Mufulira","latitude":"12.05S","longitude":"27.95E"}
{"date":"2011-04-01","average_temperature":"21.008000000000003","city":"Mufulira","latitude":"12.05S","longitude":"27.95E"}
{"date":"2013-05-01","average_temperature":"19.511","city":"Mufulira","latitude":"12.05S","longitude":"27.95E"}
{"date":"2012-04-01","average_temperature":"11.355","city":"Musashino","latitude":"36.17N","longitude":"139.23E"}
{"date":"2010-10-01","average_temperature":"22.747","city":"Mutare","latitude":"18.48S","longitude":"32.11E"}
{"date":"2010-10-01","average_temperature":"26.165000000000006","city":"Muzaffarpur","latitude":"26.52N","longitude":"85.97E"}
{"date":"2013-05-01","average_temperature":"28.828000000000003","city":"Muzaffarpur","latitude":"26.52N","longitude":"85.97E"}
{"date":"2010-02-01","average_temperature":"3.3480000000000003","city":"Nagaoka","latitude":"37.78N","longitude":"138.31E"}
{"date":"2010-08-01","average_temperature":"27.295","city":"Nagareyama","latitude":"36.17N","longitude":"139.23E"}
{"date":"2011-10-01","average_temperature":"15.488","city":"Nagareyama","latitude":"36.17N","longitude":"139.23E"}
{"date":"2011-01-01","average_temperature":"-3.5989999999999998","city":"Namangan","latitude":"40.99N","longitude":"72.43E"}
{"date":"2012-01-01","average_temperature":"25.887","city":"Nampula","latitude":"15.27S","longitude":"39.17E"}
{"date":"2010-12-01","average_temperature":"-20.262999999999998","city":"Nancha","latitude":"47.42N","longitude":"129.08E"}
{"date":"2013-01-01","average_temperature":"25.728","city":"Nandyal","latitude":"15.27N","longitude":"79.17E"}
{"date":"2011-08-01","average_temperature":"24.613000000000003","city":"Nanpiao","latitude":"40.99N","longitude":"121.42E"}
{"date":"2011-09-01","average_temperature":"28.987","city":"Narayanganj","latitude":"23.31N","longitude":"90.00E"}
{"date":"2012-11-01","average_temperature":"23.487","city":"Navadwip","latitude":"23.31N","longitude":"88.25E"}
{"date":"2011-01-01","average_temperature":"13.376","city":"New Delhi","latitude":"28.13N","longitude":"77.27E"}
{"date":"2012-08-01","average_temperature":"22.905","city":"New Haven","latitude":"40.99N","longitude":"72.43W"}
{"date":"2010-12-01","average_temperature":"24.256","city":"Neyveli","latitude":"12.05N","longitude":"78.90E"}
{"date":"2013-02-01","average_temperature":"24.813000000000002","city":"Nha Trang","latitude":"12.05N","longitude":"108.49E"}
{"date":"2012-12-01","average_temperature":"5.0089999999999995","city":"Niihama","latitude":"34.56N","longitude":"134.27E"}
{"date":"2010-02-01","average_temperature":"-11.001","city":"Nizhniy Novgorod","latitude":"57.05N","longitude":"42.79E"}
{"date":"2012-05-01","average_temperature":"12.805","city":"Nizhniy Tagil","latitude":"57.05N","longitude":"60.49E"}
{"date":"2011-09-01","average_temperature":"26.450000000000006","city":"Nnewi","latitude":"5.63N","longitude":"6.46E"}
{"date":"2010-08-01","average_temperature":"22.116999999999997","city":"Noginsk","latitude":"55.45N","longitude":"39.69E"}
{"date":"2011-11-01","average_temperature":"9.897","city":"North Las Vegas","latitude":"36.17N","longitude":"115.36W"}
{"date":"2013-08-01","average_temperature":"17.791","city":"Northampton","latitude":"52.24N","longitude":"0.00W"}
{"date":"2011-03-01","average_temperature":"6.862","city":"Norwich","latitude":"52.24N","longitude":"0.00W"}
{"date":"2010-12-01","average_temperature":"-2.998","city":"Novara","latitude":"45.81N","longitude":"8.08E"}
{"date":"2013-07-01","average_temperature":"12.808","city":"Novo Hamburgo","latitude":"29.74S","longitude":"51.69W"}
{"date":"2013-06-01","average_temperature":"15.458000000000002","city":"Novokuznetsk","latitude":"53.84N","longitude":"85.91E"}
{"date":"2010-11-01","average_temperature":"15.645","city":"Novorossiysk","latitude":"44.20N","longitude":"38.01E"}
{"date":"2011-01-01","average_temperature":"-1.719","city":"Nyíregyháza","latitude":"47.42N","longitude":"22.50E"}
{"date":"2013-04-01","average_temperature":"11.856000000000002","city":"Nyíregyháza","latitude":"47.42N","longitude":"22.50E"}
{"date":"2010-08-01","average_temperature":"18.781","city":"Oakland","latitude":"37.78N","longitude":"122.03W"}
{"date":"2010-08-01","average_temperature":"16.863999999999994","city":"Oberhausen","latitude":"50.63N","longitude":"6.34E"}
{"date":"2010-05-01","average_temperature":"16.284000000000002","city":"Obninsk","latitude":"55.45N","longitude":"36.85E"}
{"date":"2012-10-01","average_temperature":"19.892","city":"Oceanside","latitude":"32.95N","longitude":"117.77W"}
{"date":"2011-02-01","average_temperature":"3.734","city":"Odawara","latitude":"36.17N","longitude":"139.23E"}
{"date":"2012-10-01","average_temperature":"15.722000000000001","city":"Odawara","latitude":"36.17N","longitude":"139.23E"}
{"date":"2013-01-01","average_temperature":"27.406999999999996","city":"Ogbomosho","latitude":"8.84N","longitude":"4.05E"}
{"date":"2012-03-01","average_temperature":"15.735999999999999","city":"Oklahoma City","latitude":"36.17N","longitude":"97.46W"}
{"date":"2012-02-01","average_temperature":"3.1210000000000004","city":"Olathe","latitude":"39.38N","longitude":"95.72W"}
{"date":"2010-10-01","average_temperature":"3.877","city":"Omsk","latitude":"55.45N","longitude":"73.70E"}
{"date":"2013-02-01","average_temperature":"5.691","city":"Omuta","latitude":"32.95N","longitude":"131.17E"}
{"date":"2011-12-01","average_temperature":"15.627","city":"Orai","latitude":"26.52N","longitude":"78.81E"}
{"date":"2011-08-01","average_temperature":"21.500999999999998","city":"Ordu","latitude":"40.99N","longitude":"38.34E"}
{"date":"2012-02-01","average_temperature":"-0.234","city":"Osnabrück","latitude":"52.24N","longitude":"7.88E"}
{"date":"2012-07-01","average_temperature":"19.461","city":"Otaru","latitude":"42.59N","longitude":"141.82E"}
{"date":"2012-11-01","average_temperature":"4.8980000000000015","city":"Otaru","latitude":"42.59N","longitude":"141.82E"}
{"date":"2013-07-01","average_temperature":"25.09","city":"Oxnard","latitude":"34.56N","longitude":"118.70W"}
{"date":"2010-08-01","average_temperature":"25.756999999999998","city":"Padalarang","latitude":"7.23S","longitude":"107.84E"}
{"date":"2012-05-01","average_temperature":"29.257","city":"Palakkad","latitude":"10.45N","longitude":"76.09E"}
{"date":"2010-10-01","average_temperature":"27.018","city":"Palanpur","latitude":"24.92N","longitude":"72.71E"}
{"date":"2013-03-01","average_temperature":"24.761999999999997","city":"Palanpur","latitude":"24.92N","longitude":"72.71E"}
{"date":"2012-06-01","average_temperature":"34.249","city":"Pallavaram","latitude":"13.66N","longitude":"80.09E"}
{"date":"2013-07-01","average_temperature":"25.965","city":"Palma","latitude":"39.38N","longitude":"2.08E"}
{"date":"2011-05-01","average_temperature":"16.41","city":"Pamplona","latitude":"42.59N","longitude":"2.18W"}
{"date":"2010-04-01","average_temperature":"30.506999999999998","city":"Panipat","latitude":"29.74N","longitude":"77.54E"}
{"date":"2012-12-01","average_temperature":"26.828000000000003","city":"Panvel","latitude":"18.48N","longitude":"72.68E"}
{"date":"2013-01-01","average_temperature":"7.5","city":"Panzhihua","latitude":"26.52N","longitude":"102.09E"}
{"date":"2012-04-01","average_temperature":"28.664","city":"Parakou","latitude":"8.84N","longitude":"2.43E"}
{"date":"2010-04-01","average_temperature":"33.823","city":"Parbhani","latitude":"20.09N","longitude":"76.78E"}
{"date":"2010-12-01","average_temperature":"27.109","city":"Parnamirim","latitude":"5.63S","longitude":"35.52W"}
{"date":"2013-07-01","average_temperature":"25.09","city":"Pasadena","latitude":"34.56N","longitude":"118.70W"}
{"date":"2011-11-01","average_temperature":"27.049","city":"Pasir Gudang","latitude":"0.80N","longitude":"103.66E"}
{"date":"2011-04-01","average_temperature":"22.939","city":"Patos De Minas","latitude":"18.48S","longitude":"47.32W"}
{"date":"2013-09-01","city":"Pavlohrad","latitude":"49.03N","longitude":"36.73E"}
{"date":"2012-05-01","average_temperature":"16.189999999999998","city":"Penza","latitude":"53.84N","longitude":"45.00E"}
{"date":"2010-05-01","average_temperature":"23.269","city":"Peoria","latitude":"32.95N","longitude":"112.02W"}
{"date":"2011-01-01","average_temperature":"19.529","city":"Pereira","latitude":"5.63N","longitude":"75.87W"}
{"date":"2011-12-01","average_temperature":"18.724","city":"Pereira","latitude":"5.63N","longitude":"75.87W"}
{"date":"2010-03-01","average_temperature":"6.66","city":"Perpignan","latitude":"42.59N","longitude":"2.18E"}
{"date":"2010-10-01","average_temperature":"27.615","city":"Petaling Jaya","latitude":"2.41N","longitude":"102.05E"}
{"date":"2012-03-01","average_temperature":"27.331999999999997","city":"Petaling Jaya","latitude":"2.41N","longitude":"102.05E"}
{"date":"2011-12-01","average_temperature":"5.707999999999999","city":"Peterborough","latitude":"52.24N","longitude":"0.00W"}
{"date":"2011-07-01","average_temperature":"18.368","city":"Petropavl","latitude":"55.45N","longitude":"68.03E"}
{"date":"2012-11-01","average_temperature":"-6.664999999999999","city":"Petropavl","latitude":"55.45N","longitude":"68.03E"}
{"date":"2011-02-01","average_temperature":"-15.118000000000002","city":"Petrozavodsk","latitude":"61.88N","longitude":"35.66E"}
{"date":"2011-07-01","average_temperature":"27.623","city":"Phnum Pénh","latitude":"12.05N","longitude":"105.21E"}
{"date":"2013-06-01","average_temperature":"28.22","city":"Phnum Pénh","latitude":"12.05N","longitude":"105.21E"}
{"date":"2012-02-01","average_temperature":"17.875999999999994","city":"Pilibhit","latitude":"28.13N","longitude":"79.09E"}
{"date":"2013-06-01","average_temperature":"28.005","city":"Pingshan","latitude":"23.31N","longitude":"114.47E"}
{"date":"2010-02-01","average_temperature":"18.94","city":"Pingtung","latitude":"23.31N","longitude":"119.71E"}
{"date":"2012-02-01","average_temperature":"17.359","city":"Pingtung","latitude":"23.31N","longitude":"119.71E"}
{"date":"2010-01-01","average_temperature":"-10.071","city":"Pinsk","latitude":"52.24N","longitude":"26.28E"}
{"date":"2011-07-01","average_temperature":"18.435","city":"Piracicaba","latitude":"23.31S","longitude":"48.06W"}
{"date":"2010-06-01","average_temperature":"21.487","city":"Pitesti","latitude":"44.20N","longitude":"24.60E"}
{"date":"2010-04-01","average_temperature":"9.297999999999998","city":"Plock","latitude":"52.24N","longitude":"18.39E"}
{"date":"2010-04-01","average_temperature":"30.070999999999998","city":"Pondicherry","latitude":"12.05N","longitude":"80.55E"}
{"date":"2011-01-01","average_temperature":"22.13","city":"Ponta Grossa","latitude":"24.92S","longitude":"49.66W"}
{"date":"2013-04-01","average_temperature":"7.699","city":"Poole","latitude":"50.63N","longitude":"1.27W"}
{"date":"2010-04-01","average_temperature":"30.394000000000002","city":"Port Blair","latitude":"12.05N","longitude":"92.05E"}
{"date":"2010-06-01","average_temperature":"28.935","city":"Port Blair","latitude":"12.05N","longitude":"92.05E"}
{"date":"2013-08-01","average_temperature":"27.963","city":"Port Said","latitude":"31.35N","longitude":"32.04E"}
{"date":"2013-06-01","average_temperature":"18.317999999999998","city":"Porto","latitude":"40.99N","longitude":"8.52W"}
{"date":"2012-04-01","average_temperature":"18.786","city":"Porto Alegre","latitude":"29.74S","longitude":"51.69W"}
{"date":"2010-01-01","average_temperature":"24.581","city":"Potgietersrus","latitude":"23.31S","longitude":"28.83E"}
{"date":"2011-11-01","average_temperature":"3.853","city":"Prague","latitude":"50.63N","longitude":"13.94E"}
{"date":"2011-08-01","average_temperature":"22.18","city":"Prizren","latitude":"42.59N","longitude":"21.82E"}
{"date":"2013-02-01","average_temperature":"27.555999999999997","city":"Pudukkottai","latitude":"10.45N","longitude":"79.36E"}
{"date":"2011-07-01","average_temperature":"27.384","city":"Puerto Princesa","latitude":"10.45N","longitude":"118.64E"}
{"date":"2010-04-01","average_temperature":"26.304","city":"Purwakarta","latitude":"7.23S","longitude":"107.84E"}
{"date":"2011-05-01","average_temperature":"26.933000000000003","city":"Purwodadi","latitude":"7.23S","longitude":"111.08E"}
{"date":"2012-08-01","average_temperature":"25.895","city":"Purwokerto","latitude":"7.23S","longitude":"109.46E"}
{"date":"2010-05-01","average_temperature":"16.146","city":"Qingdao","latitude":"36.17N","longitude":"121.33E"}
{"date":"2013-08-01","average_temperature":"26.932","city":"Qingdao","latitude":"36.17N","longitude":"121.33E"}
{"date":"2010-02-01","average_temperature":"16.061","city":"Qingyuan","latitude":"23.31N","longitude":"112.72E"}
{"date":"2011-01-01","average_temperature":"-6.476","city":"Qinhuangdao","latitude":"39.38N","longitude":"118.61E"}
{"date":"2011-06-01","average_temperature":"28.288","city":"Qinzhou","latitude":"21.70N","longitude":"108.17E"}
{"date":"2013-05-01","average_temperature":"15.399","city":"Qitaihe","latitude":"45.81N","longitude":"130.38E"}
{"date":"2011-07-01","average_temperature":"30.263","city":"Quchan","latitude":"37.78N","longitude":"58.98E"}
{"date":"2013-03-01","average_temperature":"11.529000000000002","city":"Quchan","latitude":"37.78N","longitude":"58.98E"}
{"date":"2010-12-01","average_temperature":"9.646","city":"Qujing","latitude":"24.92N","longitude":"104.63E"}
{"date":"2010-05-01","average_temperature":"31.036","city":"Rach Gia","latitude":"10.45N","longitude":"105.55E"}
{"date":"2013-09-01","city":"Rae Bareli","latitude":"26.52N","longitude":"80.60E"}
{"date":"2013-07-01","average_temperature":"29.837","city":"Rafsanjan","latitude":"29.74N","longitude":"55.38E"}
{"date":"2011-10-01","average_temperature":"6.989","city":"Ramnicu Valcea","latitude":"45.81N","longitude":"24.23E"}
{"date":"2013-07-01","average_temperature":"27.769000000000002","city":"Rantauprapat","latitude":"2.41N","longitude":"100.45E"}
{"date":"2011-01-01","average_temperature":"-0.7249999999999999","city":"Ratisbon","latitude":"49.03N","longitude":"12.24E"}
{"date":"2012-08-01","average_temperature":"29.037","city":"Rayong","latitude":"12.05N","longitude":"101.92E"}
{"date":"2011-07-01","average_temperature":"16.557000000000002","city":"Recklinghausen","latitude":"52.24N","longitude":"7.88E"}
{"date":"2012-07-01","average_temperature":"26.393","city":"Reggio Di Calabria","latitude":"37.78N","longitude":"16.27E"}
{"date":"2013-01-01","average_temperature":"1.5430000000000001","city":"Reims","latitude":"49.03N","longitude":"4.90E"}
{"date":"2013-04-01","average_temperature":"10.193999999999999","city":"Rennes","latitude":"47.42N","longitude":"1.18W"}
{"date":"2013-02-01","average_temperature":"25.994","city":"Resistencia","latitude":"28.13S","longitude":"59.09W"}
{"date":"2013-01-01","average_temperature":"6.757000000000001","city":"Rialto","latitude":"34.56N","longitude":"116.76W"}
{"date":"2012-10-01","average_temperature":"24.13","city":"Ribeirão Das Neves","latitude":"20.09S","longitude":"44.36W"}
{"date":"2013-05-01","average_temperature":"18.602999999999998","city":"Richmond","latitude":"37.78N","longitude":"77.29W"}
{"date":"2013-04-01","average_temperature":"25.717","city":"Rio Branco","latitude":"10.45S","longitude":"67.91W"}
{"date":"2013-05-01","average_temperature":"12.767000000000001","city":"Rio Cuarto","latitude":"32.95S","longitude":"64.15W"}
{"date":"2010-09-01","average_temperature":"24.544","city":"Rongcheng","latitude":"29.74N","longitude":"112.62E"}
{"date":"2011-10-01","average_temperature":"9.825","city":"Rostock","latitude":"53.84N","longitude":"12.27E"}
{"date":"2010-08-01","average_temperature":"19.062","city":"Ruda Slaska","latitude":"50.63N","longitude":"19.01E"}
{"date":"2012-02-01","average_temperature":"23.25","city":"Ruiru","latitude":"0.80S","longitude":"37.77E"}
{"date":"2011-10-01","average_temperature":"8.073","city":"Rzeszow","latitude":"50.63N","longitude":"21.55E"}
{"date":"2010-02-01","average_temperature":"25.774","city":"São Carlos","latitude":"21.70S","longitude":"47.60W"}
{"date":"2013-06-01","average_temperature":"24.703000000000003","city":"São Gonçalo","latitude":"23.31S","longitude":"42.82W"}
{"date":"2013-09-01","city":"Sabha","latitude":"26.52N","longitude":"14.33E"}
{"date":"2011-06-01","average_temperature":"21.085","city":"Sagamihara","latitude":"36.17N","longitude":"139.23E"}
{"date":"2013-08-01","average_temperature":"28.483","city":"Saint Petersburg","latitude":"28.13N","longitude":"82.73W"}
{"date":"2013-04-01","average_temperature":"21.015","city":"Salamanca","latitude":"20.09N","longitude":"100.66W"}
{"date":"2012-10-01","average_temperature":"9.354","city":"Salzgitter","latitude":"52.24N","longitude":"10.51E"}
{"date":"2010-01-01","average_temperature":"13.819","city":"Sambhal","latitude":"28.13N","longitude":"79.09E"}
{"date":"2012-07-01","average_temperature":"28.383000000000003","city":"Samut Prakan","latitude":"13.66N","longitude":"99.91E"}
{"date":"2013-01-01","average_temperature":"24.773000000000003","city":"San Cristóbal","latitude":"18.48N","longitude":"69.30W"}
{"date":"2011-11-01","average_temperature":"11.478","city":"San Francisco","latitude":"37.78N","longitude":"122.03W"}
{"date":"2013-01-01","average_temperature":"8.32","city":"San Francisco","latitude":"37.78N","longitude":"122.03W"}
{"date":"2011-04-01","average_temperature":"26.814","city":"San José","latitude":"10.45N","longitude":"84.27W"}
{"date":"2012-08-01","average_temperature":"20.531","city":"San Jose","latitude":"37.78N","longitude":"122.03W"}
{"date":"2010-03-01","average_temperature":"27.237","city":"San Lorenzo","latitude":"24.92S","longitude":"56.75W"}
{"date":"2010-11-01","average_temperature":"13.654000000000002","city":"San Pablo De Las Salinas","latitude":"20.09N","longitude":"98.96W"}
{"date":"2013-04-01","average_temperature":"26.379","city":"San Pedro De Macorís","latitude":"18.48N","longitude":"69.30W"}
{"date":"2010-04-01","average_temperature":"13.835","city":"San Rafael","latitude":"34.56S","longitude":"68.11W"}
{"date":"2012-06-01","average_temperature":"25.894","city":"Sanandaj","latitude":"34.56N","longitude":"46.70E"}
{"date":"2013-03-01","average_temperature":"8.996","city":"Sanandaj","latitude":"34.56N","longitude":"46.70E"}
{"date":"2013-04-01","average_temperature":"19.538","city":"Sanhsia","latitude":"24.92N","longitude":"120.59E"}
{"date":"2012-07-01","average_temperature":"18.984","city":"Santa Ana","latitude":"32.95N","longitude":"117.77W"}
{"date":"2013-04-01","average_temperature":"15.380999999999998","city":"Santa Ana","latitude":"32.95N","longitude":"117.77W"}
{"date":"2012-08-01","average_temperature":"27.714","city":"Santa Cruz","latitude":"13.66N","longitude":"121.38E"}
{"date":"2011-08-01","average_temperature":"13.856","city":"Santa Cruz Do Sul","latitude":"29.74S","longitude":"51.69W"}
{"date":"2010-05-01","average_temperature":"20.459","city":"Santa Luzia","latitude":"20.09S","longitude":"44.36W"}
{"date":"2011-05-01","average_temperature":"20.108","city":"Santa Luzia","latitude":"20.09S","longitude":"44.36W"}
{"date":"2010-08-01","average_temperature":"26.634","city":"Santa Teresa","latitude":"10.45N","longitude":"66.27W"}
{"date":"2012-07-01","average_temperature":"17.537","city":"Santander","latitude":"44.20N","longitude":"4.47W"}
{"date":"2013-06-01","average_temperature":"0.8860000000000001","city":"Santiago","latitude":"32.95S","longitude":"69.89W"}
{"date":"2012-02-01","average_temperature":"-15.466","city":"Saratov","latitude":"52.24N","longitude":"47.30E"}
{"date":"2011-11-01","average_temperature":"21.799","city":"Sargodha","latitude":"31.35N","longitude":"73.51E"}
{"date":"2013-06-01","average_temperature":"20.614","city":"Sassari","latitude":"40.99N","longitude":"8.52E"}
{"date":"2010-10-01","average_temperature":"26.232000000000006","city":"Satara","latitude":"16.87N","longitude":"73.67E"}
{"date":"2010-11-01","average_temperature":"26.206000000000003","city":"Satara","latitude":"16.87N","longitude":"73.67E"}
{"date":"2012-08-01","average_temperature":"26.701","city":"Savannah","latitude":"31.35N","longitude":"81.05W"}
{"date":"2012-08-01","average_temperature":"17.005","city":"Seattle","latitude":"47.42N","longitude":"121.97W"}
{"date":"2013-08-01","average_temperature":"16.928","city":"Seattle","latitude":"47.42N","longitude":"121.97W"}
{"date":"2013-07-01","average_temperature":"24.693","city":"Sekondi","latitude":"5.63N","longitude":"1.61W"}
{"date":"2010-08-01","average_temperature":"25.543000000000006","city":"Setúbal","latitude":"39.38N","longitude":"8.32W"}
{"date":"2010-10-01","average_temperature":"15.366","city":"Seto","latitude":"36.17N","longitude":"137.24E"}
{"date":"2011-01-01","average_temperature":"-22.115","city":"Seversk","latitude":"57.05N","longitude":"84.10E"}
{"date":"2010-04-01","average_temperature":"30.423000000000002","city":"Shaki","latitude":"8.84N","longitude":"4.05E"}
{"date":"2010-05-01","average_temperature":"22.074","city":"Shangqiu","latitude":"34.56N","longitude":"114.81E"}
{"date":"2012-12-01","average_temperature":"19.621","city":"Shantipur","latitude":"23.31N","longitude":"88.25E"}
{"date":"2011-05-01","average_temperature":"21.215999999999998","city":"Shaoxing","latitude":"29.74N","longitude":"120.00E"}
{"date":"2010-03-01","average_temperature":"24.656999999999996","city":"Shekhupura","latitude":"31.35N","longitude":"73.51E"}
{"date":"2013-02-01","average_temperature":"-15.613","city":"Shihezi","latitude":"44.20N","longitude":"84.97E"}
{"date":"2012-01-01","average_temperature":"4.379","city":"Shimla","latitude":"31.35N","longitude":"77.28E"}
{"date":"2012-08-01","average_temperature":"28.213","city":"Shreveport","latitude":"32.95N","longitude":"92.87W"}
{"date":"2011-07-01","average_temperature":"29.473000000000003","city":"Shrirampur","latitude":"23.31N","longitude":"88.25E"}
{"date":"2010-08-01","average_temperature":"32.604","city":"Siverek","latitude":"37.78N","longitude":"38.64E"}
{"date":"2010-07-01","average_temperature":"28.505","city":"Soc Trang","latitude":"8.84N","longitude":"106.22E"}
{"date":"2010-02-01","average_temperature":"3.424","city":"Sochi","latitude":"44.20N","longitude":"40.25E"}
{"date":"2013-08-01","average_temperature":"14.046","city":"Solikamsk","latitude":"60.27N","longitude":"58.38E"}
{"date":"2013-01-01","average_temperature":"0.904","city":"Solingen","latitude":"50.63N","longitude":"6.34E"}
{"date":"2011-09-01","average_temperature":"25.201","city":"Soubré","latitude":"5.63N","longitude":"6.46W"}
{"date":"2012-07-01","average_temperature":"15.515","city":"Southampton","latitude":"50.63N","longitude":"1.27W"}
{"date":"2012-12-01","average_temperature":"4.74","city":"Springfield","latitude":"37.78N","longitude":"93.56W"}
{"date":"2013-08-01","average_temperature":"19.579","city":"Springfield","latitude":"42.59N","longitude":"72.00W"}
{"date":"2011-09-01","average_temperature":"11.887","city":"Stavanger","latitude":"58.66N","longitude":"6.15E"}
{"date":"2013-09-01","average_temperature":"17.503","city":"Sterling Heights","latitude":"42.59N","longitude":"82.91W"}
{"date":"2010-08-01","average_temperature":"18.781","city":"Stockton","latitude":"37.78N","longitude":"122.03W"}
{"date":"2013-04-01","average_temperature":"7.1979999999999995","city":"Stoke On Trent","latitude":"52.24N","longitude":"2.63W"}
{"date":"2012-10-01","average_temperature":"28.901","city":"Surabaya","latitude":"7.23S","longitude":"112.70E"}
{"date":"2012-06-01","average_temperature":"26.675","city":"Surakarta","latitude":"7.23S","longitude":"111.08E"}
{"date":"2013-03-01","average_temperature":"29.198","city":"Suriapet","latitude":"16.87N","longitude":"80.37E"}
{"date":"2011-06-01","average_temperature":"15.588","city":"Sydney","latitude":"34.56S","longitude":"151.78E"}
{"date":"2012-05-01","average_temperature":"26.862","city":"Tagum","latitude":"7.23N","longitude":"125.68E"}
{"date":"2012-06-01","average_temperature":"26.063000000000002","city":"Taichung","latitude":"24.92N","longitude":"120.59E"}
{"date":"2012-06-01","average_temperature":"26.403000000000002","city":"Taipei","latitude":"24.92N","longitude":"122.36E"}
{"date":"2010-12-01","average_temperature":"17.689","city":"Taitung","latitude":"23.31N","longitude":"121.46E"}
{"date":"2010-01-01","average_temperature":"0.72","city":"Takaoka","latitude":"36.17N","longitude":"137.24E"}
{"date":"2010-03-01","average_temperature":"6.103","city":"Takasaki","latitude":"36.17N","longitude":"139.23E"}
{"date":"2010-10-01","average_temperature":"15.880999999999998","city":"Takasaki","latitude":"36.17N","longitude":"139.23E"}
{"date":"2010-03-01","average_temperature":"26.956999999999997","city":"Talara","latitude":"4.02S","longitude":"81.16W"}
{"date":"2010-06-01","average_temperature":"23.033","city":"Talara","latitude":"4.02S","longitude":"81.16W"}
{"date":"2010-05-01","average_temperature":"27.699","city":"Taman","latitude":"7.23S","longitude":"112.70E"}
{"date":"2012-05-01","average_temperature":"28.129","city":"Tangerang","latitude":"5.63S","longitude":"106.55E"}
{"date":"2011-01-01","average_temperature":"-6.476","city":"Tanggu","latitude":"39.38N","longitude":"118.61E"}
{"date":"2010-04-01","average_temperature":"20.169","city":"Tanta","latitude":"31.35N","longitude":"30.16E"}
{"date":"2011-12-01","average_temperature":"23.851999999999997","city":"Tapachula","latitude":"15.27N","longitude":"92.50W"}
{"date":"2010-11-01","average_temperature":"10.938","city":"Tarsus","latitude":"37.78N","longitude":"34.58E"}
{"date":"2010-09-01","average_temperature":"26.799","city":"Tawau","latitude":"4.02N","longitude":"118.13E"}
{"date":"2013-06-01","average_temperature":"21.766","city":"Teófilo Otoni","latitude":"18.48S","longitude":"42.25W"}
{"date":"2011-11-01","average_temperature":"23.461","city":"Tegucigalpa","latitude":"13.66N","longitude":"86.70W"}
{"date":"2010-12-01","average_temperature":"14.347","city":"Temuco","latitude":"39.38S","longitude":"72.83W"}
{"date":"2011-05-01","average_temperature":"33.624","city":"Tenali","latitude":"16.87N","longitude":"80.37E"}
{"date":"2010-05-01","average_temperature":"21.57","city":"Tengzhou","latitude":"34.56N","longitude":"116.76E"}
{"date":"2010-08-01","average_temperature":"22.289","city":"Terni","latitude":"42.59N","longitude":"13.09E"}
{"date":"2010-01-01","average_temperature":"28.296","city":"Teshie","latitude":"5.63N","longitude":"0.00W"}
{"date":"2012-11-01","average_temperature":"27.456","city":"Teshie","latitude":"5.63N","longitude":"0.00W"}
{"date":"2010-09-01","average_temperature":"17.083","city":"Texcoco","latitude":"20.09N","longitude":"98.96W"}
{"date":"2013-08-01","average_temperature":"27.111","city":"Thessaloníki","latitude":"40.99N","longitude":"23.43E"}
{"date":"2012-01-01","average_temperature":"26.395","city":"Thiruvananthapuram","latitude":"8.84N","longitude":"77.03E"}
{"date":"2013-01-01","average_temperature":"-15.945","city":"Tieling","latitude":"42.59N","longitude":"124.36E"}
{"date":"2011-08-01","average_temperature":"21.632","city":"Timisoara","latitude":"45.81N","longitude":"21.92E"}
{"date":"2011-08-01","average_temperature":"27.869","city":"Timon","latitude":"5.63S","longitude":"43.59W"}
{"date":"2011-12-01","average_temperature":"23.544","city":"Tiruppur","latitude":"10.45N","longitude":"77.73E"}
{"date":"2012-11-01","average_temperature":"27.453000000000007","city":"Tiruvottiyur","latitude":"13.66N","longitude":"80.09E"}
{"date":"2012-11-01","average_temperature":"11.302","city":"Tokuyama","latitude":"34.56N","longitude":"132.32E"}
{"date":"2010-08-01","average_temperature":"27.679000000000002","city":"Toledo","latitude":"10.45N","longitude":"123.55E"}
{"date":"2010-07-01","average_temperature":"22.783","city":"Tonalá","latitude":"20.09N","longitude":"104.08W"}
{"date":"2013-07-01","average_temperature":"26.915000000000006","city":"Tondabayashi","latitude":"34.56N","longitude":"136.22E"}
{"date":"2011-08-01","average_temperature":"26.483","city":"Topeka","latitude":"39.38N","longitude":"95.72W"}
{"date":"2013-01-01","average_temperature":"-4.681","city":"Toronto","latitude":"44.20N","longitude":"80.50W"}
{"date":"2010-04-01","average_temperature":"12.283","city":"Torrance","latitude":"34.56N","longitude":"118.70W"}
{"date":"2011-07-01","average_temperature":"23.987","city":"Torrance","latitude":"34.56N","longitude":"118.70W"}
{"date":"2011-09-01","average_temperature":"22.728","city":"Torrance","latitude":"34.56N","longitude":"118.70W"}
{"date":"2012-06-01","average_temperature":"26.802","city":"Torreón","latitude":"24.92N","longitude":"102.86W"}
{"date":"2011-06-01","average_temperature":"19.625","city":"Torrejón De Ardoz","latitude":"40.99N","longitude":"4.26W"}
{"date":"2011-10-01","average_temperature":"9.603","city":"Torun","latitude":"52.24N","longitude":"18.39E"}
{"date":"2010-04-01","average_temperature":"11.837","city":"Tottori","latitude":"34.56N","longitude":"134.27E"}
{"date":"2012-07-01","average_temperature":"26.235000000000007","city":"Toungoo","latitude":"18.48N","longitude":"96.34E"}
{"date":"2010-06-01","average_temperature":"22.649","city":"Toyonaka","latitude":"34.56N","longitude":"136.22E"}
{"date":"2012-04-01","average_temperature":"13.708","city":"Toyonaka","latitude":"34.56N","longitude":"136.22E"}
{"date":"2010-08-01","average_temperature":"28.454","city":"Toyota","latitude":"34.56N","longitude":"136.22E"}
{"date":"2010-10-01","average_temperature":"13.62","city":"Trabzon","latitude":"40.99N","longitude":"40.47E"}
{"date":"2010-11-01","average_temperature":"11.135000000000002","city":"Trabzon","latitude":"40.99N","longitude":"40.47E"}
{"date":"2011-06-01","average_temperature":"6.698","city":"Trelew","latitude":"42.59S","longitude":"65.45W"}
{"date":"2011-11-01","average_temperature":"19.402","city":"Trelew","latitude":"42.59S","longitude":"65.45W"}
{"date":"2012-07-01","average_temperature":"12.044","city":"Tucuman","latitude":"26.52S","longitude":"64.48W"}
{"date":"2010-09-01","average_temperature":"22.468000000000004","city":"Tuluá","latitude":"4.02N","longitude":"76.34W"}
{"date":"2012-06-01","average_temperature":"20.187","city":"Tunja","latitude":"5.63N","longitude":"72.65W"}
{"date":"2010-04-01","average_temperature":"10.850999999999999","city":"Turhal","latitude":"40.99N","longitude":"36.21E"}
{"date":"2013-02-01","average_temperature":"25.924000000000003","city":"Udgir","latitude":"18.48N","longitude":"77.75E"}
{"date":"2013-03-01","average_temperature":"29.465","city":"Ugep","latitude":"5.63N","longitude":"8.07E"}
{"date":"2012-09-01","average_temperature":"9.312000000000001","city":"Ulaanbaatar","latitude":"47.42N","longitude":"107.76E"}
{"date":"2010-01-01","average_temperature":"25.325","city":"Umm Durman","latitude":"15.27N","longitude":"32.50E"}
{"date":"2013-04-01","average_temperature":"27.658","city":"Uromi","latitude":"7.23N","longitude":"5.68E"}
{"date":"2011-05-01","average_temperature":"14.065999999999999","city":"Utrecht","latitude":"52.24N","longitude":"5.26E"}
{"date":"2013-02-01","average_temperature":"22.016","city":"Uvira","latitude":"4.02S","longitude":"29.73E"}
{"date":"2011-08-01","average_temperature":"22.851999999999997","city":"Valladolid","latitude":"40.99N","longitude":"4.26W"}
{"date":"2012-03-01","average_temperature":"8.808","city":"Valladolid","latitude":"40.99N","longitude":"4.26W"}
{"date":"2011-03-01","average_temperature":"2.9989999999999997","city":"Vanadzor","latitude":"40.99N","longitude":"44.73E"}
{"date":"2010-05-01","average_temperature":"14.665999999999999","city":"Velikie Luki","latitude":"57.05N","longitude":"30.98E"}
{"date":"2010-02-01","average_temperature":"20.32","city":"Verwoerdburg","latitude":"26.52S","longitude":"28.66E"}
{"date":"2012-01-01","average_temperature":"0.431","city":"Victoria","latitude":"49.03N","longitude":"122.45W"}
{"date":"2011-07-01","average_temperature":"27.607","city":"Vientiane","latitude":"18.48N","longitude":"103.10E"}
{"date":"2013-07-01","average_temperature":"12.012","city":"Vina Del Mar","latitude":"32.95S","longitude":"71.81W"}
{"date":"2013-03-01","average_temperature":"27.027","city":"Virar","latitude":"20.09N","longitude":"73.36E"}
{"date":"2012-08-01","average_temperature":"22.641","city":"Vitoria","latitude":"42.59N","longitude":"2.18W"}
{"date":"2010-02-01","average_temperature":"-0.3129999999999997","city":"Vladikavkaz","latitude":"42.59N","longitude":"43.64E"}
{"date":"2010-02-01","average_temperature":"24.459","city":"Volta Redonda","latitude":"21.70S","longitude":"44.13W"}
{"date":"2010-09-01","average_temperature":"17.942","city":"Vryheid","latitude":"28.13S","longitude":"30.00E"}
{"date":"2013-09-01","city":"Wah","latitude":"34.56N","longitude":"72.00E"}
{"date":"2012-08-01","average_temperature":"18.324","city":"Walbrzych","latitude":"50.63N","longitude":"16.48E"}
{"date":"2011-05-01","average_temperature":"14.874","city":"Warren","latitude":"42.59N","longitude":"82.91W"}
{"date":"2011-06-01","average_temperature":"26.723000000000006","city":"Waru","latitude":"7.23S","longitude":"112.70E"}
{"date":"2011-11-01","average_temperature":"5.138","city":"Waterloo","latitude":"44.20N","longitude":"80.50W"}
{"date":"2012-03-01","average_temperature":"5.238","city":"Waterloo","latitude":"44.20N","longitude":"80.50W"}
{"date":"2010-08-01","average_temperature":"25.807","city":"Waw","latitude":"7.23N","longitude":"28.38E"}
{"date":"2012-05-01","average_temperature":"20.691999999999997","city":"Weifang","latitude":"36.17N","longitude":"119.34E"}
{"date":"2012-05-01","average_temperature":"14.645","city":"Welkom","latitude":"28.13S","longitude":"26.36E"}
{"date":"2012-06-01","average_temperature":"12.993","city":"West Bromwich","latitude":"52.24N","longitude":"2.63W"}
{"date":"2011-10-01","average_temperature":"11.485","city":"West Jordan","latitude":"40.99N","longitude":"112.90W"}
{"date":"2010-09-01","average_temperature":"25.453000000000003","city":"Wichita Falls","latitude":"34.56N","longitude":"99.24W"}
{"date":"2012-10-01","average_temperature":"15.424000000000001","city":"Worcester","latitude":"32.95S","longitude":"20.11E"}
{"date":"2012-02-01","average_temperature":"4.16","city":"Worcester","latitude":"52.24N","longitude":"2.63W"}
{"date":"2012-10-01","average_temperature":"9.159","city":"Worcester","latitude":"52.24N","longitude":"2.63W"}
{"date":"2013-04-01","average_temperature":"2.0380000000000003","city":"Wulanhaote","latitude":"45.81N","longitude":"121.15E"}
{"date":"2012-05-01","average_temperature":"21.454","city":"Wuxi","latitude":"31.35N","longitude":"120.63E"}
{"date":"2011-04-01","average_temperature":"17.677","city":"Wuxue","latitude":"29.74N","longitude":"116.31E"}
{"date":"2010-04-01","average_temperature":"24.209000000000003","city":"Xai Xai","latitude":"24.92S","longitude":"33.69E"}
{"date":"2012-05-01","average_temperature":"22.107","city":"Xai Xai","latitude":"24.92S","longitude":"33.69E"}
{"date":"2013-06-01","average_temperature":"26.838","city":"Xiantao","latitude":"29.74N","longitude":"112.62E"}
{"date":"2012-01-01","average_temperature":"12.901","city":"Xico","latitude":"20.09N","longitude":"98.96W"}
{"date":"2013-05-01","average_temperature":"19.155","city":"Xico","latitude":"20.09N","longitude":"98.96W"}
{"date":"2010-02-01","average_temperature":"-4.757999999999999","city":"Xining","latitude":"36.17N","longitude":"101.44E"}
{"date":"2010-05-01","average_temperature":"18.707","city":"Xinxiang","latitude":"36.17N","longitude":"113.37E"}
{"date":"2011-07-01","average_temperature":"24.392","city":"Xinxiang","latitude":"36.17N","longitude":"113.37E"}
{"date":"2010-08-01","average_temperature":"27.147","city":"Xinyang","latitude":"32.95N","longitude":"113.94E"}
{"date":"2010-06-01","average_temperature":"24.215","city":"Yancheng","latitude":"32.95N","longitude":"119.68E"}
{"date":"2011-02-01","average_temperature":"14.784","city":"Yangmei","latitude":"24.92N","longitude":"120.59E"}
{"date":"2012-01-01","average_temperature":"-1.535","city":"Yantai","latitude":"37.78N","longitude":"122.03E"}
{"date":"2012-01-01","average_temperature":"4.188","city":"Yao","latitude":"34.56N","longitude":"136.22E"}
{"date":"2010-10-01","average_temperature":"27.389","city":"Yavatmal","latitude":"20.09N","longitude":"78.48E"}
{"date":"2012-03-01","average_temperature":"28.349","city":"Yelahanka","latitude":"13.66N","longitude":"76.79E"}
{"date":"2011-02-01","average_temperature":"-2.786","city":"Yerevan","latitude":"40.99N","longitude":"44.73E"}
{"date":"2010-01-01","average_temperature":"3.31","city":"Yichang","latitude":"31.35N","longitude":"111.20E"}
{"date":"2013-04-01","average_temperature":"15.348","city":"Yichang","latitude":"31.35N","longitude":"111.20E"}
{"date":"2010-01-01","average_temperature":"6.2959999999999985","city":"Yichun","latitude":"28.13N","longitude":"113.64E"}
{"date":"2010-03-01","average_temperature":"12.076","city":"Yichun","latitude":"28.13N","longitude":"113.64E"}
{"date":"2012-09-01","average_temperature":"23.529","city":"Yichun","latitude":"28.13N","longitude":"113.64E"}
{"date":"2013-01-01","average_temperature":"3.233","city":"Yingcheng","latitude":"31.35N","longitude":"113.09E"}
{"date":"2010-11-01","average_temperature":"1.222","city":"Yingkou","latitude":"40.99N","longitude":"123.55E"}
{"date":"2012-09-01","average_temperature":"14.388","city":"Yining","latitude":"44.20N","longitude":"80.50E"}
{"date":"2012-08-01","average_temperature":"26.410999999999998","city":"Yogyakarta","latitude":"7.23S","longitude":"111.08E"}
{"date":"2011-07-01","average_temperature":"27.818","city":"Yongan","latitude":"26.52N","longitude":"118.21E"}
{"date":"2010-01-01","average_temperature":"5.421","city":"Yueyang","latitude":"29.74N","longitude":"112.62E"}
{"date":"2011-01-01","average_temperature":"-4.231","city":"Yuncheng","latitude":"34.56N","longitude":"110.92E"}
{"date":"2013-05-01","average_temperature":"18.586","city":"Yuncheng","latitude":"34.56N","longitude":"110.92E"}
{"date":"2013-05-01","average_temperature":"22.706999999999997","city":"Zamora","latitude":"20.09N","longitude":"102.37W"}
{"date":"2011-05-01","average_temperature":"13.982","city":"Zelenograd","latitude":"55.45N","longitude":"36.85E"}
{"date":"2012-04-01","average_temperature":"10.029","city":"Zhangjiakou","latitude":"40.99N","longitude":"115.03E"}
{"date":"2013-06-01","average_temperature":"21.795","city":"Zhezkazgan","latitude":"47.42N","longitude":"67.50E"}
{"date":"2010-03-01","average_temperature":"8.691","city":"Zhoukou","latitude":"32.95N","longitude":"113.94E"}
{"date":"2013-05-01","average_temperature":"19.075","city":"Zhucheng","latitude":"36.17N","longitude":"119.34E"}
{"date":"2010-02-01","average_temperature":"17.258","city":"Zhuhai","latitude":"21.70N","longitude":"113.37E"}
{"date":"2011-08-01","average_temperature":"29.563","city":"Zhuhai","latitude":"21.70N","longitude":"113.37E"}
{"date":"2013-07-01","average_temperature":"29.798","city":"Zhuji","latitude":"29.74N","longitude":"120.00E"}
{"date":"2010-06-01","average_temperature":"23.583000000000002","city":"Zigong","latitude":"29.74N","longitude":"105.23E"}
{"date":"2013-03-01","average_temperature":"26.294","city":"Ziguinchor","latitude":"12.05N","longitude":"16.44W"}
