{"date":"2012-09-01","average_temperature":"17.64","city":"Ürümqi","latitude":"44.20N","longitude":"87.20E"}
{"date":"2011-01-01","average_temperature":"9.668","city":"A Coruña","latitude":"42.59N","longitude":"8.73W"}
{"date":"2013-03-01","average_temperature":"-0.4740000000000002","city":"Aalborg","latitude":"57.05N","longitude":"10.33E"}
{"date":"2012-07-01","average_temperature":"38.531","city":"Abadan","latitude":"29.74N","longitude":"48.00E"}
{"date":"2010-08-01","average_temperature":"15.652999999999999","city":"Abbotsford","latitude":"49.03N","longitude":"122.45W"}
{"date":"2010-01-01","average_temperature":"29.590999999999998","city":"Abomey Calavi","latitude":"7.23N","longitude":"2.43E"}
{"date":"2012-02-01","average_temperature":"29.517","city":"Abomey Calavi","latitude":"7.23N","longitude":"2.43E"}
{"date":"2011-08-01","average_temperature":"25.05","city":"Abuja","latitude":"8.84N","longitude":"7.30E"}
{"date":"2011-04-01","average_temperature":"26.169","city":"Acapulco","latitude":"16.87N","longitude":"100.47W"}
{"date":"2013-06-01","average_temperature":"28.55","city":"Acuña","latitude":"29.74N","longitude":"101.54W"}
{"date":"2011-04-01","average_temperature":"17.174","city":"Adana","latitude":"36.17N","longitude":"35.80E"}
{"date":"2010-01-01","average_temperature":"23.603","city":"Adelaide","latitude":"34.56S","longitude":"138.16E"}
{"date":"2012-02-01","average_temperature":"23.539","city":"Aden","latitude":"13.66N","longitude":"45.41E"}
{"date":"2011-12-01","average_temperature":"3.25","city":"Ageo","latitude":"36.17N","longitude":"139.23E"}
{"date":"2010-01-01","average_temperature":"13.779000000000002","city":"Agra","latitude":"26.52N","longitude":"78.81E"}
{"date":"2012-02-01","average_temperature":"14.800999999999998","city":"Aguascalientes","latitude":"21.70N","longitude":"102.98W"}
{"date":"2013-08-01","average_temperature":"21.599","city":"Aix En Provence","latitude":"44.20N","longitude":"4.47E"}
{"date":"2012-07-01","average_temperature":"24.965999999999998","city":"Akron","latitude":"40.99N","longitude":"80.95W"}
{"date":"2011-04-01","average_temperature":"16.256","city":"Aksu","latitude":"40.99N","longitude":"80.95E"}
{"date":"2010-07-01","average_temperature":"25.933000000000003","city":"Albacete","latitude":"39.38N","longitude":"2.08W"}
{"date":"2011-05-01","average_temperature":"12.193","city":"Alberton","latitude":"26.52S","longitude":"28.66E"}
{"date":"2010-09-01","average_temperature":"20.075","city":"Albuquerque","latitude":"34.56N","longitude":"107.03W"}
{"date":"2010-10-01","average_temperature":"13.71","city":"Albury","latitude":"36.17S","longitude":"147.18E"}
{"date":"2011-12-01","average_temperature":"18.602999999999998","city":"Albury","latitude":"36.17S","longitude":"147.18E"}
{"date":"2010-06-01","average_temperature":"24.801","city":"Alexandria","latitude":"39.38N","longitude":"76.99W"}
{"date":"2012-05-01","average_temperature":"17.779","city":"Allentown","latitude":"40.99N","longitude":"74.56W"}
{"date":"2011-05-01","average_temperature":"34.298","city":"Alwar","latitude":"28.13N","longitude":"77.27E"}
{"date":"2013-05-01","average_temperature":"17.769000000000005","city":"Angren","latitude":"40.99N","longitude":"70.30E"}
{"date":"2011-12-01","average_temperature":"2.364","city":"Ankang","latitude":"32.95N","longitude":"108.19E"}
{"date":"2011-11-01","average_temperature":"9.132","city":"Anqiu","latitude":"36.17N","longitude":"119.34E"}
{"date":"2010-11-01","average_temperature":"5.542999999999999","city":"Anyang","latitude":"36.17N","longitude":"113.37E"}
{"date":"2011-12-01","average_temperature":"13.105","city":"Apodaca","latitude":"26.52N","longitude":"100.30W"}
{"date":"2010-08-01","average_temperature":"26.122","city":"Apopa","latitude":"13.66N","longitude":"90.00W"}
{"date":"2013-04-01","average_temperature":"27.276999999999997","city":"Apopa","latitude":"13.66N","longitude":"90.00W"}
{"date":"2011-03-01","average_temperature":"23.445","city":"Araraquara","latitude":"21.70S","longitude":"47.60W"}
{"date":"2013-04-01","average_temperature":"25.357","city":"Araruama","latitude":"23.31S","longitude":"42.82W"}
{"date":"2011-09-01","average_temperature":"9.833","city":"Arvada","latitude":"39.38N","longitude":"106.13W"}
{"date":"2011-12-01","average_temperature":"-3.124","city":"Arzamas","latitude":"55.45N","longitude":"42.52E"}
{"date":"2012-06-01","average_temperature":"23.074","city":"Asfi","latitude":"32.95N","longitude":"8.62W"}
{"date":"2011-11-01","average_temperature":"10.802999999999999","city":"Ashikaga","latitude":"36.17N","longitude":"139.23E"}
{"date":"2011-05-01","average_temperature":"20.088","city":"Asunción","latitude":"24.92S","longitude":"58.52W"}
{"date":"2010-12-01","average_temperature":"23.216","city":"Atibaia","latitude":"23.31S","longitude":"46.31W"}
{"date":"2011-06-01","average_temperature":"19.704","city":"Aurora","latitude":"39.38N","longitude":"104.05W"}
{"date":"2013-09-01","city":"Azamgarh","latitude":"26.52N","longitude":"82.39E"}
{"date":"2010-11-01","average_temperature":"27.198","city":"Bénin","latitude":"7.23N","longitude":"5.68E"}
{"date":"2010-01-01","average_temperature":"24.969","city":"Babakan","latitude":"7.23S","longitude":"107.84E"}
{"date":"2012-05-01","average_temperature":"29.139","city":"Bacoor","latitude":"15.27N","longitude":"120.83E"}
{"date":"2010-11-01","average_temperature":"-3.721","city":"Badaojiang","latitude":"42.59N","longitude":"126.55E"}
{"date":"2011-01-01","average_temperature":"13.376","city":"Bahadurgarh","latitude":"28.13N","longitude":"77.27E"}
{"date":"2010-04-01","average_temperature":"31.781999999999996","city":"Bahawalnagar","latitude":"29.74N","longitude":"73.85E"}
{"date":"2012-11-01","average_temperature":"18.442999999999998","city":"Bahir Dar","latitude":"12.05N","longitude":"37.81E"}
{"date":"2010-10-01","average_temperature":"7.307","city":"Baia Mare","latitude":"47.42N","longitude":"22.50E"}
{"date":"2011-03-01","average_temperature":"4.478","city":"Baku","latitude":"40.99N","longitude":"48.99E"}
{"date":"2013-04-01","average_temperature":"8.089","city":"Balakovo","latitude":"52.24N","longitude":"47.30E"}
{"date":"2011-07-01","average_temperature":"29.296999999999997","city":"Baleshwar","latitude":"21.70N","longitude":"87.40E"}
{"date":"2012-01-01","average_temperature":"26.02","city":"Baliuag","latitude":"15.27N","longitude":"120.83E"}
{"date":"2010-05-01","average_temperature":"31.671","city":"Ballia","latitude":"26.52N","longitude":"84.18E"}
{"date":"2010-02-01","average_temperature":"-1.879","city":"Balti","latitude":"47.42N","longitude":"27.24E"}
{"date":"2011-08-01","average_temperature":"20.815","city":"Balti","latitude":"47.42N","longitude":"27.24E"}
{"date":"2013-08-01","average_temperature":"28.059","city":"Banda Aceh","latitude":"5.63N","longitude":"95.25E"}
{"date":"2011-12-01","average_temperature":"3.281","city":"Bandar E Anzali","latitude":"37.78N","longitude":"48.81E"}
{"date":"2011-01-01","average_temperature":"25.897","city":"Bandar Penggaram","latitude":"2.41N","longitude":"103.66E"}
{"date":"2013-09-01","city":"Bangkok","latitude":"13.66N","longitude":"99.91E"}
{"date":"2011-08-01","average_temperature":"25.313","city":"Banyuwangi","latitude":"8.84S","longitude":"114.32E"}
{"date":"2013-05-01","average_temperature":"27.416","city":"Banyuwangi","latitude":"8.84S","longitude":"114.32E"}
{"date":"2011-08-01","average_temperature":"21.467","city":"Baoshan","latitude":"47.42N","longitude":"131.45E"}
{"date":"2013-03-01","average_temperature":"10.988","city":"Bari","latitude":"40.99N","longitude":"17.04E"}
{"date":"2012-02-01","average_temperature":"23.576999999999998","city":"Baripada","latitude":"21.70N","longitude":"87.40E"}
{"date":"2012-05-01","average_temperature":"30.202","city":"Barisal","latitude":"23.31N","longitude":"90.00E"}
{"date":"2011-07-01","average_temperature":"27.073","city":"Barranquilla","latitude":"10.45N","longitude":"74.45W"}
{"date":"2010-04-01","average_temperature":"9.037","city":"Barrie","latitude":"44.20N","longitude":"80.50W"}
{"date":"2012-05-01","average_temperature":"12.341","city":"Basildon","latitude":"52.24N","longitude":"0.00W"}
{"date":"2012-11-01","average_temperature":"20.599","city":"Basti","latitude":"26.52N","longitude":"82.39E"}
{"date":"2011-02-01","average_temperature":"25.153","city":"Bayamo","latitude":"20.09N","longitude":"76.78W"}
{"date":"2011-09-01","average_temperature":"26.456999999999997","city":"Bayrut","latitude":"34.56N","longitude":"35.03E"}
{"date":"2012-10-01","average_temperature":"27.002","city":"Belawan","latitude":"4.02N","longitude":"98.84E"}
{"date":"2013-05-01","average_temperature":"8.751","city":"Belfast","latitude":"55.45N","longitude":"5.67W"}
{"date":"2013-01-01","average_temperature":"25.139","city":"Belgaum","latitude":"15.27N","longitude":"74.17E"}
{"date":"2011-10-01","average_temperature":"6.879","city":"Belgorod","latitude":"50.63N","longitude":"36.76E"}
{"date":"2010-09-01","average_temperature":"12.933","city":"Bellevue","latitude":"47.42N","longitude":"121.97W"}
{"date":"2011-01-01","average_temperature":"11.794","city":"Bene Beraq","latitude":"32.95N","longitude":"35.43E"}
{"date":"2012-09-01","average_temperature":"19.045","city":"Berkeley","latitude":"37.78N","longitude":"122.03W"}
{"date":"2012-02-01","average_temperature":"-1.944","city":"Berlin","latitude":"52.24N","longitude":"13.14E"}
{"date":"2012-12-01","average_temperature":"16.509","city":"Bettiah","latitude":"26.52N","longitude":"84.18E"}
{"date":"2011-07-01","average_temperature":"23.984","city":"Bhadravati","latitude":"13.66N","longitude":"75.14E"}
{"date":"2013-07-01","average_temperature":"30.19","city":"Bhagalpur","latitude":"24.92N","longitude":"86.90E"}
{"date":"2011-12-01","average_temperature":"7.5520000000000005","city":"Bharatpur","latitude":"28.13N","longitude":"84.55E"}
{"date":"2010-07-01","average_temperature":"27.855","city":"Bhilai","latitude":"21.70N","longitude":"82.21E"}
{"date":"2012-06-01","average_temperature":"32.589","city":"Bhimavaram","latitude":"16.87N","longitude":"82.05E"}
{"date":"2012-12-01","average_temperature":"19.904","city":"Bhopal","latitude":"23.31N","longitude":"77.77E"}
{"date":"2012-12-01","average_temperature":"22.041","city":"Bhuj","latitude":"23.31N","longitude":"69.03E"}
{"date":"2011-11-01","average_temperature":"24.879","city":"Bijapur","latitude":"16.87N","longitude":"75.35E"}
{"date":"2010-10-01","average_temperature":"27.563000000000002","city":"Binjai","latitude":"4.02N","longitude":"98.84E"}
{"date":"2010-07-01","average_temperature":"26.908","city":"Biratnagar","latitude":"26.52N","longitude":"87.76E"}
{"date":"2010-10-01","average_temperature":"24.215999999999998","city":"Biratnagar","latitude":"26.52N","longitude":"87.76E"}
{"date":"2011-09-01","average_temperature":"26.826999999999998","city":"Bissau","latitude":"12.05N","longitude":"14.79W"}
{"date":"2013-03-01","average_temperature":"-4.2810000000000015","city":"Biysk","latitude":"52.24N","longitude":"84.09E"}
{"date":"2011-01-01","average_temperature":"25.965","city":"Bogor","latitude":"7.23S","longitude":"106.22E"}
{"date":"2012-02-01","average_temperature":"20.540000000000006","city":"Bogotá","latitude":"4.02N","longitude":"74.73W"}
{"date":"2010-11-01","average_temperature":"9.802","city":"Bojnurd","latitude":"37.78N","longitude":"56.95E"}
{"date":"2011-02-01","average_temperature":"26.452","city":"Bontang","latitude":"0.80N","longitude":"118.13E"}
{"date":"2010-03-01","average_temperature":"6.077999999999999","city":"Boshan","latitude":"36.17N","longitude":"117.35E"}
{"date":"2011-10-01","average_temperature":"28.76","city":"Botad","latitude":"21.70N","longitude":"71.83E"}
{"date":"2012-01-01","average_temperature":"7.987999999999999","city":"Braga","latitude":"40.99N","longitude":"8.52W"}
{"date":"2012-01-01","average_temperature":"-24.763","city":"Bratsk","latitude":"55.45N","longitude":"102.05E"}
{"date":"2011-02-01","average_temperature":"24.86","city":"Brazzaville","latitude":"4.02S","longitude":"15.27E"}
{"date":"2010-01-01","average_temperature":"-9.677","city":"Brest","latitude":"52.24N","longitude":"23.65E"}
{"date":"2013-08-01","average_temperature":"27.656999999999996","city":"Brikama","latitude":"13.66N","longitude":"17.34W"}
{"date":"2012-03-01","average_temperature":"4.196999999999999","city":"Bukan","latitude":"36.17N","longitude":"45.75E"}
{"date":"2010-07-01","average_temperature":"28.438000000000002","city":"Bukit Mertajam","latitude":"5.63N","longitude":"100.09E"}
{"date":"2011-05-01","average_temperature":"28.826999999999998","city":"Bulaon","latitude":"15.27N","longitude":"120.83E"}
{"date":"2011-08-01","average_temperature":"24.906","city":"Buon Me Thuot","latitude":"12.05N","longitude":"108.49E"}
{"date":"2010-07-01","average_temperature":"34.483000000000004","city":"Burewala","latitude":"29.74N","longitude":"72.00E"}
{"date":"2012-05-01","average_temperature":"27.009","city":"Bushehr","latitude":"29.74N","longitude":"51.69E"}
{"date":"2013-01-01","average_temperature":"25.425","city":"Butuan","latitude":"8.84N","longitude":"125.68E"}
{"date":"2011-03-01","average_temperature":"2.8040000000000003","city":"Bydgoszcz","latitude":"53.84N","longitude":"17.73E"}
{"date":"2011-06-01","average_temperature":"18.493","city":"Bytom","latitude":"50.63N","longitude":"19.01E"}
{"date":"2013-02-01","average_temperature":"23.785","city":"Cachoeirinha","latitude":"29.74S","longitude":"51.69W"}
{"date":"2010-03-01","average_temperature":"26.218000000000004","city":"Cachoeiro De Itapemirim","latitude":"20.09S","longitude":"40.95W"}
{"date":"2011-03-01","average_temperature":"27.351999999999997","city":"Cadiz","latitude":"10.45N","longitude":"123.55E"}
{"date":"2010-04-01","average_temperature":"29.52","city":"Calabozo","latitude":"8.84N","longitude":"67.30W"}
{"date":"2012-06-01","average_temperature":"31.959","city":"Calcutta","latitude":"23.31N","longitude":"88.25E"}
{"date":"2012-03-01","average_temperature":"18.305","city":"Cam Pha","latitude":"21.70N","longitude":"108.17E"}
{"date":"2010-12-01","average_temperature":"27.081999999999997","city":"Camaragibe","latitude":"7.23S","longitude":"34.86W"}
{"date":"2010-09-01","average_temperature":"28.131999999999998","city":"Campeche","latitude":"20.09N","longitude":"90.43W"}
{"date":"2012-06-01","average_temperature":"26.406999999999996","city":"Cape Coral","latitude":"26.52N","longitude":"82.39W"}
{"date":"2013-04-01","average_temperature":"27.517000000000003","city":"Carúpano","latitude":"10.45N","longitude":"63.00W"}
{"date":"2012-01-01","average_temperature":"5.2139999999999995","city":"Cardiff","latitude":"52.24N","longitude":"2.63W"}
{"date":"2012-04-01","average_temperature":"25.302","city":"Carolina","latitude":"18.48N","longitude":"65.92W"}
{"date":"2012-05-01","average_temperature":"26.428","city":"Carolina","latitude":"18.48N","longitude":"65.92W"}
{"date":"2010-03-01","average_temperature":"27.636","city":"Cartagena","latitude":"10.45N","longitude":"76.09W"}
{"date":"2010-07-01","average_temperature":"26.544","city":"Castanhal","latitude":"0.80S","longitude":"47.41W"}
{"date":"2010-05-01","average_temperature":"17.666","city":"Catania","latitude":"37.78N","longitude":"14.24E"}
{"date":"2012-12-01","average_temperature":"19.621","city":"Champdani","latitude":"23.31N","longitude":"88.25E"}
{"date":"2010-03-01","average_temperature":"29.451","city":"Chandannagar","latitude":"23.31N","longitude":"88.25E"}
{"date":"2013-05-01","average_temperature":"25.926","city":"Chandler","latitude":"32.95N","longitude":"112.02W"}
{"date":"2013-08-01","average_temperature":"26.98","city":"Chandrapur","latitude":"20.09N","longitude":"78.48E"}
{"date":"2010-01-01","average_temperature":"-15.830000000000002","city":"Changchun","latitude":"44.20N","longitude":"125.22E"}
{"date":"2011-04-01","average_temperature":"21.806","city":"Chaozhou","latitude":"23.31N","longitude":"116.21E"}
{"date":"2010-04-01","average_temperature":"10.088","city":"Charleroi","latitude":"50.63N","longitude":"3.80E"}
{"date":"2010-06-01","average_temperature":"28.333","city":"Charleston","latitude":"32.95N","longitude":"79.47W"}
{"date":"2010-06-01","average_temperature":"27.578000000000007","city":"Charlotte","latitude":"34.56N","longitude":"81.73W"}
{"date":"2010-07-01","average_temperature":"25.465999999999998","city":"Cheboksary","latitude":"55.45N","longitude":"48.19E"}
{"date":"2013-03-01","average_temperature":"1.5799999999999998","city":"Chengde","latitude":"40.99N","longitude":"117.16E"}
{"date":"2013-04-01","average_temperature":"7.467","city":"Chengde","latitude":"40.99N","longitude":"117.16E"}
{"date":"2012-01-01","average_temperature":"0.166","city":"Chengdu","latitude":"31.35N","longitude":"103.66E"}
{"date":"2010-08-01","average_temperature":"29.198","city":"Chenghai","latitude":"23.31N","longitude":"116.21E"}
{"date":"2012-11-01","average_temperature":"19.195","city":"Chenghai","latitude":"23.31N","longitude":"116.21E"}
{"date":"2012-10-01","average_temperature":"25.761999999999997","city":"Chhatarpur","latitude":"24.92N","longitude":"79.80E"}
{"date":"2013-08-01","average_temperature":"23.487","city":"Chifeng","latitude":"42.59N","longitude":"120.00E"}
{"date":"2012-01-01","average_temperature":"0.7150000000000001","city":"Chigasaki","latitude":"36.17N","longitude":"139.23E"}
{"date":"2011-12-01","average_temperature":"18.772","city":"Chimbote","latitude":"8.84S","longitude":"78.65W"}
{"date":"2010-06-01","average_temperature":"19.831","city":"Chimoio","latitude":"18.48S","longitude":"33.80E"}
{"date":"2013-09-01","average_temperature":"28.861","city":"Chinandega","latitude":"12.05N","longitude":"87.12W"}
{"date":"2010-11-01","average_temperature":"12.208","city":"Chizhou","latitude":"31.35N","longitude":"116.86E"}
{"date":"2011-08-01","average_temperature":"19.398","city":"Chorzow","latitude":"50.63N","longitude":"19.01E"}
{"date":"2011-11-01","average_temperature":"3.315","city":"Chorzow","latitude":"50.63N","longitude":"19.01E"}
{"date":"2010-01-01","average_temperature":"14.445","city":"Chula Vista","latitude":"32.95N","longitude":"117.77W"}
{"date":"2011-01-01","average_temperature":"12.314","city":"Chungho","latitude":"24.92N","longitude":"120.59E"}
{"date":"2010-10-01","average_temperature":"25.881","city":"Ciampea","latitude":"7.23S","longitude":"106.22E"}
{"date":"2011-02-01","average_temperature":"26.335","city":"Ciampea","latitude":"7.23S","longitude":"106.22E"}
{"date":"2011-12-01","average_temperature":"25.669","city":"Cileunyi","latitude":"7.23S","longitude":"107.84E"}
{"date":"2011-02-01","average_temperature":"26.335","city":"Cisaat","latitude":"7.23S","longitude":"106.22E"}
{"date":"2012-04-01","average_temperature":"26.078000000000003","city":"Ciudad Guayana","latitude":"8.84N","longitude":"62.43W"}
{"date":"2010-08-01","average_temperature":"28.689","city":"Clearwater","latitude":"28.13N","longitude":"82.73W"}
{"date":"2010-08-01","average_temperature":"22.141","city":"Coimbra","latitude":"40.99N","longitude":"8.52W"}
{"date":"2013-01-01","average_temperature":"0.904","city":"Cologne","latitude":"50.63N","longitude":"6.34E"}
{"date":"2013-05-01","average_temperature":"15.713","city":"Concordia","latitude":"31.35S","longitude":"58.43W"}
{"date":"2012-06-01","average_temperature":"20.333","city":"Conselheiro Lafaiete","latitude":"20.09S","longitude":"44.36W"}
{"date":"2012-10-01","average_temperature":"24.13","city":"Conselheiro Lafaiete","latitude":"20.09S","longitude":"44.36W"}
{"date":"2013-06-01","average_temperature":"7.1480000000000015","city":"Copiapo","latitude":"28.13S","longitude":"70.00W"}
{"date":"2013-04-01","average_temperature":"15.380999999999998","city":"Costa Mesa","latitude":"32.95N","longitude":"117.77W"}
{"date":"2012-10-01","average_temperature":"9.159","city":"Coventry","latitude":"52.24N","longitude":"2.63W"}
{"date":"2012-07-01","average_temperature":"17.525000000000002","city":"Cuautitlán Izcalli","latitude":"20.09N","longitude":"98.96W"}
{"date":"2010-07-01","average_temperature":"27.038","city":"Curug","latitude":"5.63S","longitude":"106.55E"}
{"date":"2013-06-01","average_temperature":"26.851999999999997","city":"Daan","latitude":"29.74N","longitude":"105.23E"}
{"date":"2010-06-01","average_temperature":"28.843000000000004","city":"Dadiangas","latitude":"5.63N","longitude":"125.92E"}
{"date":"2010-11-01","average_temperature":"11.601","city":"Daito","latitude":"34.56N","longitude":"136.22E"}
{"date":"2011-02-01","average_temperature":"6.405","city":"Daito","latitude":"34.56N","longitude":"136.22E"}
{"date":"2011-05-01","average_temperature":"27.671000000000006","city":"Daloa","latitude":"7.23N","longitude":"5.68W"}
{"date":"2012-07-01","average_temperature":"30.845","city":"Dasoguz","latitude":"40.99N","longitude":"59.64E"}
{"date":"2011-01-01","average_temperature":"-16.570999999999998","city":"Datong","latitude":"40.99N","longitude":"112.90E"}
{"date":"2010-09-01","average_temperature":"26.138","city":"Denton","latitude":"32.95N","longitude":"96.70W"}
{"date":"2010-06-01","average_temperature":"32.548","city":"Deoria","latitude":"26.52N","longitude":"84.18E"}
{"date":"2010-11-01","average_temperature":"22.065","city":"Dese","latitude":"10.45N","longitude":"40.09E"}
{"date":"2013-04-01","average_temperature":"29.801","city":"Dewas","latitude":"23.31N","longitude":"76.02E"}
{"date":"2012-04-01","average_temperature":"16.926000000000002","city":"Dezhou","latitude":"37.78N","longitude":"115.93E"}
{"date":"2010-08-01","average_temperature":"29.229","city":"Dhaulpur","latitude":"26.52N","longitude":"77.01E"}
{"date":"2010-09-01","average_temperature":"28.304000000000002","city":"Dhaulpur","latitude":"26.52N","longitude":"77.01E"}
{"date":"2012-08-01","average_temperature":"25.48","city":"Dibrugarh","latitude":"28.13N","longitude":"95.45E"}
{"date":"2010-10-01","average_temperature":"5.172999999999999","city":"Didao","latitude":"45.81N","longitude":"130.38E"}
{"date":"2012-10-01","average_temperature":"24.074","city":"Dodoma","latitude":"5.63S","longitude":"35.52E"}
{"date":"2013-07-01","average_temperature":"20.49","city":"Dodoma","latitude":"5.63S","longitude":"35.52E"}
{"date":"2013-07-01","average_temperature":"28.228","city":"Dongli","latitude":"20.09N","longitude":"110.90E"}
{"date":"2012-05-01","average_temperature":"19.965999999999998","city":"Dos Quebradas","latitude":"5.63N","longitude":"75.87W"}
{"date":"2011-08-01","average_temperature":"24.566999999999997","city":"Downey","latitude":"34.56N","longitude":"118.70W"}
{"date":"2012-07-01","average_temperature":"14.014000000000001","city":"Dublin","latitude":"53.84N","longitude":"6.82W"}
{"date":"2010-09-01","average_temperature":"13.204","city":"Duisburg","latitude":"50.63N","longitude":"6.34E"}
{"date":"2013-01-01","average_temperature":"8.197000000000001","city":"Duma","latitude":"32.95N","longitude":"37.34E"}
{"date":"2010-03-01","average_temperature":"26.554000000000002","city":"Dumaguete","latitude":"8.84N","longitude":"124.05E"}
{"date":"2011-11-01","average_temperature":"26.897","city":"Dumai","latitude":"2.41N","longitude":"102.05E"}
{"date":"2013-03-01","average_temperature":"28.334","city":"Dumai","latitude":"2.41N","longitude":"102.05E"}
{"date":"2011-10-01","average_temperature":"8.578","city":"Dundee","latitude":"57.05N","longitude":"4.43W"}
{"date":"2011-04-01","average_temperature":"29.961","city":"Durg","latitude":"21.70N","longitude":"80.48E"}
{"date":"2011-11-01","average_temperature":"22.522","city":"Durgapur","latitude":"23.31N","longitude":"86.50E"}
{"date":"2013-06-01","average_temperature":"22.665","city":"Durrës","latitude":"40.99N","longitude":"19.17E"}
{"date":"2012-01-01","average_temperature":"-9.021","city":"Dzerzhinsk","latitude":"57.05N","longitude":"42.79E"}
{"date":"2012-04-01","average_temperature":"8.101","city":"Ede","latitude":"52.24N","longitude":"5.26E"}
{"date":"2012-06-01","average_temperature":"20.165","city":"Edison","latitude":"40.99N","longitude":"74.56W"}
{"date":"2010-10-01","average_temperature":"5.994","city":"Edmonton","latitude":"53.84N","longitude":"113.18W"}
{"date":"2010-07-01","average_temperature":"23.636","city":"El Monte","latitude":"34.56N","longitude":"118.70W"}
{"date":"2012-02-01","average_temperature":"23.748","city":"El Progreso","latitude":"15.27N","longitude":"87.50W"}
{"date":"2010-01-01","average_temperature":"-9.957","city":"Elblag","latitude":"53.84N","longitude":"20.45E"}
{"date":"2012-07-01","average_temperature":"19.875999999999998","city":"Elblag","latitude":"53.84N","longitude":"20.45E"}
{"date":"2010-08-01","average_temperature":"17.185000000000002","city":"Emmen","latitude":"52.24N","longitude":"7.88E"}
{"date":"2012-06-01","average_temperature":"27.715","city":"Encheng","latitude":"21.70N","longitude":"111.63E"}
{"date":"2013-04-01","average_temperature":"20.155","city":"Envigado","latitude":"5.63N","longitude":"75.87W"}
{"date":"2010-03-01","average_temperature":"4.918","city":"Erlangen","latitude":"49.03N","longitude":"9.80E"}
{"date":"2011-04-01","average_temperature":"4.8679999999999986","city":"Erzurum","latitude":"39.38N","longitude":"41.62E"}
{"date":"2010-10-01","average_temperature":"5.5520000000000005","city":"Espoo","latitude":"60.27N","longitude":"25.95E"}
{"date":"2011-07-01","average_temperature":"15.847000000000001","city":"Essen","latitude":"50.63N","longitude":"6.34E"}
{"date":"2011-02-01","average_temperature":"7.702000000000001","city":"Ezhou","latitude":"29.74N","longitude":"114.46E"}
{"date":"2013-08-01","average_temperature":"31.511","city":"Faisalabad","latitude":"31.35N","longitude":"73.51E"}
{"date":"2013-02-01","average_temperature":"17.964000000000002","city":"Farrukhabad","latitude":"28.13N","longitude":"79.09E"}
{"date":"2012-11-01","average_temperature":"26.287","city":"Feira De Santana","latitude":"12.05S","longitude":"39.45W"}
{"date":"2011-08-01","average_temperature":"18.889","city":"Fianarantsoa","latitude":"21.70S","longitude":"47.60E"}
{"date":"2012-01-01","average_temperature":"23.691999999999997","city":"Fianarantsoa","latitude":"21.70S","longitude":"47.60E"}
{"date":"2010-02-01","average_temperature":"25.774","city":"Florianópolis","latitude":"28.13S","longitude":"48.18W"}
{"date":"2011-06-01","average_temperature":"17.956","city":"Fort Collins","latitude":"40.99N","longitude":"104.38W"}
{"date":"2011-11-01","average_temperature":"22.369","city":"Fort Lauderdale","latitude":"26.52N","longitude":"80.60W"}
{"date":"2010-01-01","average_temperature":"27.813000000000002","city":"Fortaleza","latitude":"4.02S","longitude":"40.98W"}
{"date":"2010-06-01","average_temperature":"27.188000000000002","city":"Fortaleza","latitude":"4.02S","longitude":"40.98W"}
{"date":"2011-02-01","average_temperature":"26.464","city":"Fortaleza","latitude":"4.02S","longitude":"40.98W"}
{"date":"2012-11-01","average_temperature":"4.838","city":"Frankfurt","latitude":"50.63N","longitude":"8.87E"}
{"date":"2012-12-01","average_temperature":"27.901","city":"Freetown","latitude":"8.84N","longitude":"13.78W"}
{"date":"2010-09-01","average_temperature":"11.470999999999998","city":"Freiburg","latitude":"47.42N","longitude":"8.29E"}
{"date":"2012-01-01","average_temperature":"11.825","city":"Fresnillo","latitude":"23.31N","longitude":"102.23W"}
{"date":"2013-07-01","average_temperature":"24.645000000000003","city":"Fukaya","latitude":"36.17N","longitude":"139.23E"}
{"date":"2012-07-01","average_temperature":"18.984","city":"Fullerton","latitude":"32.95N","longitude":"117.77W"}
{"date":"2012-10-01","average_temperature":"26.046999999999997","city":"Funtua","latitude":"12.05N","longitude":"6.58E"}
{"date":"2011-12-01","average_temperature":"14.091","city":"Gómez Palacio","latitude":"24.92N","longitude":"102.86W"}
{"date":"2013-09-01","city":"Göttingen","latitude":"52.24N","longitude":"10.51E"}
{"date":"2013-04-01","average_temperature":"18.619","city":"Gaborone","latitude":"24.92S","longitude":"26.60E"}
{"date":"2010-10-01","average_temperature":"25.154","city":"Gadag","latitude":"15.27N","longitude":"75.83E"}
{"date":"2013-07-01","average_temperature":"24.447","city":"Gadag","latitude":"15.27N","longitude":"75.83E"}
{"date":"2011-04-01","average_temperature":"30.669","city":"Gandhidham","latitude":"23.31N","longitude":"70.78E"}
{"date":"2012-05-01","average_temperature":"33.275999999999996","city":"Gandhinagar","latitude":"23.31N","longitude":"72.52E"}
{"date":"2012-02-01","average_temperature":"14.992","city":"Ganganagar","latitude":"29.74N","longitude":"73.85E"}
{"date":"2012-01-01","average_temperature":"4.606","city":"Ganzhou","latitude":"26.52N","longitude":"114.63E"}
{"date":"2012-02-01","average_temperature":"25.149","city":"Garanhuns","latitude":"8.84S","longitude":"36.49W"}
{"date":"2010-02-01","average_temperature":"20.341","city":"Gaya","latitude":"24.92N","longitude":"85.12E"}
{"date":"2011-03-01","average_temperature":"9.349","city":"Genoa","latitude":"44.20N","longitude":"8.94E"}
{"date":"2013-03-01","average_temperature":"24.025","city":"Ghaziabad","latitude":"28.13N","longitude":"77.27E"}
{"date":"2012-01-01","average_temperature":"17.495","city":"Godhra","latitude":"23.31N","longitude":"74.27E"}
{"date":"2012-04-01","average_temperature":"30.204","city":"Gonda","latitude":"26.52N","longitude":"82.39E"}
{"date":"2012-11-01","average_temperature":"5.6610000000000005","city":"Grenoble","latitude":"45.81N","longitude":"5.77E"}
{"date":"2012-04-01","average_temperature":"6.736000000000001","city":"Groningen","latitude":"53.84N","longitude":"6.82E"}
{"date":"2011-09-01","average_temperature":"28.726999999999997","city":"Guadalupe","latitude":"26.52N","longitude":"100.30W"}
{"date":"2011-01-01","average_temperature":"24.914","city":"Guaratinguetá","latitude":"23.31S","longitude":"44.56W"}
{"date":"2012-11-01","average_temperature":"22.105999999999998","city":"Guaratinguetá","latitude":"23.31S","longitude":"44.56W"}
{"date":"2012-08-01","average_temperature":"25.409000000000002","city":"Gusau","latitude":"12.05N","longitude":"6.58E"}
{"date":"2012-03-01","average_temperature":"21.335","city":"Guwahati","latitude":"26.52N","longitude":"91.34E"}
{"date":"2012-10-01","average_temperature":"22.092","city":"Gweru","latitude":"20.09S","longitude":"29.00E"}
{"date":"2010-09-01","average_temperature":"19.488","city":"Gyumri","latitude":"40.99N","longitude":"44.73E"}
{"date":"2010-10-01","average_temperature":"10.279000000000002","city":"Haarlemmermeer","latitude":"52.24N","longitude":"5.26E"}
{"date":"2012-06-01","average_temperature":"14.702","city":"Haarlemmermeer","latitude":"52.24N","longitude":"5.26E"}
{"date":"2012-11-01","average_temperature":"27.103","city":"Hadejia","latitude":"12.05N","longitude":"9.86E"}
{"date":"2010-03-01","average_temperature":"18.679000000000002","city":"Haicheng","latitude":"23.31N","longitude":"114.47E"}
{"date":"2010-04-01","average_temperature":"18.78","city":"Haifa","latitude":"32.95N","longitude":"35.43E"}
{"date":"2013-09-01","city":"Hajipur","latitude":"24.92N","longitude":"85.12E"}
{"date":"2011-06-01","average_temperature":"29.523000000000003","city":"Haldia","latitude":"21.70N","longitude":"87.40E"}
{"date":"2012-10-01","average_temperature":"19.625","city":"Hamamatsu","latitude":"34.56N","longitude":"138.16E"}
{"date":"2011-10-01","average_temperature":"10.907","city":"Hamilton","latitude":"42.59N","longitude":"80.73W"}
{"date":"2012-03-01","average_temperature":"22.201","city":"Hanumangarh","latitude":"29.74N","longitude":"73.85E"}
{"date":"2011-09-01","average_temperature":"18.465","city":"Hanzhong","latitude":"32.95N","longitude":"106.28E"}
{"date":"2013-01-01","average_temperature":"16.692","city":"Hazaribag","latitude":"23.31N","longitude":"84.76E"}
{"date":"2011-08-01","average_temperature":"21.697","city":"Hengshan","latitude":"45.81N","longitude":"130.38E"}
{"date":"2013-04-01","average_temperature":"13.735","city":"Hengshui","latitude":"37.78N","longitude":"115.93E"}
{"date":"2011-06-01","average_temperature":"27.361","city":"Heze","latitude":"34.56N","longitude":"114.81E"}
{"date":"2011-09-01","average_temperature":"27.811","city":"Higüey","latitude":"18.48N","longitude":"69.30W"}
{"date":"2011-05-01","average_temperature":"18.11","city":"Hirakata","latitude":"34.56N","longitude":"136.22E"}
{"date":"2010-10-01","average_temperature":"24.575","city":"Hollywood","latitude":"26.52N","longitude":"80.60W"}
{"date":"2011-11-01","average_temperature":"20.607","city":"Hong Gai","latitude":"21.70N","longitude":"106.44E"}
{"date":"2012-02-01","average_temperature":"-13.779000000000002","city":"Honggang","latitude":"45.81N","longitude":"125.77E"}
{"date":"2012-04-01","average_temperature":"7.566","city":"Honggang","latitude":"45.81N","longitude":"125.77E"}
{"date":"2013-01-01","average_temperature":"12.116","city":"Hoshiarpur","latitude":"31.35N","longitude":"75.39E"}
{"date":"2013-09-01","city":"Hosur","latitude":"12.05N","longitude":"77.26E"}
{"date":"2011-02-01","average_temperature":"0.47","city":"Houma","latitude":"36.17N","longitude":"111.38E"}
{"date":"2012-12-01","average_temperature":"-3.71","city":"Houma","latitude":"36.17N","longitude":"111.38E"}
{"date":"2012-07-01","average_temperature":"19.71","city":"Hrodna","latitude":"53.84N","longitude":"23.18E"}
{"date":"2013-02-01","average_temperature":"18.868","city":"Hsintien","latitude":"24.92N","longitude":"122.36E"}
{"date":"2012-04-01","average_temperature":"10.634","city":"Huánuco","latitude":"10.45S","longitude":"76.09W"}
{"date":"2011-10-01","average_temperature":"15.99","city":"Huaibei","latitude":"34.56N","longitude":"116.76E"}
{"date":"2013-08-01","average_temperature":"30.322000000000006","city":"Huainan","latitude":"32.95N","longitude":"117.77E"}
{"date":"2010-07-01","average_temperature":"28.997","city":"Humen","latitude":"23.31N","longitude":"114.47E"}
{"date":"2011-12-01","average_temperature":"23.613000000000003","city":"Hyderabad","latitude":"16.87N","longitude":"78.70E"}
{"date":"2012-10-01","average_temperature":"26.206999999999997","city":"Ibadan","latitude":"7.23N","longitude":"4.05E"}
{"date":"2011-04-01","average_temperature":"17.279","city":"Ibarra","latitude":"0.80N","longitude":"77.95W"}
{"date":"2013-04-01","average_temperature":"10.906","city":"Ica","latitude":"13.66S","longitude":"75.14W"}
{"date":"2012-11-01","average_temperature":"14.950999999999999","city":"Ichihara","latitude":"34.56N","longitude":"140.11E"}
{"date":"2011-11-01","average_temperature":"13.571","city":"Ichinomiya","latitude":"34.56N","longitude":"136.22E"}
{"date":"2013-04-01","average_temperature":"18.278","city":"Idlib","latitude":"36.17N","longitude":"35.80E"}
{"date":"2010-04-01","average_temperature":"29.387","city":"Ife","latitude":"7.23N","longitude":"4.05E"}
{"date":"2011-10-01","average_temperature":"25.976000000000006","city":"Ife","latitude":"7.23N","longitude":"4.05E"}
{"date":"2011-12-01","average_temperature":"2.087","city":"Iida","latitude":"36.17N","longitude":"137.24E"}
{"date":"2012-05-01","average_temperature":"26.744","city":"Ikare","latitude":"7.23N","longitude":"5.68E"}
{"date":"2010-05-01","average_temperature":"24.267","city":"Imphal","latitude":"24.92N","longitude":"93.99E"}
{"date":"2012-11-01","average_temperature":"22.991","city":"Indaiatuba","latitude":"23.31S","longitude":"48.06W"}
{"date":"2012-08-01","average_temperature":"25.105999999999998","city":"Independence","latitude":"39.38N","longitude":"93.64W"}
{"date":"2011-10-01","average_temperature":"21.228","city":"Ipatinga","latitude":"20.09S","longitude":"42.65W"}
{"date":"2011-03-01","average_temperature":"25.999000000000002","city":"Iquitos","latitude":"4.02S","longitude":"73.13W"}
{"date":"2010-10-01","average_temperature":"19.398","city":"Itapecerica Da Serra","latitude":"23.31S","longitude":"46.31W"}
{"date":"2012-03-01","average_temperature":"26.072","city":"Itarsi","latitude":"23.31N","longitude":"77.77E"}
{"date":"2013-05-01","average_temperature":"18.933","city":"Itu","latitude":"23.31S","longitude":"48.06W"}
{"date":"2011-12-01","average_temperature":"13.267000000000001","city":"Ixtapaluca","latitude":"20.09N","longitude":"98.96W"}
{"date":"2011-05-01","average_temperature":"12.2","city":"Izhevsk","latitude":"57.05N","longitude":"54.59E"}
{"date":"2013-07-01","average_temperature":"26.915000000000006","city":"Izumi","latitude":"34.56N","longitude":"136.22E"}
{"date":"2012-05-01","average_temperature":"26.406","city":"Jaboatão","latitude":"8.84S","longitude":"34.86W"}
{"date":"2012-10-01","average_temperature":"27.724","city":"Jaffna","latitude":"8.84N","longitude":"80.27E"}
{"date":"2012-10-01","average_temperature":"24.041999999999998","city":"Jagadhri","latitude":"29.74N","longitude":"77.54E"}
{"date":"2012-12-01","average_temperature":"26.623","city":"Jambi","latitude":"0.80S","longitude":"103.66E"}
{"date":"2010-11-01","average_temperature":"23.98","city":"Jamshedpur","latitude":"23.31N","longitude":"86.50E"}
{"date":"2010-05-01","average_temperature":"31.695","city":"Jamuria","latitude":"23.31N","longitude":"86.50E"}
{"date":"2013-09-01","city":"Jequié","latitude":"13.66S","longitude":"40.46W"}
{"date":"2010-11-01","average_temperature":"22.441999999999997","city":"Jhansi","latitude":"24.92N","longitude":"78.03E"}
{"date":"2010-03-01","average_temperature":"23.112","city":"Jhelum","latitude":"32.95N","longitude":"73.72E"}
{"date":"2012-11-01","average_temperature":"28.673","city":"Jiddah","latitude":"21.70N","longitude":"38.94E"}
{"date":"2010-07-01","average_temperature":"29.243000000000002","city":"Jieshi","latitude":"23.31N","longitude":"116.21E"}
{"date":"2013-02-01","average_temperature":"16.977","city":"Jieshi","latitude":"23.31N","longitude":"116.21E"}
{"date":"2010-06-01","average_temperature":"22.376","city":"Jilin","latitude":"44.20N","longitude":"127.45E"}
{"date":"2012-03-01","average_temperature":"-5.129","city":"Jilin","latitude":"44.20N","longitude":"127.45E"}
{"date":"2011-06-01","average_temperature":"21.613000000000003","city":"Jinxi","latitude":"40.99N","longitude":"121.42E"}
{"date":"2010-07-01","average_temperature":"25.106","city":"Jinzhou","latitude":"40.99N","longitude":"121.42E"}
{"date":"2011-09-01","average_temperature":"15.378","city":"Jiutai","latitude":"44.20N","longitude":"125.22E"}
{"date":"2010-04-01","average_temperature":"15.794","city":"Johannesburg","latitude":"26.52S","longitude":"28.66E"}
{"date":"2010-08-01","average_temperature":"24.592","city":"Joliet","latitude":"40.99N","longitude":"87.34W"}
{"date":"2010-09-01","average_temperature":"19.8","city":"Kütahya","latitude":"39.38N","longitude":"29.13E"}
{"date":"2010-06-01","average_temperature":"34.624","city":"Kaithal","latitude":"29.74N","longitude":"75.69E"}
{"date":"2012-11-01","average_temperature":"7.513","city":"Kakamigahara","latitude":"36.17N","longitude":"137.24E"}
{"date":"2012-07-01","average_temperature":"20.542","city":"Kaluga","latitude":"53.84N","longitude":"36.82E"}
{"date":"2012-02-01","average_temperature":"29.363000000000003","city":"Kandi","latitude":"10.45N","longitude":"2.45E"}
{"date":"2010-05-01","average_temperature":"32.085","city":"Kano","latitude":"12.05N","longitude":"8.22E"}
{"date":"2010-10-01","average_temperature":"27.86","city":"Kano","latitude":"12.05N","longitude":"8.22E"}
{"date":"2013-09-01","city":"Karimnagar","latitude":"18.48N","longitude":"79.44E"}
{"date":"2012-04-01","average_temperature":"16.23","city":"Kashan","latitude":"34.56N","longitude":"50.59E"}
{"date":"2010-01-01","average_temperature":"-3.5540000000000003","city":"Kassel","latitude":"50.63N","longitude":"8.87E"}
{"date":"2012-06-01","average_temperature":"15.261","city":"Kassel","latitude":"50.63N","longitude":"8.87E"}
{"date":"2012-12-01","average_temperature":"1.839","city":"Kassel","latitude":"50.63N","longitude":"8.87E"}
{"date":"2013-05-01","average_temperature":"27.631","city":"Kediri","latitude":"7.23S","longitude":"112.70E"}
{"date":"2012-12-01","average_temperature":"26.736","city":"Kedungwuni","latitude":"7.23S","longitude":"109.46E"}
{"date":"2012-01-01","average_temperature":"26.266","city":"Kemang","latitude":"7.23S","longitude":"106.22E"}
{"date":"2012-04-01","average_temperature":"5.456","city":"Kemerovo","latitude":"55.45N","longitude":"85.04E"}
{"date":"2010-03-01","average_temperature":"4.055","city":"Kerch","latitude":"45.81N","longitude":"35.77E"}
{"date":"2010-03-01","average_temperature":"29.965000000000003","city":"Khammam","latitude":"16.87N","longitude":"80.37E"}
{"date":"2010-02-01","average_temperature":"24.47","city":"Kharagpur","latitude":"21.70N","longitude":"87.40E"}
{"date":"2010-01-01","average_temperature":"26.615","city":"Khlong Luang","latitude":"13.66N","longitude":"99.91E"}
{"date":"2010-07-01","average_temperature":"28.269","city":"Khon Kaen","latitude":"16.87N","longitude":"102.14E"}
{"date":"2013-08-01","average_temperature":"29.641","city":"Khorramabad","latitude":"32.95N","longitude":"48.83E"}
{"date":"2011-01-01","average_temperature":"-2.725","city":"Khujand","latitude":"40.99N","longitude":"70.30E"}
{"date":"2010-07-01","average_temperature":"32.266999999999996","city":"Khushab","latitude":"32.95N","longitude":"71.81E"}
{"date":"2010-08-01","average_temperature":"28.202","city":"Khuzdar","latitude":"28.13N","longitude":"66.36E"}
{"date":"2011-03-01","average_temperature":"17.712","city":"Khuzdar","latitude":"28.13N","longitude":"66.36E"}
{"date":"2013-05-01","average_temperature":"21.566000000000006","city":"Kigoma","latitude":"4.02S","longitude":"29.73E"}
{"date":"2012-10-01","average_temperature":"19.735","city":"Kimberley","latitude":"28.13S","longitude":"24.55E"}
{"date":"2010-01-01","average_temperature":"-6.127999999999999","city":"Kingston","latitude":"44.20N","longitude":"76.02W"}
{"date":"2012-12-01","average_temperature":"24.471","city":"Kinshasa","latitude":"4.02S","longitude":"15.27E"}
{"date":"2013-02-01","average_temperature":"25.605","city":"Kinshasa","latitude":"4.02S","longitude":"15.27E"}
{"date":"2010-03-01","average_temperature":"11.312000000000001","city":"Kisarazu","latitude":"34.56N","longitude":"140.11E"}
{"date":"2013-03-01","average_temperature":"28.334","city":"Klang","latitude":"2.41N","longitude":"102.05E"}
{"date":"2013-06-01","average_temperature":"22.48","city":"Knoxville","latitude":"36.17N","longitude":"83.54W"}
{"date":"2011-12-01","average_temperature":"6.399","city":"Kobe","latitude":"34.56N","longitude":"134.27E"}
{"date":"2013-01-01","average_temperature":"0.904","city":"Koblenz","latitude":"50.63N","longitude":"6.34E"}
{"date":"2013-05-01","average_temperature":"31.998","city":"Kolar","latitude":"13.66N","longitude":"78.44E"}
{"date":"2012-04-01","average_temperature":"10.874","city":"Komatsu","latitude":"36.17N","longitude":"137.24E"}
{"date":"2013-08-01","average_temperature":"17.354000000000006","city":"Komsomolsk Na Amure","latitude":"50.63N","longitude":"138.17E"}
{"date":"2010-12-01","average_temperature":"3.698","city":"Konan","latitude":"36.17N","longitude":"137.24E"}
{"date":"2011-02-01","average_temperature":"0.16900000000000004","city":"Korla","latitude":"40.99N","longitude":"85.21E"}
{"date":"2011-10-01","average_temperature":"12.710999999999999","city":"Korla","latitude":"40.99N","longitude":"85.21E"}
{"date":"2011-11-01","average_temperature":"-1.7120000000000002","city":"Kostroma","latitude":"57.05N","longitude":"39.84E"}
{"date":"2012-11-01","average_temperature":"5.497000000000001","city":"Koszalin","latitude":"53.84N","longitude":"15.00E"}
{"date":"2012-07-01","average_temperature":"27.253","city":"Kotte","latitude":"7.23N","longitude":"80.27E"}
{"date":"2012-10-01","average_temperature":"12.495999999999999","city":"Kragujevac","latitude":"44.20N","longitude":"20.12E"}
{"date":"2013-01-01","average_temperature":"0.904","city":"Krefeld","latitude":"50.63N","longitude":"6.34E"}
{"date":"2013-01-01","average_temperature":"13.077","city":"López Mateos","latitude":"20.09N","longitude":"98.96W"}
{"date":"2012-12-01","average_temperature":"21.811999999999998","city":"La Paz","latitude":"24.92N","longitude":"109.95W"}
{"date":"2010-06-01","average_temperature":"14.76","city":"La Serena","latitude":"29.74S","longitude":"72.00W"}
{"date":"2013-07-01","average_temperature":"26.405","city":"La Vega","latitude":"18.48N","longitude":"70.99W"}
{"date":"2011-05-01","average_temperature":"24.124000000000002","city":"Lafayette","latitude":"29.74N","longitude":"92.31W"}
{"date":"2011-02-01","average_temperature":"30.488000000000003","city":"Lafiagi","latitude":"8.84N","longitude":"5.68E"}
{"date":"2010-10-01","average_temperature":"17.575999999999997","city":"Lages","latitude":"28.13S","longitude":"50.00W"}
{"date":"2010-07-01","average_temperature":"29.537000000000006","city":"Lalitpur","latitude":"24.92N","longitude":"78.03E"}
{"date":"2010-07-01","average_temperature":"20.564","city":"Lanzhou","latitude":"36.17N","longitude":"103.43E"}
{"date":"2010-11-01","average_temperature":"27.621","city":"Lapu Lapu","latitude":"10.45N","longitude":"123.55E"}
{"date":"2012-12-01","average_temperature":"-9.11","city":"Lasa","latitude":"29.74N","longitude":"90.46E"}
{"date":"2010-03-01","average_temperature":"11.726","city":"Latina","latitude":"40.99N","longitude":"12.78E"}
{"date":"2010-12-01","average_temperature":"0.8919999999999995","city":"Le Havre","latitude":"49.03N","longitude":"0.00W"}
{"date":"2012-04-01","average_temperature":"6.742000000000001","city":"Leeds","latitude":"53.84N","longitude":"1.36W"}
{"date":"2012-05-01","average_temperature":"11.17","city":"Leeds","latitude":"53.84N","longitude":"1.36W"}
{"date":"2013-07-01","average_temperature":"23.605","city":"Leganés","latitude":"40.99N","longitude":"4.26W"}
{"date":"2011-01-01","average_temperature":"25.461","city":"Legaspi","latitude":"13.66N","longitude":"123.03E"}
{"date":"2011-07-01","average_temperature":"22.06","city":"Leghorn","latitude":"44.20N","longitude":"11.18E"}
{"date":"2012-05-01","average_temperature":"14.169","city":"Leiden","latitude":"52.24N","longitude":"5.26E"}
{"date":"2012-07-01","average_temperature":"29.103","city":"Lemesos","latitude":"34.56N","longitude":"33.08E"}
{"date":"2012-12-01","average_temperature":"5.617000000000001","city":"Lengshuijiang","latitude":"28.13N","longitude":"111.82E"}
{"date":"2010-02-01","average_temperature":"1.158","city":"Liège","latitude":"50.63N","longitude":"6.34E"}
{"date":"2010-09-01","average_temperature":"13.204","city":"Liège","latitude":"50.63N","longitude":"6.34E"}
{"date":"2010-07-01","average_temperature":"20.248","city":"Lille","latitude":"50.63N","longitude":"3.80E"}
{"date":"2010-09-01","average_temperature":"22.42","city":"Lilongwe","latitude":"13.66S","longitude":"33.85E"}
{"date":"2011-09-01","average_temperature":"15.659","city":"Linshui","latitude":"36.17N","longitude":"113.37E"}
{"date":"2010-08-01","average_temperature":"28.238000000000003","city":"Liuzhou","latitude":"24.92N","longitude":"109.95E"}
{"date":"2010-02-01","average_temperature":"14.511","city":"Longyan","latitude":"24.92N","longitude":"117.04E"}
{"date":"2012-02-01","average_temperature":"12.318","city":"Longyan","latitude":"24.92N","longitude":"117.04E"}
{"date":"2012-07-01","average_temperature":"32.448","city":"Loni","latitude":"28.13N","longitude":"77.27E"}
{"date":"2013-03-01","average_temperature":"28.980999999999998","city":"Louga","latitude":"15.27N","longitude":"15.83W"}
{"date":"2012-02-01","average_temperature":"16.249000000000002","city":"Lower Hutt","latitude":"40.99S","longitude":"174.67E"}
{"date":"2012-03-01","average_temperature":"9.617","city":"Luan","latitude":"31.35N","longitude":"116.86E"}
{"date":"2012-11-01","average_temperature":"9.879","city":"Luan","latitude":"31.35N","longitude":"116.86E"}
{"date":"2011-01-01","average_temperature":"-1.5659999999999994","city":"Lublin","latitude":"50.63N","longitude":"21.55E"}
{"date":"2011-09-01","average_temperature":"19.894000000000002","city":"Luohe","latitude":"32.95N","longitude":"113.94E"}
{"date":"2012-08-01","average_temperature":"28.531","city":"Luoyang","latitude":"23.31N","longitude":"114.47E"}
{"date":"2010-05-01","average_temperature":"16.284000000000002","city":"Lyubertsy","latitude":"55.45N","longitude":"36.85E"}
{"date":"2010-12-01","average_temperature":"14.678","city":"Málaga","latitude":"36.17N","longitude":"3.98W"}
{"date":"2013-09-01","city":"Mülheim","latitude":"50.63N","longitude":"6.34E"}
{"date":"2013-05-01","average_temperature":"31.998","city":"Madanapalle","latitude":"13.66N","longitude":"78.44E"}
{"date":"2010-06-01","average_temperature":"27.084","city":"Madiun","latitude":"7.23S","longitude":"111.08E"}
{"date":"2010-01-01","average_temperature":"24.263","city":"Madurai","latitude":"10.45N","longitude":"77.73E"}
{"date":"2011-02-01","average_temperature":"28.614","city":"Maiduguri","latitude":"12.05N","longitude":"13.15E"}
{"date":"2013-02-01","average_temperature":"25.502","city":"Majalaya","latitude":"7.23S","longitude":"107.84E"}
{"date":"2010-10-01","average_temperature":"26.683000000000003","city":"Malambo","latitude":"10.45N","longitude":"74.45W"}
{"date":"2012-07-01","average_temperature":"26.561999999999998","city":"Malang","latitude":"7.23S","longitude":"112.70E"}
{"date":"2012-11-01","average_temperature":"22.679","city":"Malegaon","latitude":"20.09N","longitude":"75.07E"}
{"date":"2010-12-01","average_temperature":"21.555999999999997","city":"Mandalay","latitude":"21.70N","longitude":"96.06E"}
{"date":"2012-06-01","average_temperature":"29.982","city":"Mandalay","latitude":"21.70N","longitude":"96.06E"}
{"date":"2012-11-01","average_temperature":"26.263","city":"Mandalay","latitude":"21.70N","longitude":"96.06E"}
{"date":"2010-01-01","average_temperature":"25.234","city":"Mangaluru","latitude":"13.66N","longitude":"75.14E"}
{"date":"2013-06-01","average_temperature":"24.054000000000002","city":"Manta","latitude":"0.80S","longitude":"81.16W"}
{"date":"2010-08-01","average_temperature":"28.93","city":"Manzanillo","latitude":"20.09N","longitude":"76.78W"}
{"date":"2011-06-01","average_temperature":"28.934","city":"Manzanillo","latitude":"18.48N","longitude":"104.79W"}
{"date":"2011-08-01","average_temperature":"29.398000000000003","city":"Manzanillo","latitude":"18.48N","longitude":"104.79W"}
{"date":"2010-05-01","average_temperature":"29.346999999999998","city":"Maracaibo","latitude":"10.45N","longitude":"71.18W"}
{"date":"2013-07-01","average_temperature":"23.537","city":"Maragheh","latitude":"37.78N","longitude":"46.78E"}
{"date":"2010-06-01","average_temperature":"27.688000000000002","city":"Marawi","latitude":"7.23N","longitude":"124.05E"}
{"date":"2012-10-01","average_temperature":"19.792","city":"Mardan","latitude":"34.56N","longitude":"72.00E"}
{"date":"2010-04-01","average_temperature":"27.802","city":"Martapura","latitude":"4.02S","longitude":"114.91E"}
{"date":"2012-07-01","average_temperature":"29.493000000000002","city":"Marv Dasht","latitude":"29.74N","longitude":"53.54E"}
{"date":"2012-11-01","average_temperature":"18.685","city":"Maseru","latitude":"29.74S","longitude":"27.69E"}
{"date":"2013-01-01","average_temperature":"21.046999999999997","city":"Maseru","latitude":"29.74S","longitude":"27.69E"}
{"date":"2012-07-01","average_temperature":"22.147","city":"Matadi","latitude":"5.63S","longitude":"12.91E"}
{"date":"2013-08-01","average_temperature":"19.783","city":"Matola","latitude":"26.52S","longitude":"32.24E"}
{"date":"2012-05-01","average_temperature":"18.069000000000003","city":"Matsusaka","latitude":"34.56N","longitude":"136.22E"}
{"date":"2010-12-01","average_temperature":"26.116999999999997","city":"Mawlamyine","latitude":"16.87N","longitude":"97.12E"}
{"date":"2011-05-01","average_temperature":"25.066","city":"Maxixe","latitude":"23.31S","longitude":"35.83E"}
{"date":"2011-08-01","average_temperature":"21.614","city":"Maxixe","latitude":"23.31S","longitude":"35.83E"}
{"date":"2013-06-01","average_temperature":"30.229","city":"Maymyo","latitude":"21.70N","longitude":"96.06E"}
{"date":"2012-03-01","average_temperature":"23.694000000000003","city":"Mbour","latitude":"13.66N","longitude":"17.34W"}
{"date":"2011-07-01","average_temperature":"24.555999999999997","city":"Mbuji Mayi","latitude":"5.63S","longitude":"24.22E"}
{"date":"2012-09-01","average_temperature":"20.279","city":"Medellín","latitude":"5.63N","longitude":"75.87W"}
{"date":"2010-01-01","average_temperature":"24.901","city":"Mejicanos","latitude":"13.66N","longitude":"90.00W"}
{"date":"2010-08-01","average_temperature":"12.175","city":"Mercedes","latitude":"32.95S","longitude":"66.06W"}
{"date":"2013-04-01","average_temperature":"19.467","city":"Mexicali","latitude":"32.95N","longitude":"115.85W"}
{"date":"2010-07-01","average_temperature":"15.316","city":"Mezhdurechensk","latitude":"53.84N","longitude":"88.64E"}
{"date":"2013-03-01","average_temperature":"2.478","city":"Middlesbrough","latitude":"53.84N","longitude":"1.36W"}
{"date":"2010-07-01","average_temperature":"21.267","city":"Milagro","latitude":"2.41S","longitude":"79.55W"}
{"date":"2013-07-01","average_temperature":"18.735","city":"Milan","latitude":"45.81N","longitude":"8.08E"}
{"date":"2013-04-01","average_temperature":"18.961","city":"Mingaora","latitude":"34.56N","longitude":"72.00E"}
{"date":"2012-12-01","average_temperature":"20.110000000000007","city":"Mirpur Khas","latitude":"24.92N","longitude":"69.16E"}
{"date":"2010-02-01","average_temperature":"8.485","city":"Mishima","latitude":"34.56N","longitude":"138.16E"}
{"date":"2013-02-01","average_temperature":"7.0120000000000005","city":"Mishima","latitude":"34.56N","longitude":"138.16E"}
{"date":"2010-07-01","average_temperature":"29.045","city":"Mobile","latitude":"31.35N","longitude":"88.59W"}
{"date":"2011-10-01","average_temperature":"13.239","city":"Modena","latitude":"44.20N","longitude":"11.18E"}
{"date":"2011-09-01","average_temperature":"16.04","city":"Moers","latitude":"50.63N","longitude":"6.34E"}
{"date":"2012-11-01","average_temperature":"27.741","city":"Mokolo","latitude":"10.45N","longitude":"13.91E"}
{"date":"2013-06-01","average_temperature":"26.061999999999998","city":"Monrovia","latitude":"7.23N","longitude":"10.54W"}
{"date":"2012-06-01","average_temperature":"27.799","city":"Montalban","latitude":"15.27N","longitude":"120.83E"}
{"date":"2011-10-01","average_temperature":"32.265","city":"Mopti","latitude":"15.27N","longitude":"4.17W"}
{"date":"2010-05-01","average_temperature":"27.769000000000002","city":"Moratuwa","latitude":"7.23N","longitude":"80.27E"}
{"date":"2011-04-01","average_temperature":"21.086","city":"Morelia","latitude":"20.09N","longitude":"100.66W"}
{"date":"2013-09-01","average_temperature":"19.715999999999998","city":"Morelia","latitude":"20.09N","longitude":"100.66W"}
{"date":"2010-07-01","average_temperature":"30.293000000000006","city":"Motihari","latitude":"26.52N","longitude":"84.18E"}
{"date":"2010-05-01","average_temperature":"30.136","city":"Moundou","latitude":"8.84N","longitude":"15.41E"}
{"date":"2012-04-01","average_temperature":"33.723","city":"Mubi","latitude":"10.45N","longitude":"13.91E"}
{"date":"2010-06-01","average_temperature":"35.163000000000004","city":"Multan","latitude":"29.74N","longitude":"72.00E"}
{"date":"2012-10-01","average_temperature":"26.668000000000003","city":"Muzaffargarh","latitude":"29.74N","longitude":"72.00E"}
{"date":"2011-06-01","average_temperature":"28.5","city":"My Tho","latitude":"10.45N","longitude":"105.55E"}
{"date":"2011-04-01","average_temperature":"30.029","city":"Myingyan","latitude":"21.70N","longitude":"96.06E"}
{"date":"2011-08-01","average_temperature":"28.029","city":"Myingyan","latitude":"21.70N","longitude":"96.06E"}
{"date":"2012-07-01","average_temperature":"24.526","city":"Nagaoka","latitude":"37.78N","longitude":"138.31E"}
{"date":"2012-05-01","average_temperature":"16.669999999999998","city":"Nagareyama","latitude":"36.17N","longitude":"139.23E"}
{"date":"2012-08-01","average_temperature":"26.680999999999997","city":"Nagareyama","latitude":"36.17N","longitude":"139.23E"}
{"date":"2010-12-01","average_temperature":"17.836000000000006","city":"Nagda","latitude":"23.31N","longitude":"76.02E"}
{"date":"2012-07-01","average_temperature":"27.588","city":"Nagda","latitude":"23.31N","longitude":"76.02E"}
{"date":"2012-07-01","average_temperature":"29.68","city":"Naihati","latitude":"23.31N","longitude":"88.25E"}
{"date":"2011-08-01","average_temperature":"15.34","city":"Nairobi","latitude":"0.80S","longitude":"36.16E"}
{"date":"2010-05-01","average_temperature":"31.034","city":"Nakhon Ratchasima","latitude":"15.27N","longitude":"102.50E"}
{"date":"2011-03-01","average_temperature":"26.142","city":"Nakhon Ratchasima","latitude":"15.27N","longitude":"102.50E"}
{"date":"2012-05-01","average_temperature":"34.331","city":"Nalgonda","latitude":"16.87N","longitude":"78.70E"}
{"date":"2012-02-01","average_temperature":"22.7","city":"Nandurbar","latitude":"21.70N","longitude":"73.56E"}
{"date":"2011-10-01","average_temperature":"17.563","city":"Nanjing","latitude":"31.35N","longitude":"118.74E"}
{"date":"2011-03-01","average_temperature":"27.394","city":"Navadwip","latitude":"23.31N","longitude":"88.25E"}
{"date":"2011-04-01","average_temperature":"29.454","city":"Navsari","latitude":"20.09N","longitude":"73.36E"}
{"date":"2012-11-01","average_temperature":"13.225","city":"Nazilli","latitude":"37.78N","longitude":"28.47E"}
{"date":"2012-04-01","average_temperature":"19.827","city":"Ndola","latitude":"13.66S","longitude":"28.90E"}
{"date":"2013-04-01","average_temperature":"1.585","city":"Nehe","latitude":"49.03N","longitude":"124.90E"}
{"date":"2013-03-01","average_temperature":"21.533","city":"Newcastle","latitude":"32.95S","longitude":"152.23E"}
{"date":"2010-07-01","average_temperature":"17.072","city":"Newport","latitude":"52.24N","longitude":"2.63W"}
{"date":"2013-02-01","average_temperature":"4.9110000000000005","city":"Neyagawa","latitude":"34.56N","longitude":"136.22E"}
{"date":"2012-11-01","average_temperature":"14.009","city":"Nicolás Romero","latitude":"20.09N","longitude":"98.96W"}
{"date":"2010-06-01","average_temperature":"9.0","city":"Nigel","latitude":"26.52S","longitude":"28.66E"}
{"date":"2012-10-01","average_temperature":"17.831","city":"Nishio","latitude":"34.56N","longitude":"136.22E"}
{"date":"2012-03-01","average_temperature":"26.717","city":"Niterói","latitude":"23.31S","longitude":"42.82W"}
{"date":"2013-02-01","average_temperature":"8.52","city":"Nogales","latitude":"31.35N","longitude":"111.20W"}
{"date":"2013-02-01","average_temperature":"7.297000000000001","city":"Norfolk","latitude":"36.17N","longitude":"75.58W"}
{"date":"2011-04-01","average_temperature":"26.822","city":"Nossa Senhora Do Socorro","latitude":"10.45S","longitude":"36.82W"}
{"date":"2012-12-01","average_temperature":"21.542","city":"Nouakchott","latitude":"18.48N","longitude":"15.21W"}
{"date":"2012-08-01","average_temperature":"24.639","city":"Novocherkassk","latitude":"47.42N","longitude":"39.08E"}
{"date":"2010-01-01","average_temperature":"-27.365","city":"Novosibirsk","latitude":"55.45N","longitude":"82.20E"}
{"date":"2010-12-01","average_temperature":"10.287","city":"Oakland","latitude":"37.78N","longitude":"122.03W"}
{"date":"2011-10-01","average_temperature":"10.602","city":"Oberhausen","latitude":"50.63N","longitude":"6.34E"}
{"date":"2013-01-01","average_temperature":"-5.941","city":"Obihiro","latitude":"42.59N","longitude":"144.00E"}
{"date":"2010-02-01","average_temperature":"29.638","city":"Obosi","latitude":"5.63N","longitude":"6.46E"}
{"date":"2012-12-01","average_temperature":"5.229","city":"Ogaki","latitude":"34.56N","longitude":"136.22E"}
{"date":"2010-07-01","average_temperature":"28.667","city":"Oklahoma City","latitude":"36.17N","longitude":"97.46W"}
{"date":"2011-10-01","average_temperature":"16.907","city":"Oklahoma City","latitude":"36.17N","longitude":"97.46W"}
{"date":"2010-03-01","average_temperature":"5.551","city":"Oldenburg","latitude":"52.24N","longitude":"7.88E"}
{"date":"2013-07-01","average_temperature":"17.749000000000002","city":"Oldham","latitude":"53.84N","longitude":"1.36W"}
{"date":"2011-01-01","average_temperature":"26.783","city":"Olinda","latitude":"7.23S","longitude":"34.86W"}
{"date":"2012-09-01","average_temperature":"18.595","city":"Omaha","latitude":"40.99N","longitude":"95.86W"}
{"date":"2013-03-01","average_temperature":"-5.4190000000000005","city":"Orël","latitude":"52.24N","longitude":"36.79E"}
{"date":"2010-06-01","average_temperature":"35.661","city":"Orai","latitude":"26.52N","longitude":"78.81E"}
{"date":"2012-03-01","average_temperature":"9.951","city":"Orléans","latitude":"47.42N","longitude":"1.18E"}
{"date":"2010-02-01","average_temperature":"-17.680999999999997","city":"Orsk","latitude":"50.63N","longitude":"59.58E"}
{"date":"2010-01-01","average_temperature":"11.96","city":"Oruro","latitude":"18.48S","longitude":"67.61W"}
{"date":"2010-05-01","average_temperature":"14.811","city":"Oshawa","latitude":"44.20N","longitude":"78.26W"}
{"date":"2010-05-01","average_temperature":"7.115","city":"Oslo","latitude":"60.27N","longitude":"9.73E"}
{"date":"2012-06-01","average_temperature":"19.359","city":"Ota","latitude":"36.17N","longitude":"139.23E"}
{"date":"2013-07-01","average_temperature":"26.894","city":"Otukpo","latitude":"7.23N","longitude":"8.92E"}
{"date":"2012-10-01","average_temperature":"3.887","city":"Oulu","latitude":"65.09N","longitude":"24.89E"}
{"date":"2010-01-01","average_temperature":"10.09","city":"Oxnard","latitude":"34.56N","longitude":"118.70W"}
{"date":"2013-05-01","average_temperature":"16.756999999999998","city":"Oyama","latitude":"36.17N","longitude":"139.23E"}
{"date":"2013-03-01","average_temperature":"25.63","city":"Pacet","latitude":"7.23S","longitude":"107.84E"}
{"date":"2011-04-01","average_temperature":"14.067","city":"Padova","latitude":"45.81N","longitude":"12.69E"}
{"date":"2013-06-01","average_temperature":"28.453000000000007","city":"Pakokku","latitude":"21.70N","longitude":"94.33E"}
{"date":"2010-03-01","average_temperature":"29.081","city":"Pali","latitude":"26.52N","longitude":"73.43E"}
{"date":"2011-09-01","average_temperature":"26.996","city":"Palo Negro","latitude":"10.45N","longitude":"67.91W"}
{"date":"2013-06-01","average_temperature":"27.017","city":"Palu","latitude":"0.80S","longitude":"119.73E"}
{"date":"2012-06-01","average_temperature":"36.33900000000001","city":"Palwal","latitude":"28.13N","longitude":"77.27E"}
{"date":"2010-04-01","average_temperature":"28.397","city":"Pamanukan","latitude":"5.63S","longitude":"108.16E"}
{"date":"2011-07-01","average_temperature":"19.47","city":"Pamplona","latitude":"42.59N","longitude":"2.18W"}
{"date":"2011-05-01","average_temperature":"23.767","city":"Panchiao","latitude":"24.92N","longitude":"122.36E"}
{"date":"2013-01-01","average_temperature":"17.757","city":"Panihati","latitude":"23.31N","longitude":"88.25E"}
{"date":"2010-02-01","average_temperature":"25.615","city":"Panvel","latitude":"18.48N","longitude":"72.68E"}
{"date":"2011-03-01","average_temperature":"28.738000000000003","city":"Parbhani","latitude":"20.09N","longitude":"76.78E"}
{"date":"2010-03-01","average_temperature":"28.634","city":"Parnamirim","latitude":"5.63S","longitude":"35.52W"}
{"date":"2010-04-01","average_temperature":"27.653","city":"Parnamirim","latitude":"5.63S","longitude":"35.52W"}
{"date":"2011-02-01","average_temperature":"12.5","city":"Pasadena","latitude":"29.74N","longitude":"96.00W"}
{"date":"2012-07-01","average_temperature":"24.96","city":"Paseh","latitude":"7.23S","longitude":"107.84E"}
{"date":"2012-09-01","average_temperature":"26.205","city":"Pate","latitude":"24.92N","longitude":"120.59E"}
{"date":"2012-06-01","average_temperature":"24.924","city":"Pathankot","latitude":"32.95N","longitude":"75.64E"}
{"date":"2012-03-01","average_temperature":"23.591","city":"Patos De Minas","latitude":"18.48S","longitude":"47.32W"}
{"date":"2011-03-01","average_temperature":"27.648000000000003","city":"Paulista","latitude":"7.23S","longitude":"34.86W"}
{"date":"2013-06-01","average_temperature":"21.906","city":"Pavlohrad","latitude":"49.03N","longitude":"36.73E"}
{"date":"2011-03-01","average_temperature":"26.287000000000006","city":"Pemalang","latitude":"7.23S","longitude":"109.46E"}
{"date":"2013-04-01","average_temperature":"26.576","city":"Pemba","latitude":"13.66S","longitude":"40.46E"}
{"date":"2011-11-01","average_temperature":"25.526","city":"Petare","latitude":"10.45N","longitude":"66.27W"}
{"date":"2013-05-01","average_temperature":"3.15","city":"Petropavlovsk Kamchatskiy","latitude":"53.84N","longitude":"159.55E"}
{"date":"2010-10-01","average_temperature":"26.985","city":"Phra Pradaeng","latitude":"13.66N","longitude":"99.91E"}
{"date":"2010-03-01","average_temperature":"3.466","city":"Piatra Neamt","latitude":"47.42N","longitude":"27.24E"}
{"date":"2012-01-01","average_temperature":"13.685","city":"Piedras Negras","latitude":"28.13N","longitude":"100.91W"}
{"date":"2012-08-01","average_temperature":"21.94","city":"Pittsburgh","latitude":"40.99N","longitude":"80.95W"}
{"date":"2010-09-01","average_temperature":"25.769000000000002","city":"Plây Cu","latitude":"13.66N","longitude":"108.17E"}
{"date":"2012-06-01","average_temperature":"26.845","city":"Plây Cu","latitude":"13.66N","longitude":"108.17E"}
{"date":"2012-04-01","average_temperature":"25.644","city":"Plumbon","latitude":"7.23S","longitude":"107.84E"}
{"date":"2013-03-01","average_temperature":"14.463","city":"Pomona","latitude":"34.56N","longitude":"118.70W"}
{"date":"2013-09-01","city":"Ponnani","latitude":"10.45N","longitude":"76.09E"}
{"date":"2010-07-01","average_temperature":"21.791","city":"Port Louis","latitude":"20.09S","longitude":"58.01E"}
{"date":"2010-10-01","average_temperature":"15.023","city":"Porto","latitude":"40.99N","longitude":"8.52W"}
{"date":"2013-02-01","average_temperature":"23.785","city":"Porto Alegre","latitude":"29.74S","longitude":"51.69W"}
{"date":"2011-04-01","average_temperature":"16.326999999999998","city":"Potchefstroom","latitude":"26.52S","longitude":"26.87E"}
{"date":"2011-06-01","average_temperature":"14.053","city":"Potgietersrus","latitude":"23.31S","longitude":"28.83E"}
{"date":"2010-01-01","average_temperature":"25.534000000000002","city":"Prabumulih","latitude":"4.02S","longitude":"103.66E"}
{"date":"2011-10-01","average_temperature":"13.239","city":"Prato","latitude":"44.20N","longitude":"11.18E"}
{"date":"2013-05-01","average_temperature":"14.957","city":"Prato","latitude":"44.20N","longitude":"11.18E"}
{"date":"2010-06-01","average_temperature":"21.169","city":"Presidente Prudente","latitude":"21.70S","longitude":"51.06W"}
{"date":"2013-07-01","average_temperature":"12.806","city":"Pretoria","latitude":"24.92S","longitude":"28.37E"}
{"date":"2011-06-01","average_temperature":"18.56","city":"Providence","latitude":"42.59N","longitude":"72.00W"}
{"date":"2012-12-01","average_temperature":"0.05399999999999983","city":"Providence","latitude":"42.59N","longitude":"72.00W"}
{"date":"2013-07-01","average_temperature":"25.123","city":"Pucallpa","latitude":"8.84S","longitude":"73.78W"}
{"date":"2012-02-01","average_temperature":"13.126","city":"Puerto Montt","latitude":"40.99S","longitude":"72.43W"}
{"date":"2012-05-01","average_temperature":"17.394000000000002","city":"Pulandian","latitude":"39.38N","longitude":"122.77E"}
{"date":"2012-04-01","average_temperature":"29.704","city":"Pune","latitude":"18.48N","longitude":"74.37E"}
{"date":"2011-07-01","average_temperature":"-0.275","city":"Punta Arenas","latitude":"52.24S","longitude":"70.95W"}
{"date":"2013-05-01","average_temperature":"23.173","city":"Puqi","latitude":"29.74N","longitude":"114.46E"}
{"date":"2010-12-01","average_temperature":"16.669999999999998","city":"Purnia","latitude":"26.52N","longitude":"87.76E"}
{"date":"2012-02-01","average_temperature":"1.155","city":"Puyang","latitude":"36.17N","longitude":"115.36E"}
{"date":"2013-02-01","average_temperature":"2.119","city":"Puyang","latitude":"36.17N","longitude":"115.36E"}
{"date":"2011-03-01","average_temperature":"7.166","city":"Qarchak","latitude":"36.17N","longitude":"51.71E"}
{"date":"2010-02-01","average_temperature":"-16.629","city":"Qianguo","latitude":"45.81N","longitude":"125.77E"}
{"date":"2012-07-01","average_temperature":"28.378","city":"Qinzhou","latitude":"21.70N","longitude":"108.17E"}
{"date":"2010-01-01","average_temperature":"-17.439","city":"Qitaihe","latitude":"45.81N","longitude":"130.38E"}
{"date":"2012-03-01","average_temperature":"14.652999999999999","city":"Quanzhou","latitude":"24.92N","longitude":"118.82E"}
{"date":"2010-03-01","average_temperature":"-2.405","city":"Quebec","latitude":"47.42N","longitude":"72.24W"}
{"date":"2011-12-01","average_temperature":"8.190000000000001","city":"Quetta","latitude":"29.74N","longitude":"66.46E"}
{"date":"2011-11-01","average_temperature":"21.66","city":"Quevedo","latitude":"0.80S","longitude":"79.55W"}
{"date":"2011-11-01","average_temperature":"10.237","city":"Rafsanjan","latitude":"29.74N","longitude":"55.38E"}
{"date":"2012-02-01","average_temperature":"27.062","city":"Raichur","latitude":"16.87N","longitude":"77.02E"}
{"date":"2012-09-01","average_temperature":"29.246","city":"Raiganj","latitude":"24.92N","longitude":"88.67E"}
{"date":"2012-12-01","average_temperature":"19.621","city":"Rajpur","latitude":"23.31N","longitude":"88.25E"}
{"date":"2012-01-01","average_temperature":"16.745","city":"Ranchi","latitude":"23.31N","longitude":"84.76E"}
{"date":"2010-05-01","average_temperature":"14.588","city":"Randfontein","latitude":"26.52S","longitude":"26.87E"}
{"date":"2010-10-01","average_temperature":"26.417","city":"Raurkela","latitude":"21.70N","longitude":"85.67E"}
{"date":"2011-12-01","average_temperature":"3.756","city":"Reutlingen","latitude":"49.03N","longitude":"9.80E"}
{"date":"2013-06-01","average_temperature":"33.066","city":"Rewari","latitude":"28.13N","longitude":"77.27E"}
{"date":"2013-08-01","average_temperature":"9.004","city":"Reykjavík","latitude":"65.09N","longitude":"21.06W"}
{"date":"2011-12-01","average_temperature":"22.054","city":"Ribeirão Das Neves","latitude":"20.09S","longitude":"44.36W"}
{"date":"2012-11-01","average_temperature":"21.811999999999998","city":"Ribeirão Pires","latitude":"23.31S","longitude":"46.31W"}
{"date":"2010-12-01","average_temperature":"0.11800000000000033","city":"Richmond","latitude":"37.78N","longitude":"77.29W"}
{"date":"2012-03-01","average_temperature":"13.901","city":"Richmond","latitude":"37.78N","longitude":"77.29W"}
{"date":"2012-01-01","average_temperature":"10.093","city":"Riverside","latitude":"34.56N","longitude":"116.76W"}
{"date":"2011-09-01","average_temperature":"27.291","city":"Rongcheng","latitude":"23.31N","longitude":"116.21E"}
{"date":"2010-01-01","average_temperature":"25.421","city":"Rosario","latitude":"32.95S","longitude":"60.32W"}
{"date":"2012-02-01","average_temperature":"24.468","city":"São José Dos Campos","latitude":"23.31S","longitude":"46.31W"}
{"date":"2010-05-01","average_temperature":"16.868000000000002","city":"Sabadell","latitude":"40.99N","longitude":"2.13E"}
{"date":"2011-03-01","average_temperature":"11.886","city":"Sacramento","latitude":"37.78N","longitude":"122.03W"}
{"date":"2010-11-01","average_temperature":"19.21","city":"Safaqis","latitude":"34.56N","longitude":"11.68E"}
{"date":"2012-06-01","average_temperature":"22.031","city":"Saga","latitude":"32.95N","longitude":"131.17E"}
{"date":"2011-01-01","average_temperature":"16.355999999999998","city":"Sagar","latitude":"23.31N","longitude":"79.51E"}
{"date":"2010-01-01","average_temperature":"-1.1009999999999998","city":"Saint Étienne","latitude":"45.81N","longitude":"3.46E"}
{"date":"2011-11-01","average_temperature":"1.374","city":"Saint Paul","latitude":"45.81N","longitude":"93.46W"}
{"date":"2010-04-01","average_temperature":"4.251","city":"Saint Petersburg","latitude":"60.27N","longitude":"29.19E"}
{"date":"2012-07-01","average_temperature":"22.725","city":"Sakura","latitude":"36.17N","longitude":"141.22E"}
{"date":"2013-03-01","average_temperature":"22.410999999999998","city":"Salalah","latitude":"16.87N","longitude":"53.58E"}
{"date":"2010-04-01","average_temperature":"19.421","city":"Salamanca","latitude":"20.09N","longitude":"100.66W"}
{"date":"2011-11-01","average_temperature":"-7.74","city":"Salavat","latitude":"53.84N","longitude":"55.91E"}
{"date":"2010-04-01","average_temperature":"6.001","city":"Salzburg","latitude":"47.42N","longitude":"13.03E"}
{"date":"2012-06-01","average_temperature":"14.42","city":"Salzburg","latitude":"47.42N","longitude":"13.03E"}
{"date":"2010-10-01","average_temperature":"8.755","city":"Salzgitter","latitude":"52.24N","longitude":"10.51E"}
{"date":"2011-02-01","average_temperature":"2.443","city":"Samarkand","latitude":"39.38N","longitude":"66.59E"}
{"date":"2010-03-01","average_temperature":"11.595999999999998","city":"San Bernardo","latitude":"32.95S","longitude":"69.89W"}
{"date":"2010-12-01","average_temperature":"14.338","city":"San Diego","latitude":"32.95N","longitude":"117.77W"}
{"date":"2010-05-01","average_temperature":"18.525","city":"San Lorenzo","latitude":"24.92S","longitude":"56.75W"}
{"date":"2013-01-01","average_temperature":"10.818","city":"San Luis Río Colorado","latitude":"32.95N","longitude":"113.94W"}
{"date":"2013-07-01","average_temperature":"29.253","city":"San Nicolás De Los Garza","latitude":"26.52N","longitude":"100.30W"}
{"date":"2013-06-01","average_temperature":"11.738","city":"San Nicolas","latitude":"32.95S","longitude":"60.32W"}
{"date":"2013-06-01","average_temperature":"25.641","city":"San Pédro","latitude":"5.63N","longitude":"6.46W"}
{"date":"2013-07-01","average_temperature":"24.599","city":"San Pédro","latitude":"5.63N","longitude":"6.46W"}
{"date":"2011-12-01","average_temperature":"21.631","city":"San Pedro Sula","latitude":"15.27N","longitude":"87.50W"}
{"date":"2010-10-01","average_temperature":"22.474","city":"Santa Catarina","latitude":"26.52N","longitude":"100.30W"}
{"date":"2010-03-01","average_temperature":"22.614","city":"Santa Clara","latitude":"21.70N","longitude":"80.48W"}
{"date":"2012-10-01","average_temperature":"17.294999999999998","city":"Santa Clara","latitude":"37.78N","longitude":"122.03W"}
{"date":"2011-11-01","average_temperature":"26.486","city":"Santa Rita","latitude":"7.23S","longitude":"34.86W"}
{"date":"2013-06-01","average_temperature":"28.552","city":"Santa Rosa","latitude":"13.66N","longitude":"121.38E"}
{"date":"2010-09-01","average_temperature":"28.134","city":"Santiago De Cuba","latitude":"20.09N","longitude":"75.07W"}
{"date":"2010-02-01","average_temperature":"26.755","city":"Santiago Del Estero","latitude":"28.13S","longitude":"64.55W"}
{"date":"2013-09-01","city":"Sargodha","latitude":"31.35N","longitude":"73.51E"}
{"date":"2010-12-01","average_temperature":"-14.505999999999998","city":"Saskatoon","latitude":"52.24N","longitude":"107.74W"}
{"date":"2011-08-01","average_temperature":"17.457","city":"Saskatoon","latitude":"52.24N","longitude":"107.74W"}
{"date":"2010-08-01","average_temperature":"25.52","city":"Satara","latitude":"16.87N","longitude":"73.67E"}
{"date":"2011-04-01","average_temperature":"27.654","city":"Sawangan","latitude":"5.63S","longitude":"106.55E"}
{"date":"2012-04-01","average_temperature":"11.355","city":"Sayama","latitude":"36.17N","longitude":"139.23E"}
{"date":"2011-04-01","average_temperature":"28.406","city":"Sekondi","latitude":"5.63N","longitude":"1.61W"}
{"date":"2010-01-01","average_temperature":"25.953000000000007","city":"Semarang","latitude":"7.23S","longitude":"111.08E"}
{"date":"2012-08-01","average_temperature":"26.410999999999998","city":"Semarang","latitude":"7.23S","longitude":"111.08E"}
{"date":"2011-11-01","average_temperature":"27.179","city":"Sepatan","latitude":"5.63S","longitude":"106.55E"}
{"date":"2013-04-01","average_temperature":"-0.059999999999999824","city":"Severodvinsk","latitude":"65.09N","longitude":"40.21E"}
{"date":"2011-04-01","average_temperature":"15.003","city":"Shahreza","latitude":"31.35N","longitude":"52.77E"}
{"date":"2010-02-01","average_temperature":"30.769000000000002","city":"Shaki","latitude":"8.84N","longitude":"4.05E"}
{"date":"2012-04-01","average_temperature":"23.309","city":"Shaping","latitude":"23.31N","longitude":"112.72E"}
{"date":"2012-05-01","average_temperature":"27.040000000000006","city":"Shaping","latitude":"23.31N","longitude":"112.72E"}
{"date":"2012-08-01","average_temperature":"28.84","city":"Shaping","latitude":"23.31N","longitude":"112.72E"}
{"date":"2013-04-01","average_temperature":"19.538","city":"Shulin","latitude":"24.92N","longitude":"120.59E"}
{"date":"2010-01-01","average_temperature":"-5.3050000000000015","city":"Shunyi","latitude":"39.38N","longitude":"116.53E"}
{"date":"2012-06-01","average_temperature":"33.699000000000005","city":"Sialkot","latitude":"32.95N","longitude":"73.72E"}
{"date":"2013-05-01","average_temperature":"34.730000000000004","city":"Sikar","latitude":"28.13N","longitude":"75.45E"}
{"date":"2010-07-01","average_temperature":"27.356","city":"Singapore","latitude":"0.80N","longitude":"103.66E"}
{"date":"2011-02-01","average_temperature":"26.809","city":"Singkawang","latitude":"0.80N","longitude":"108.48E"}
{"date":"2010-02-01","average_temperature":"27.803","city":"Sinnar","latitude":"13.66N","longitude":"33.85E"}
{"date":"2013-02-01","average_temperature":"28.436999999999998","city":"Sinnar","latitude":"13.66N","longitude":"33.85E"}
{"date":"2013-09-01","city":"Sirajganj","latitude":"24.92N","longitude":"90.44E"}
{"date":"2011-04-01","average_temperature":"27.703000000000003","city":"Sirsa","latitude":"29.74N","longitude":"75.69E"}
{"date":"2012-03-01","average_temperature":"-0.5529999999999999","city":"Sivas","latitude":"39.38N","longitude":"37.46E"}
{"date":"2010-03-01","average_temperature":"5.003","city":"Sochi","latitude":"44.20N","longitude":"40.25E"}
{"date":"2010-10-01","average_temperature":"7.830999999999999","city":"Sofia","latitude":"42.59N","longitude":"24.00E"}
{"date":"2013-01-01","average_temperature":"27.385","city":"Sokodé","latitude":"8.84N","longitude":"0.81E"}
{"date":"2013-06-01","average_temperature":"26.695","city":"Sokodé","latitude":"8.84N","longitude":"0.81E"}
{"date":"2012-06-01","average_temperature":"18.673","city":"Songea","latitude":"10.45S","longitude":"35.18E"}
{"date":"2013-03-01","average_temperature":"4.213","city":"Southampton","latitude":"50.63N","longitude":"1.27W"}
{"date":"2012-02-01","average_temperature":"25.574","city":"Spanish Town","latitude":"18.48N","longitude":"77.75W"}
{"date":"2013-08-01","average_temperature":"24.946","city":"Split","latitude":"44.20N","longitude":"15.65E"}
{"date":"2013-02-01","average_temperature":"1.2409999999999999","city":"Spokane","latitude":"47.42N","longitude":"117.24W"}
{"date":"2011-12-01","average_temperature":"3.6919999999999997","city":"Springfield","latitude":"37.78N","longitude":"93.56W"}
{"date":"2011-09-01","average_temperature":"18.754","city":"Springfield","latitude":"39.38N","longitude":"89.48W"}
{"date":"2013-09-01","average_temperature":"22.002","city":"Springfield","latitude":"39.38N","longitude":"89.48W"}
{"date":"2011-02-01","average_temperature":"19.575","city":"Springs","latitude":"26.52S","longitude":"28.66E"}
{"date":"2010-08-01","average_temperature":"22.67","city":"Stamford","latitude":"40.99N","longitude":"74.56W"}
{"date":"2010-09-01","average_temperature":"17.585","city":"Sterling Heights","latitude":"42.59N","longitude":"82.91W"}
{"date":"2011-05-01","average_temperature":"15.477","city":"Strasbourg","latitude":"49.03N","longitude":"7.35E"}
{"date":"2010-02-01","average_temperature":"0.5860000000000001","city":"Stuttgart","latitude":"49.03N","longitude":"9.80E"}
{"date":"2010-05-01","average_temperature":"10.046","city":"Sucre","latitude":"18.48S","longitude":"65.92W"}
{"date":"2013-05-01","average_temperature":"10.443","city":"Sudbury","latitude":"45.81N","longitude":"81.92W"}
{"date":"2013-08-01","average_temperature":"26.16","city":"Sukabumi","latitude":"7.23S","longitude":"106.22E"}
{"date":"2012-06-01","average_temperature":"18.095","city":"Sumaré","latitude":"23.31S","longitude":"48.06W"}
{"date":"2010-01-01","average_temperature":"9.599","city":"Sunnyvale","latitude":"37.78N","longitude":"122.03W"}
{"date":"2013-07-01","average_temperature":"27.539","city":"Surat Thani","latitude":"8.84N","longitude":"99.73E"}
{"date":"2010-02-01","average_temperature":"23.573","city":"Surendranagar","latitude":"23.31N","longitude":"72.52E"}
{"date":"2012-12-01","average_temperature":"24.326","city":"Suriapet","latitude":"16.87N","longitude":"80.37E"}
{"date":"2011-10-01","average_temperature":"23.217","city":"Taitung","latitude":"23.31N","longitude":"121.46E"}
{"date":"2012-08-01","average_temperature":"27.595","city":"Taizhou","latitude":"32.95N","longitude":"119.68E"}
{"date":"2012-12-01","average_temperature":"1.297","city":"Tajimi","latitude":"36.17N","longitude":"137.24E"}
{"date":"2012-12-01","average_temperature":"27.612","city":"Taman","latitude":"7.23S","longitude":"112.70E"}
{"date":"2011-03-01","average_temperature":"25.15","city":"Tando Adam","latitude":"26.52N","longitude":"68.06E"}
{"date":"2010-02-01","average_temperature":"14.048","city":"Tangier","latitude":"36.17N","longitude":"5.97W"}
{"date":"2011-09-01","average_temperature":"26.842","city":"Tanta","latitude":"31.35N","longitude":"30.16E"}
{"date":"2011-01-01","average_temperature":"24.963","city":"Tanza","latitude":"15.27N","longitude":"120.83E"}
{"date":"2012-08-01","average_temperature":"27.053","city":"Taranto","latitude":"40.99N","longitude":"17.04E"}
{"date":"2012-11-01","average_temperature":"-0.8759999999999999","city":"Taraz","latitude":"42.59N","longitude":"72.00E"}
{"date":"2013-01-01","average_temperature":"14.696","city":"Tarhunah","latitude":"32.95N","longitude":"14.36E"}
{"date":"2010-02-01","average_temperature":"14.344","city":"Tartus","latitude":"34.56N","longitude":"35.03E"}
{"date":"2011-04-01","average_temperature":"21.478","city":"Taubaté","latitude":"23.31S","longitude":"46.31W"}
{"date":"2013-07-01","average_temperature":"25.263","city":"Taunggyi","latitude":"20.09N","longitude":"97.25E"}
{"date":"2012-06-01","average_temperature":"27.718000000000004","city":"Teluknaga","latitude":"5.63S","longitude":"106.55E"}
{"date":"2010-04-01","average_temperature":"4.721","city":"Temirtau","latitude":"50.63N","longitude":"72.25E"}
{"date":"2011-05-01","average_temperature":"26.331999999999997","city":"Tepic","latitude":"21.70N","longitude":"104.71W"}
{"date":"2011-09-01","average_temperature":"26.691999999999997","city":"Ternate","latitude":"0.80N","longitude":"127.77E"}
{"date":"2012-08-01","average_temperature":"26.97","city":"Ternate","latitude":"0.80N","longitude":"127.77E"}
{"date":"2012-03-01","average_temperature":"16.609","city":"Texcoco","latitude":"20.09N","longitude":"98.96W"}
{"date":"2013-04-01","average_temperature":"27.335","city":"Thana","latitude":"18.48N","longitude":"72.68E"}
{"date":"2012-04-01","average_temperature":"30.958000000000002","city":"Thanjavur","latitude":"10.45N","longitude":"79.36E"}
{"date":"2012-12-01","average_temperature":"27.404","city":"Thaton","latitude":"16.87N","longitude":"97.12E"}
{"date":"2010-02-01","average_temperature":"28.175","city":"Thiruvananthapuram","latitude":"8.84N","longitude":"77.03E"}
{"date":"2011-05-01","average_temperature":"29.069000000000003","city":"Thrissur","latitude":"10.45N","longitude":"76.09E"}
{"date":"2012-09-01","average_temperature":"22.913","city":"Tianmen","latitude":"31.35N","longitude":"113.09E"}
{"date":"2010-10-01","average_temperature":"3.333","city":"Tieli","latitude":"47.42N","longitude":"129.08E"}
{"date":"2011-02-01","average_temperature":"-15.213","city":"Tieli","latitude":"47.42N","longitude":"129.08E"}
{"date":"2012-12-01","average_temperature":"-0.996","city":"Timisoara","latitude":"45.81N","longitude":"21.92E"}
{"date":"2010-02-01","average_temperature":"9.719","city":"Tirana","latitude":"40.99N","longitude":"19.17E"}
{"date":"2013-08-01","average_temperature":"29.646","city":"Tiruchchirappalli","latitude":"10.45N","longitude":"79.36E"}
{"date":"2011-04-01","average_temperature":"19.398","city":"Tlalnepantla","latitude":"20.09N","longitude":"98.96W"}
{"date":"2012-09-01","average_temperature":"20.446","city":"Tokat","latitude":"40.99N","longitude":"36.21E"}
{"date":"2010-07-01","average_temperature":"27.847","city":"Toledo","latitude":"10.45N","longitude":"123.55E"}
{"date":"2010-02-01","average_temperature":"-23.535","city":"Tomsk","latitude":"57.05N","longitude":"84.10E"}
{"date":"2010-01-01","average_temperature":"4.745","city":"Tondabayashi","latitude":"34.56N","longitude":"136.22E"}
{"date":"2010-12-01","average_temperature":"-5.593999999999999","city":"Toronto","latitude":"44.20N","longitude":"80.50W"}
{"date":"2013-02-01","average_temperature":"17.117","city":"Torreón","latitude":"24.92N","longitude":"102.86W"}
{"date":"2013-03-01","average_temperature":"7.504","city":"Torrejón De Ardoz","latitude":"40.99N","longitude":"4.26W"}
{"date":"2012-06-01","average_temperature":"19.239","city":"Trabzon","latitude":"40.99N","longitude":"40.47E"}
{"date":"2011-04-01","average_temperature":"14.067","city":"Trieste","latitude":"45.81N","longitude":"12.69E"}
{"date":"2010-12-01","average_temperature":"15.674000000000001","city":"Tripoli","latitude":"32.95N","longitude":"12.45E"}
{"date":"2012-06-01","average_temperature":"26.065","city":"Tripoli","latitude":"32.95N","longitude":"12.45E"}
{"date":"2011-11-01","average_temperature":"15.595","city":"Tubruq","latitude":"31.35N","longitude":"24.50E"}
{"date":"2010-04-01","average_temperature":"19.015","city":"Tucheng","latitude":"24.92N","longitude":"120.59E"}
{"date":"2013-02-01","average_temperature":"8.52","city":"Tucson","latitude":"31.35N","longitude":"111.20W"}
{"date":"2013-06-01","average_temperature":"25.525","city":"Tulsa","latitude":"36.17N","longitude":"95.47W"}
{"date":"2011-10-01","average_temperature":"28.154","city":"Tungi","latitude":"23.31N","longitude":"90.00E"}
{"date":"2012-12-01","average_temperature":"7.306999999999999","city":"Turgutlu","latitude":"37.78N","longitude":"28.47E"}
{"date":"2012-10-01","average_temperature":"27.276999999999997","city":"Udon Thani","latitude":"16.87N","longitude":"102.14E"}
{"date":"2013-06-01","average_temperature":"26.475","city":"Ugep","latitude":"5.63N","longitude":"8.07E"}
{"date":"2013-01-01","average_temperature":"18.216","city":"Uitenhage","latitude":"34.56S","longitude":"25.30E"}
{"date":"2011-05-01","average_temperature":"33.21","city":"Unnao","latitude":"26.52N","longitude":"80.60E"}
{"date":"2012-03-01","average_temperature":"29.545","city":"Uromi","latitude":"7.23N","longitude":"5.68E"}
{"date":"2010-03-01","average_temperature":"18.362","city":"Uruapan","latitude":"20.09N","longitude":"102.37W"}
{"date":"2010-10-01","average_temperature":"18.812","city":"Uruapan","latitude":"20.09N","longitude":"102.37W"}
{"date":"2010-03-01","average_temperature":"21.554","city":"Uvira","latitude":"4.02S","longitude":"29.73E"}
{"date":"2012-04-01","average_temperature":"3.154","city":"Västerås","latitude":"60.27N","longitude":"16.22E"}
{"date":"2013-08-01","average_temperature":"22.831","city":"Vicenza","latitude":"45.81N","longitude":"12.69E"}
{"date":"2012-03-01","average_temperature":"3.14","city":"Victoria","latitude":"49.03N","longitude":"122.45W"}
{"date":"2011-06-01","average_temperature":"28.241999999999997","city":"Villahermosa","latitude":"18.48N","longitude":"92.96W"}
{"date":"2011-12-01","average_temperature":"26.72","city":"Vinh Long","latitude":"10.45N","longitude":"105.55E"}
{"date":"2012-10-01","average_temperature":"25.473000000000006","city":"Vitória De Santo Antão","latitude":"8.84S","longitude":"34.86W"}
{"date":"2010-07-01","average_temperature":"21.726","city":"Vitoria","latitude":"42.59N","longitude":"2.18W"}
{"date":"2011-08-01","average_temperature":"17.095000000000002","city":"Vladikavkaz","latitude":"42.59N","longitude":"43.64E"}
{"date":"2010-12-01","average_temperature":"2.681","city":"Volgodonsk","latitude":"47.42N","longitude":"41.45E"}
{"date":"2011-06-01","average_temperature":"22.189","city":"Volgodonsk","latitude":"47.42N","longitude":"41.45E"}
{"date":"2012-11-01","average_temperature":"14.782","city":"Waitakere","latitude":"36.17S","longitude":"175.03E"}
{"date":"2011-09-01","average_temperature":"15.122","city":"Walbrzych","latitude":"50.63N","longitude":"16.48E"}
{"date":"2012-05-01","average_temperature":"12.009","city":"Walsall","latitude":"52.24N","longitude":"2.63W"}
{"date":"2011-04-01","average_temperature":"31.573","city":"Wardha","latitude":"20.09N","longitude":"78.48E"}
{"date":"2011-04-01","average_temperature":"10.467","city":"Warsaw","latitude":"52.24N","longitude":"21.02E"}
{"date":"2013-04-01","average_temperature":"12.425","city":"Washington","latitude":"39.38N","longitude":"76.99W"}
{"date":"2013-08-01","average_temperature":"11.106","city":"Wellington","latitude":"40.99S","longitude":"174.67E"}
{"date":"2013-06-01","average_temperature":"24.788","city":"Wenzhou","latitude":"28.13N","longitude":"120.91E"}
{"date":"2011-06-01","average_temperature":"12.776","city":"Windhoek","latitude":"23.31S","longitude":"16.60E"}
{"date":"2012-02-01","average_temperature":"-5.402","city":"Wloclawek","latitude":"52.24N","longitude":"18.39E"}
{"date":"2012-01-01","average_temperature":"3.875","city":"Wuxi","latitude":"31.35N","longitude":"120.63E"}
{"date":"2010-04-01","average_temperature":"16.637999999999998","city":"Xiamen","latitude":"24.92N","longitude":"118.82E"}
{"date":"2013-04-01","average_temperature":"18.433","city":"Xingyi","latitude":"24.92N","longitude":"104.63E"}
{"date":"2011-06-01","average_temperature":"26.634","city":"Xinyang","latitude":"32.95N","longitude":"113.94E"}
{"date":"2011-12-01","average_temperature":"-9.983","city":"Xuanhua","latitude":"40.99N","longitude":"115.03E"}
{"date":"2013-02-01","average_temperature":"5.792000000000001","city":"Xuanzhou","latitude":"31.35N","longitude":"118.74E"}
{"date":"2012-11-01","average_temperature":"7.348","city":"Xuchang","latitude":"34.56N","longitude":"112.86E"}
{"date":"2010-07-01","average_temperature":"29.564","city":"Yamunanagar","latitude":"29.74N","longitude":"77.54E"}
{"date":"2011-03-01","average_temperature":"12.39","city":"Yazd","latitude":"31.35N","longitude":"54.66E"}
{"date":"2012-08-01","average_temperature":"17.16","city":"Yekaterinburg","latitude":"57.05N","longitude":"60.49E"}
{"date":"2010-04-01","average_temperature":"8.487","city":"Yerevan","latitude":"40.99N","longitude":"44.73E"}
{"date":"2012-07-01","average_temperature":"23.358","city":"Yinchuan","latitude":"37.78N","longitude":"105.76E"}
{"date":"2010-01-01","average_temperature":"25.953000000000007","city":"Yogyakarta","latitude":"7.23S","longitude":"111.08E"}
{"date":"2012-01-01","average_temperature":"7.793000000000001","city":"Yokosuka","latitude":"34.56N","longitude":"140.11E"}
{"date":"2012-08-01","average_temperature":"22.730999999999998","city":"Yonkers","latitude":"40.99N","longitude":"74.56W"}
{"date":"2013-07-01","average_temperature":"24.721999999999998","city":"Yonkers","latitude":"40.99N","longitude":"74.56W"}
{"date":"2012-10-01","average_temperature":"18.979","city":"Yushan","latitude":"31.35N","longitude":"120.63E"}
{"date":"2011-09-01","average_temperature":"13.288","city":"Yushu","latitude":"44.20N","longitude":"127.45E"}
{"date":"2011-06-01","average_temperature":"21.085","city":"Zama","latitude":"36.17N","longitude":"139.23E"}
{"date":"2013-03-01","average_temperature":"17.704","city":"Zhangzhou","latitude":"24.92N","longitude":"117.04E"}
{"date":"2012-02-01","average_temperature":"-13.779000000000002","city":"Zhaodong","latitude":"45.81N","longitude":"125.77E"}
{"date":"2012-03-01","average_temperature":"8.693999999999999","city":"Zhoukou","latitude":"32.95N","longitude":"113.94E"}
{"date":"2011-06-01","average_temperature":"28.587","city":"Zhuhai","latitude":"21.70N","longitude":"113.37E"}
{"date":"2011-05-01","average_temperature":"13.982","city":"Zhukovskiy","latitude":"55.45N","longitude":"36.85E"}
{"date":"2010-02-01","average_temperature":"-0.8550000000000001","city":"Zhuozhou","latitude":"39.38N","longitude":"116.53E"}
{"date":"2013-05-01","average_temperature":"22.101999999999997","city":"Zhuozhou","latitude":"39.38N","longitude":"116.53E"}
{"date":"2011-07-01","average_temperature":"29.339000000000002","city":"Zhuzhou","latitude":"28.13N","longitude":"113.64E"}
{"date":"2011-08-01","average_temperature":"18.666","city":"Zhytomyr","latitude":"50.63N","longitude":"29.15E"}
{"date":"2011-09-01","average_temperature":"27.644000000000002","city":"Ziguinchor","latitude":"12.05N","longitude":"16.44W"}
{"date":"2010-01-01","average_temperature":"-1.16","city":"Zoetermeer","latitude":"52.24N","longitude":"5.26E"}
{"date":"2012-06-01","average_temperature":"20.796999999999997","city":"Zonguldak","latitude":"40.99N","longitude":"31.95E"}
{"date":"2012-12-01","average_temperature":"4.303","city":"Zwolle","latitude":"52.24N","longitude":"5.26E"}
