{"date":"2010-06-01","average_temperature":"21.719","city":"Çorlu","latitude":"40.99N","longitude":"27.69E"}
{"date":"2010-03-01","average_temperature":"2.4290000000000003","city":"Aalborg","latitude":"57.05N","longitude":"10.33E"}
{"date":"2012-12-01","average_temperature":"21.244","city":"Abha","latitude":"18.48N","longitude":"42.25E"}
{"date":"2011-05-01","average_temperature":"28.467","city":"Acapulco","latitude":"16.87N","longitude":"100.47W"}
{"date":"2010-01-01","average_temperature":"27.753","city":"Acarigua","latitude":"8.84N","longitude":"68.92W"}
{"date":"2012-12-01","average_temperature":"26.648000000000003","city":"Accra","latitude":"5.63N","longitude":"0.00W"}
{"date":"2011-04-01","average_temperature":"5.388","city":"Acheng","latitude":"45.81N","longitude":"128.08E"}
{"date":"2012-10-01","average_temperature":"23.424000000000003","city":"Adana","latitude":"36.17N","longitude":"35.80E"}
{"date":"2013-03-01","average_temperature":"15.475","city":"Adana","latitude":"36.17N","longitude":"35.80E"}
{"date":"2010-03-01","average_temperature":"16.695999999999998","city":"Aguascalientes","latitude":"21.70N","longitude":"102.98W"}
{"date":"2011-07-01","average_temperature":"29.182","city":"Ahmadabad","latitude":"23.31N","longitude":"72.52E"}
{"date":"2011-09-01","average_temperature":"22.199","city":"Akishima","latitude":"36.17N","longitude":"139.23E"}
{"date":"2010-12-01","average_temperature":"5.048","city":"Akita","latitude":"39.38N","longitude":"139.42E"}
{"date":"2012-04-01","average_temperature":"17.452","city":"Aktau","latitude":"44.20N","longitude":"51.43E"}
{"date":"2012-05-01","average_temperature":"22.681","city":"Aktau","latitude":"44.20N","longitude":"51.43E"}
{"date":"2010-04-01","average_temperature":"26.813000000000002","city":"Alagoinhas","latitude":"12.05S","longitude":"37.81W"}
{"date":"2011-12-01","average_temperature":"19.751","city":"Alberton","latitude":"26.52S","longitude":"28.66E"}
{"date":"2010-02-01","average_temperature":"17.587","city":"Alexandria","latitude":"31.35N","longitude":"30.16E"}
{"date":"2011-12-01","average_temperature":"5.722","city":"Almere","latitude":"52.24N","longitude":"5.26E"}
{"date":"2012-04-01","average_temperature":"26.835","city":"Ambala","latitude":"29.74N","longitude":"77.54E"}
{"date":"2013-06-01","average_temperature":"27.686","city":"Ambarnath","latitude":"18.48N","longitude":"72.68E"}
{"date":"2010-02-01","average_temperature":"5.664","city":"Amol","latitude":"36.17N","longitude":"51.71E"}
{"date":"2012-02-01","average_temperature":"1.744","city":"Amol","latitude":"36.17N","longitude":"51.71E"}
{"date":"2010-06-01","average_temperature":"16.213","city":"Amsterdam","latitude":"52.24N","longitude":"5.26E"}
{"date":"2012-12-01","average_temperature":"4.303","city":"Amsterdam","latitude":"52.24N","longitude":"5.26E"}
{"date":"2010-08-01","average_temperature":"21.721999999999998","city":"Anda","latitude":"45.81N","longitude":"125.77E"}
{"date":"2011-03-01","average_temperature":"9.912","city":"Anqing","latitude":"31.35N","longitude":"116.86E"}
{"date":"2011-10-01","average_temperature":"10.414000000000001","city":"Anshan","latitude":"40.99N","longitude":"123.55E"}
{"date":"2011-11-01","average_temperature":"13.027","city":"Anshun","latitude":"26.52N","longitude":"105.67E"}
{"date":"2010-09-01","average_temperature":"19.242","city":"Antananarivo","latitude":"18.48S","longitude":"47.32E"}
{"date":"2013-08-01","average_temperature":"16.745","city":"Antsirabe","latitude":"20.09S","longitude":"47.77E"}
{"date":"2013-05-01","average_temperature":"26.816","city":"Araguaína","latitude":"7.23S","longitude":"47.84W"}
{"date":"2010-12-01","average_temperature":"5.553","city":"Arak","latitude":"34.56N","longitude":"50.59E"}
{"date":"2010-07-01","average_temperature":"18.243","city":"Arica","latitude":"18.48S","longitude":"70.99W"}
{"date":"2012-04-01","average_temperature":"15.299000000000001","city":"Armavir","latitude":"45.81N","longitude":"40.38E"}
{"date":"2012-03-01","average_temperature":"26.984","city":"Asansol","latitude":"23.31N","longitude":"86.50E"}
{"date":"2010-11-01","average_temperature":"-0.2159999999999993","city":"Astana","latitude":"50.63N","longitude":"72.25E"}
{"date":"2013-07-01","average_temperature":"26.785999999999998","city":"Athens","latitude":"37.78N","longitude":"24.41E"}
{"date":"2011-12-01","average_temperature":"22.244","city":"Atibaia","latitude":"23.31S","longitude":"46.31W"}
{"date":"2013-02-01","average_temperature":"2.046","city":"Atsugi","latitude":"36.17N","longitude":"139.23E"}
{"date":"2013-04-01","average_temperature":"30.452","city":"Aurangabad","latitude":"20.09N","longitude":"75.07E"}
{"date":"2012-05-01","average_temperature":"28.621","city":"Ayer Itam","latitude":"5.63N","longitude":"100.09E"}
{"date":"2013-04-01","average_temperature":"29.459000000000003","city":"Bacolod","latitude":"10.45N","longitude":"123.55E"}
{"date":"2012-06-01","average_temperature":"24.34","city":"Badajoz","latitude":"39.38N","longitude":"6.24W"}
{"date":"2011-08-01","average_temperature":"21.555000000000003","city":"Badaojiang","latitude":"42.59N","longitude":"126.55E"}
{"date":"2011-09-01","average_temperature":"28.945","city":"Bagaha","latitude":"26.52N","longitude":"84.18E"}
{"date":"2013-02-01","average_temperature":"1.075","city":"Baglan","latitude":"36.17N","longitude":"69.61E"}
{"date":"2011-09-01","average_temperature":"13.794999999999998","city":"Bahia Blanca","latitude":"39.38S","longitude":"62.43W"}
{"date":"2010-10-01","average_temperature":"19.138","city":"Bahir Dar","latitude":"12.05N","longitude":"37.81E"}
{"date":"2012-05-01","average_temperature":"21.041","city":"Bahir Dar","latitude":"12.05N","longitude":"37.81E"}
{"date":"2013-01-01","average_temperature":"19.153","city":"Bahir Dar","latitude":"12.05N","longitude":"37.81E"}
{"date":"2012-05-01","average_temperature":"27.527","city":"Bandar Penggaram","latitude":"2.41N","longitude":"103.66E"}
{"date":"2012-10-01","average_temperature":"27.427","city":"Bangaon","latitude":"23.31N","longitude":"88.25E"}
{"date":"2011-05-01","average_temperature":"30.395","city":"Bansbaria","latitude":"23.31N","longitude":"88.25E"}
{"date":"2012-08-01","average_temperature":"27.507","city":"Bantou","latitude":"24.92N","longitude":"118.82E"}
{"date":"2011-01-01","average_temperature":"-20.148000000000003","city":"Baoshan","latitude":"47.42N","longitude":"131.45E"}
{"date":"2012-05-01","average_temperature":"17.679000000000002","city":"Barbacena","latitude":"21.70S","longitude":"44.13W"}
{"date":"2010-12-01","average_temperature":"10.815999999999999","city":"Barcelona","latitude":"40.99N","longitude":"2.13E"}
{"date":"2013-05-01","average_temperature":"16.141000000000002","city":"Barcelona","latitude":"40.99N","longitude":"2.13E"}
{"date":"2010-04-01","average_temperature":"24.826","city":"Barinas","latitude":"8.84N","longitude":"70.54W"}
{"date":"2011-06-01","average_temperature":"28.339000000000002","city":"Bayamo","latitude":"20.09N","longitude":"76.78W"}
{"date":"2011-04-01","average_temperature":"17.235999999999994","city":"Bayrut","latitude":"34.56N","longitude":"35.03E"}
{"date":"2010-04-01","average_temperature":"10.172","city":"Bergamo","latitude":"45.81N","longitude":"10.38E"}
{"date":"2012-04-01","average_temperature":"9.415","city":"Bergamo","latitude":"45.81N","longitude":"10.38E"}
{"date":"2013-04-01","average_temperature":"21.706","city":"Betim","latitude":"20.09S","longitude":"44.36W"}
{"date":"2013-08-01","average_temperature":"20.581999999999997","city":"Betim","latitude":"20.09S","longitude":"44.36W"}
{"date":"2010-09-01","average_temperature":"29.536","city":"Bhadreswar","latitude":"23.31N","longitude":"88.25E"}
{"date":"2012-12-01","average_temperature":"7.359","city":"Bharatpur","latitude":"28.13N","longitude":"84.55E"}
{"date":"2011-05-01","average_temperature":"34.106","city":"Bhilwara","latitude":"24.92N","longitude":"74.48E"}
{"date":"2010-05-01","average_temperature":"36.101","city":"Bhiwani","latitude":"28.13N","longitude":"75.45E"}
{"date":"2012-02-01","average_temperature":"22.326","city":"Bhusawal","latitude":"21.70N","longitude":"75.29E"}
{"date":"2011-07-01","average_temperature":"28.275","city":"Biên Hòa","latitude":"10.45N","longitude":"107.18E"}
{"date":"2012-05-01","average_temperature":"33.126999999999995","city":"Bid","latitude":"18.48N","longitude":"76.06E"}
{"date":"2010-05-01","average_temperature":"10.604","city":"Bielefeld","latitude":"52.24N","longitude":"7.88E"}
{"date":"2010-11-01","average_temperature":"7.407","city":"Bilbao","latitude":"42.59N","longitude":"2.18W"}
{"date":"2013-08-01","average_temperature":"27.004","city":"Bintulu","latitude":"2.41N","longitude":"113.30E"}
{"date":"2012-08-01","average_temperature":"26.386","city":"Birmingham","latitude":"32.95N","longitude":"87.13W"}
{"date":"2012-06-01","average_temperature":"15.386","city":"Bisho","latitude":"32.95S","longitude":"27.77E"}
{"date":"2010-03-01","average_temperature":"27.363000000000003","city":"Bitung","latitude":"0.80N","longitude":"124.55E"}
{"date":"2013-07-01","average_temperature":"16.462","city":"Blackpool","latitude":"53.84N","longitude":"4.09W"}
{"date":"2011-01-01","average_temperature":"24.543000000000003","city":"Bombay","latitude":"18.48N","longitude":"72.68E"}
{"date":"2011-11-01","average_temperature":"20.383","city":"Bragança Paulista","latitude":"23.31S","longitude":"46.31W"}
{"date":"2011-06-01","average_temperature":"17.972","city":"Brasov","latitude":"45.81N","longitude":"26.54E"}
{"date":"2012-03-01","average_temperature":"7.862999999999999","city":"Breda","latitude":"52.24N","longitude":"5.26E"}
{"date":"2012-11-01","average_temperature":"6.4689999999999985","city":"Breda","latitude":"52.24N","longitude":"5.26E"}
{"date":"2012-10-01","average_temperature":"13.151000000000002","city":"Brest","latitude":"49.03N","longitude":"4.90W"}
{"date":"2010-01-01","average_temperature":"23.769000000000002","city":"Brikama","latitude":"13.66N","longitude":"17.34W"}
{"date":"2013-09-01","city":"Brussels","latitude":"50.63N","longitude":"3.80E"}
{"date":"2010-12-01","average_temperature":"21.238000000000003","city":"Buenaventura","latitude":"4.02N","longitude":"76.34W"}
{"date":"2013-03-01","average_temperature":"27.85","city":"Bugama","latitude":"4.02N","longitude":"7.23E"}
{"date":"2011-06-01","average_temperature":"25.793000000000003","city":"Buhe","latitude":"29.74N","longitude":"112.62E"}
{"date":"2013-09-01","city":"Buhe","latitude":"29.74N","longitude":"112.62E"}
{"date":"2010-08-01","average_temperature":"21.576","city":"Bukavu","latitude":"2.41S","longitude":"28.13E"}
{"date":"2011-08-01","average_temperature":"36.98","city":"Buraydah","latitude":"26.52N","longitude":"44.78E"}
{"date":"2012-04-01","average_temperature":"14.751","city":"Burbank","latitude":"34.56N","longitude":"118.70W"}
{"date":"2010-03-01","average_temperature":"7.0619999999999985","city":"Burgos","latitude":"42.59N","longitude":"4.36W"}
{"date":"2011-05-01","average_temperature":"28.695999999999998","city":"Butterworth","latitude":"5.63N","longitude":"100.09E"}
{"date":"2013-05-01","average_temperature":"29.241","city":"Butterworth","latitude":"5.63N","longitude":"100.09E"}
{"date":"2013-01-01","average_temperature":"-2.8200000000000003","city":"Buzau","latitude":"45.81N","longitude":"26.54E"}
{"date":"2010-09-01","average_temperature":"28.141","city":"Cà Mau","latitude":"8.84N","longitude":"104.59E"}
{"date":"2012-05-01","average_temperature":"21.040000000000006","city":"Córdoba","latitude":"37.78N","longitude":"4.07W"}
{"date":"2011-09-01","average_temperature":"23.731","city":"Cagliari","latitude":"39.38N","longitude":"8.32E"}
{"date":"2010-03-01","average_temperature":"2.628","city":"Calgary","latitude":"50.63N","longitude":"112.82W"}
{"date":"2011-02-01","average_temperature":"23.838","city":"Camagüey","latitude":"21.70N","longitude":"78.75W"}
{"date":"2012-04-01","average_temperature":"26.97","city":"Camaragibe","latitude":"7.23S","longitude":"34.86W"}
{"date":"2012-10-01","average_temperature":"9.895","city":"Cambridge","latitude":"52.24N","longitude":"0.00W"}
{"date":"2013-04-01","average_temperature":"20.48","city":"Campinas","latitude":"23.31S","longitude":"46.31W"}
{"date":"2011-10-01","average_temperature":"22.588","city":"Campos","latitude":"21.70S","longitude":"40.67W"}
{"date":"2010-05-01","average_temperature":"26.396","city":"Cancún","latitude":"21.70N","longitude":"87.40W"}
{"date":"2012-04-01","average_temperature":"22.459","city":"Cape Coral","latitude":"26.52N","longitude":"82.39W"}
{"date":"2011-05-01","average_temperature":"20.453000000000007","city":"Capiatá","latitude":"24.92S","longitude":"56.75W"}
{"date":"2011-06-01","average_temperature":"18.983","city":"Capiatá","latitude":"24.92S","longitude":"56.75W"}
{"date":"2010-10-01","average_temperature":"19.398","city":"Carapicuíba","latitude":"23.31S","longitude":"46.31W"}
{"date":"2012-11-01","average_temperature":"21.811999999999998","city":"Carapicuíba","latitude":"23.31S","longitude":"46.31W"}
{"date":"2010-07-01","average_temperature":"17.072","city":"Cardiff","latitude":"52.24N","longitude":"2.63W"}
{"date":"2012-04-01","average_temperature":"27.19","city":"Cartagena","latitude":"10.45N","longitude":"76.09W"}
{"date":"2012-11-01","average_temperature":"25.998","city":"Caruaru","latitude":"8.84S","longitude":"36.49W"}
{"date":"2012-08-01","average_temperature":"27.487","city":"Casablanca","latitude":"32.95N","longitude":"6.70W"}
{"date":"2013-01-01","average_temperature":"26.545","city":"Catamarca","latitude":"28.13S","longitude":"66.36W"}
{"date":"2013-04-01","average_temperature":"29.459000000000003","city":"Cebu","latitude":"10.45N","longitude":"123.55E"}
{"date":"2010-09-01","average_temperature":"17.303","city":"Cedar Rapids","latitude":"42.59N","longitude":"91.64W"}
{"date":"2012-12-01","average_temperature":"11.169","city":"Chandler","latitude":"32.95N","longitude":"112.02W"}
{"date":"2010-06-01","average_temperature":"24.419","city":"Changchun","latitude":"44.20N","longitude":"125.22E"}
{"date":"2010-12-01","average_temperature":"6.5280000000000005","city":"Chaohu","latitude":"31.35N","longitude":"118.74E"}
{"date":"2013-06-01","average_temperature":"26.313","city":"Charleston","latitude":"32.95N","longitude":"79.47W"}
{"date":"2011-06-01","average_temperature":"17.487000000000002","city":"Cheboksary","latitude":"55.45N","longitude":"48.19E"}
{"date":"2010-08-01","average_temperature":"24.384","city":"Cherkasy","latitude":"49.03N","longitude":"31.84E"}
{"date":"2011-04-01","average_temperature":"8.982000000000001","city":"Cherkasy","latitude":"49.03N","longitude":"31.84E"}
{"date":"2011-05-01","average_temperature":"15.272","city":"Chernihiv","latitude":"52.24N","longitude":"31.53E"}
{"date":"2011-03-01","average_temperature":"0.2809999999999999","city":"Chifeng","latitude":"42.59N","longitude":"120.00E"}
{"date":"2011-02-01","average_temperature":"24.68","city":"Chimoio","latitude":"18.48S","longitude":"33.80E"}
{"date":"2013-04-01","average_temperature":"-2.126","city":"Chita","latitude":"52.24N","longitude":"112.99E"}
{"date":"2011-12-01","average_temperature":"4.022","city":"Chizhou","latitude":"31.35N","longitude":"116.86E"}
{"date":"2011-09-01","average_temperature":"22.822000000000006","city":"Chongqing","latitude":"29.74N","longitude":"107.08E"}
{"date":"2010-12-01","average_temperature":"26.601999999999997","city":"Cibitung","latitude":"5.63S","longitude":"106.55E"}
{"date":"2012-02-01","average_temperature":"27.287","city":"Cilegon","latitude":"5.63S","longitude":"106.55E"}
{"date":"2011-07-01","average_temperature":"26.088","city":"Cisaat","latitude":"7.23S","longitude":"106.22E"}
{"date":"2012-12-01","average_temperature":"26.554000000000002","city":"Cisaat","latitude":"7.23S","longitude":"106.22E"}
{"date":"2013-09-01","city":"Ciudad Bolívar","latitude":"8.84N","longitude":"64.05W"}
{"date":"2013-07-01","average_temperature":"28.054000000000002","city":"Coatzacoalcos","latitude":"18.48N","longitude":"94.65W"}
{"date":"2012-02-01","average_temperature":"7.750999999999999","city":"Coimbra","latitude":"40.99N","longitude":"8.52W"}
{"date":"2013-09-01","city":"Colchester","latitude":"52.24N","longitude":"0.00W"}
{"date":"2013-05-01","average_temperature":"23.954","city":"Colima","latitude":"20.09N","longitude":"104.08W"}
{"date":"2010-12-01","average_temperature":"24.814","city":"Colombo","latitude":"7.23N","longitude":"80.27E"}
{"date":"2010-11-01","average_temperature":"12.665","city":"Columbus","latitude":"32.95N","longitude":"85.21W"}
{"date":"2012-09-01","average_temperature":"23.109","city":"Columbus","latitude":"32.95N","longitude":"85.21W"}
{"date":"2011-01-01","average_temperature":"27.324","city":"Conakry","latitude":"8.84N","longitude":"13.78W"}
{"date":"2010-06-01","average_temperature":"18.643","city":"Concord","latitude":"37.78N","longitude":"122.03W"}
{"date":"2013-08-01","average_temperature":"29.705","city":"Corpus Christi","latitude":"28.13N","longitude":"97.27W"}
{"date":"2010-12-01","average_temperature":"-4.412","city":"Cottbus","latitude":"52.24N","longitude":"13.14E"}
{"date":"2010-08-01","average_temperature":"14.043","city":"Criciúma","latitude":"28.13S","longitude":"50.00W"}
{"date":"2013-03-01","average_temperature":"21.135","city":"Criciúma","latitude":"28.13S","longitude":"50.00W"}
{"date":"2011-07-01","average_temperature":"27.072","city":"Curug","latitude":"5.63S","longitude":"106.55E"}
{"date":"2011-12-01","average_temperature":"4.686","city":"Düsseldorf","latitude":"50.63N","longitude":"6.34E"}
{"date":"2013-04-01","average_temperature":"21.754","city":"Dakar","latitude":"15.27N","longitude":"17.50W"}
{"date":"2010-12-01","average_temperature":"6.6179999999999986","city":"Dali","latitude":"26.52N","longitude":"100.30E"}
{"date":"2012-09-01","average_temperature":"27.688000000000002","city":"Damaturu","latitude":"12.05N","longitude":"11.51E"}
{"date":"2012-11-01","average_temperature":"28.083000000000002","city":"Damaturu","latitude":"12.05N","longitude":"11.51E"}
{"date":"2013-08-01","average_temperature":"18.192","city":"Darmstadt","latitude":"50.63N","longitude":"8.87E"}
{"date":"2012-09-01","average_temperature":"27.883000000000006","city":"Daska","latitude":"32.95N","longitude":"73.72E"}
{"date":"2010-10-01","average_temperature":"26.726","city":"Dawei","latitude":"13.66N","longitude":"98.26E"}
{"date":"2012-05-01","average_temperature":"21.735000000000007","city":"Daxian","latitude":"31.35N","longitude":"107.43E"}
{"date":"2010-06-01","average_temperature":"24.211","city":"Debre Zeyit","latitude":"8.84N","longitude":"39.73E"}
{"date":"2010-07-01","average_temperature":"29.474","city":"Denton","latitude":"32.95N","longitude":"96.70W"}
{"date":"2010-10-01","average_temperature":"11.205","city":"Denver","latitude":"39.38N","longitude":"104.05W"}
{"date":"2012-11-01","average_temperature":"5.3130000000000015","city":"Dezhou","latitude":"37.78N","longitude":"115.93E"}
{"date":"2012-09-01","average_temperature":"28.090999999999998","city":"Dharmavaram","latitude":"15.27N","longitude":"77.50E"}
{"date":"2013-04-01","average_temperature":"24.119","city":"Dimapur","latitude":"26.52N","longitude":"93.13E"}
{"date":"2013-03-01","average_temperature":"27.189","city":"Dindigul","latitude":"10.45N","longitude":"77.73E"}
{"date":"2011-09-01","average_temperature":"22.015","city":"Divinópolis","latitude":"20.09S","longitude":"44.36W"}
{"date":"2011-12-01","average_temperature":"22.054","city":"Divinópolis","latitude":"20.09S","longitude":"44.36W"}
{"date":"2012-02-01","average_temperature":"5.273","city":"Do Rud","latitude":"32.95N","longitude":"48.83E"}
{"date":"2013-06-01","average_temperature":"15.043","city":"Dordrecht","latitude":"52.24N","longitude":"5.26E"}
{"date":"2011-11-01","average_temperature":"11.642999999999999","city":"Downey","latitude":"34.56N","longitude":"118.70W"}
{"date":"2013-02-01","average_temperature":"0.121","city":"Duisburg","latitude":"50.63N","longitude":"6.34E"}
{"date":"2010-02-01","average_temperature":"-12.329","city":"Dunhua","latitude":"42.59N","longitude":"128.73E"}
{"date":"2011-12-01","average_temperature":"11.152000000000001","city":"Durango","latitude":"24.92N","longitude":"104.63W"}
{"date":"2011-01-01","average_temperature":"5.6930000000000005","city":"Eastbourne","latitude":"50.63N","longitude":"1.27E"}
{"date":"2010-08-01","average_temperature":"25.295","city":"Ejigbo","latitude":"7.23N","longitude":"4.05E"}
{"date":"2010-04-01","average_temperature":"29.296","city":"El Tigre","latitude":"8.84N","longitude":"64.05W"}
{"date":"2011-12-01","average_temperature":"1.416","city":"Elblag","latitude":"53.84N","longitude":"20.45E"}
{"date":"2011-08-01","average_temperature":"20.090000000000003","city":"Envigado","latitude":"5.63N","longitude":"75.87W"}
{"date":"2013-07-01","average_temperature":"19.337","city":"Eugene","latitude":"44.20N","longitude":"122.98W"}
{"date":"2011-06-01","average_temperature":"17.577","city":"Fürth","latitude":"49.03N","longitude":"9.80E"}
{"date":"2013-08-01","average_temperature":"19.730999999999998","city":"Fairfield","latitude":"37.78N","longitude":"122.03W"}
{"date":"2011-09-01","average_temperature":"29.856","city":"Faisalabad","latitude":"31.35N","longitude":"73.51E"}
{"date":"2012-11-01","average_temperature":"19.835","city":"Faisalabad","latitude":"31.35N","longitude":"73.51E"}
{"date":"2011-12-01","average_temperature":"15.975999999999999","city":"Faizabad","latitude":"26.52N","longitude":"82.39E"}
{"date":"2013-06-01","average_temperature":"28.048000000000002","city":"Fengshan","latitude":"23.31N","longitude":"119.71E"}
{"date":"2011-01-01","average_temperature":"3.38","city":"Florence","latitude":"44.20N","longitude":"11.18E"}
{"date":"2013-05-01","average_temperature":"18.904","city":"Florencia","latitude":"2.41N","longitude":"76.34W"}
{"date":"2011-03-01","average_temperature":"9.36","city":"Foggia","latitude":"40.99N","longitude":"14.91E"}
{"date":"2011-09-01","average_temperature":"24.503","city":"Fresno","latitude":"36.17N","longitude":"119.34W"}
{"date":"2012-09-01","average_temperature":"23.275","city":"Fujimi","latitude":"36.17N","longitude":"139.23E"}
{"date":"2011-04-01","average_temperature":"11.175","city":"Fukaya","latitude":"36.17N","longitude":"139.23E"}
{"date":"2012-08-01","average_temperature":"26.680999999999997","city":"Funabashi","latitude":"36.17N","longitude":"139.23E"}
{"date":"2010-04-01","average_temperature":"33.056999999999995","city":"Funtua","latitude":"12.05N","longitude":"6.58E"}
{"date":"2010-08-01","average_temperature":"21.721999999999998","city":"Fuyu","latitude":"45.81N","longitude":"125.77E"}
{"date":"2012-11-01","average_temperature":"24.202","city":"Gaborone","latitude":"24.92S","longitude":"26.60E"}
{"date":"2012-08-01","average_temperature":"31.98","city":"Ganganagar","latitude":"29.74N","longitude":"73.85E"}
{"date":"2010-11-01","average_temperature":"24.409000000000002","city":"Gangawati","latitude":"15.27N","longitude":"75.83E"}
{"date":"2013-04-01","average_temperature":"29.846999999999998","city":"Gangawati","latitude":"15.27N","longitude":"75.83E"}
{"date":"2010-03-01","average_temperature":"4.481000000000001","city":"Gaomi","latitude":"36.17N","longitude":"119.34E"}
{"date":"2010-06-01","average_temperature":"23.131999999999998","city":"Gaomi","latitude":"36.17N","longitude":"119.34E"}
{"date":"2012-07-01","average_temperature":"29.217","city":"Gazipur","latitude":"23.31N","longitude":"90.00E"}
{"date":"2013-06-01","average_temperature":"26.959","city":"Gboko","latitude":"7.23N","longitude":"8.92E"}
{"date":"2013-09-01","city":"Gboko","latitude":"7.23N","longitude":"8.92E"}
{"date":"2012-02-01","average_temperature":"28.872","city":"Gbongan","latitude":"7.23N","longitude":"4.05E"}
{"date":"2010-03-01","average_temperature":"2.9370000000000003","city":"Gdansk","latitude":"53.84N","longitude":"17.73E"}
{"date":"2012-10-01","average_temperature":"8.155999999999999","city":"Gdynia","latitude":"53.84N","longitude":"17.73E"}
{"date":"2010-05-01","average_temperature":"11.739999999999998","city":"Geelong","latitude":"37.78S","longitude":"144.41E"}
{"date":"2010-11-01","average_temperature":"4.7170000000000005","city":"Geneva","latitude":"45.81N","longitude":"5.77E"}
{"date":"2010-03-01","average_temperature":"19.386","city":"George","latitude":"34.56S","longitude":"23.35E"}
{"date":"2012-05-01","average_temperature":"10.133","city":"Glasgow","latitude":"55.45N","longitude":"2.83W"}
{"date":"2010-09-01","average_temperature":"13.578","city":"Gloucester","latitude":"52.24N","longitude":"2.63W"}
{"date":"2012-02-01","average_temperature":"20.44","city":"Godhra","latitude":"23.31N","longitude":"74.27E"}
{"date":"2010-09-01","average_temperature":"25.513","city":"Goiânia","latitude":"16.87S","longitude":"48.56W"}
{"date":"2012-11-01","average_temperature":"23.721999999999998","city":"Goiânia","latitude":"16.87S","longitude":"48.56W"}
{"date":"2010-12-01","average_temperature":"13.539000000000001","city":"Gojra","latitude":"31.35N","longitude":"73.51E"}
{"date":"2012-12-01","average_temperature":"23.416999999999998","city":"Gold Coast","latitude":"28.13S","longitude":"153.64E"}
{"date":"2013-07-01","average_temperature":"17.302","city":"Gold Coast","latitude":"28.13S","longitude":"153.64E"}
{"date":"2012-10-01","average_temperature":"10.033999999999999","city":"Grand Rapids","latitude":"42.59N","longitude":"85.09W"}
{"date":"2011-04-01","average_temperature":"16.502","city":"Greensboro","latitude":"36.17N","longitude":"79.56W"}
{"date":"2013-07-01","average_temperature":"25.673000000000002","city":"Greensboro","latitude":"36.17N","longitude":"79.56W"}
{"date":"2010-06-01","average_temperature":"13.864","city":"Groningen","latitude":"53.84N","longitude":"6.82E"}
{"date":"2010-11-01","average_temperature":"18.115","city":"Guadalupe","latitude":"26.52N","longitude":"100.30W"}
{"date":"2010-01-01","average_temperature":"27.493000000000002","city":"Guarapari","latitude":"20.09S","longitude":"40.95W"}
{"date":"2011-01-01","average_temperature":"22.752","city":"Guarapuava","latitude":"24.92S","longitude":"51.43W"}
{"date":"2011-05-01","average_temperature":"21.127","city":"Guaratinguetá","latitude":"23.31S","longitude":"44.56W"}
{"date":"2010-08-01","average_temperature":"20.678","city":"Guayaquil","latitude":"2.41S","longitude":"79.55W"}
{"date":"2010-07-01","average_temperature":"30.326","city":"Gujrat","latitude":"32.95N","longitude":"73.72E"}
{"date":"2011-03-01","average_temperature":"20.612","city":"Gujrat","latitude":"32.95N","longitude":"73.72E"}
{"date":"2011-04-01","average_temperature":"28.956","city":"Gurgaon","latitude":"28.13N","longitude":"77.27E"}
{"date":"2010-05-01","average_temperature":"31.629","city":"Gusau","latitude":"12.05N","longitude":"6.58E"}
{"date":"2012-10-01","average_temperature":"26.1","city":"Gwalior","latitude":"26.52N","longitude":"78.81E"}
{"date":"2011-05-01","average_temperature":"13.610999999999999","city":"Gyumri","latitude":"40.99N","longitude":"44.73E"}
{"date":"2012-11-01","average_temperature":"6.885999999999999","city":"Gyumri","latitude":"40.99N","longitude":"44.73E"}
{"date":"2010-11-01","average_temperature":"9.515","city":"Hadano","latitude":"36.17N","longitude":"139.23E"}
{"date":"2010-12-01","average_temperature":"16.264","city":"Hai Phong","latitude":"21.70N","longitude":"106.44E"}
{"date":"2011-04-01","average_temperature":"21.912000000000006","city":"Hai Phong","latitude":"21.70N","longitude":"106.44E"}
{"date":"2012-01-01","average_temperature":"-11.977","city":"Haicheng","latitude":"40.99N","longitude":"123.55E"}
{"date":"2013-03-01","average_temperature":"15.52","city":"Haifa","latitude":"32.95N","longitude":"35.43E"}
{"date":"2010-08-01","average_temperature":"29.701999999999998","city":"Haldia","latitude":"21.70N","longitude":"87.40E"}
{"date":"2012-06-01","average_temperature":"11.735","city":"Halifax","latitude":"44.20N","longitude":"62.61W"}
{"date":"2013-07-01","average_temperature":"19.5","city":"Hamm","latitude":"52.24N","longitude":"7.88E"}
{"date":"2010-10-01","average_temperature":"14.936","city":"Handan","latitude":"36.17N","longitude":"115.36E"}
{"date":"2013-06-01","average_temperature":"22.768","city":"Hangu","latitude":"39.38N","longitude":"118.61E"}
{"date":"2012-09-01","average_temperature":"29.759","city":"Hapur","latitude":"28.13N","longitude":"77.27E"}
{"date":"2013-02-01","average_temperature":"17.823999999999995","city":"Hapur","latitude":"28.13N","longitude":"77.27E"}
{"date":"2012-01-01","average_temperature":"2.603","city":"Hartford","latitude":"40.99N","longitude":"72.43W"}
{"date":"2013-06-01","average_temperature":"25.401","city":"Hassan","latitude":"13.66N","longitude":"76.79E"}
{"date":"2011-10-01","average_temperature":"9.488999999999999","city":"Heilbronn","latitude":"49.03N","longitude":"9.80E"}
{"date":"2013-01-01","average_temperature":"4.1110000000000015","city":"Herat","latitude":"34.56N","longitude":"62.27E"}
{"date":"2010-11-01","average_temperature":"21.348000000000003","city":"Hialeah","latitude":"26.52N","longitude":"80.60W"}
{"date":"2012-10-01","average_temperature":"25.017","city":"Hialeah","latitude":"26.52N","longitude":"80.60W"}
{"date":"2010-04-01","average_temperature":"12.306","city":"Hirakata","latitude":"34.56N","longitude":"136.22E"}
{"date":"2013-08-01","average_temperature":"23.938","city":"Hirosaki","latitude":"40.99N","longitude":"140.59E"}
{"date":"2010-01-01","average_temperature":"15.870999999999999","city":"Hobart","latitude":"42.59S","longitude":"148.36E"}
{"date":"2011-08-01","average_temperature":"11.574000000000002","city":"Hobart","latitude":"42.59S","longitude":"148.36E"}
{"date":"2010-03-01","average_temperature":"8.934000000000003","city":"Hofu","latitude":"34.56N","longitude":"132.32E"}
{"date":"2011-01-01","average_temperature":"2.6870000000000003","city":"Hofu","latitude":"34.56N","longitude":"132.32E"}
{"date":"2012-09-01","average_temperature":"16.528","city":"Horlivka","latitude":"49.03N","longitude":"39.18E"}
{"date":"2010-01-01","average_temperature":"17.633","city":"Hoshangabad","latitude":"23.31N","longitude":"77.77E"}
{"date":"2011-08-01","average_temperature":"17.672","city":"Hrodna","latitude":"53.84N","longitude":"23.18E"}
{"date":"2010-06-01","average_temperature":"25.254","city":"Hsinchu","latitude":"24.92N","longitude":"120.59E"}
{"date":"2011-06-01","average_temperature":"16.824","city":"Huambo","latitude":"13.66S","longitude":"15.69E"}
{"date":"2012-07-01","average_temperature":"17.105","city":"Huambo","latitude":"13.66S","longitude":"15.69E"}
{"date":"2012-10-01","average_temperature":"25.295","city":"Hubli","latitude":"15.27N","longitude":"75.83E"}
{"date":"2012-06-01","average_temperature":"25.381","city":"Huelva","latitude":"37.78N","longitude":"6.10W"}
{"date":"2010-09-01","average_temperature":"30.418000000000006","city":"Hyderabad","latitude":"24.92N","longitude":"69.16E"}
{"date":"2013-01-01","average_temperature":"17.323","city":"Ibarra","latitude":"0.80N","longitude":"77.95W"}
{"date":"2010-12-01","average_temperature":"12.588","city":"Ichihara","latitude":"34.56N","longitude":"140.11E"}
{"date":"2012-07-01","average_temperature":"25.531999999999996","city":"Igboho","latitude":"8.84N","longitude":"4.05E"}
{"date":"2011-10-01","average_temperature":"20.851000000000006","city":"Iguala","latitude":"18.48N","longitude":"99.72W"}
{"date":"2010-09-01","average_temperature":"25.625999999999998","city":"Ikire","latitude":"7.23N","longitude":"4.05E"}
{"date":"2010-10-01","average_temperature":"14.842","city":"Independence","latitude":"39.38N","longitude":"93.64W"}
{"date":"2011-12-01","average_temperature":"25.916","city":"Iquitos","latitude":"4.02S","longitude":"73.13W"}
{"date":"2012-01-01","average_temperature":"14.259","city":"Irapuato","latitude":"20.09N","longitude":"100.66W"}
{"date":"2013-06-01","average_temperature":"20.789","city":"Irapuato","latitude":"20.09N","longitude":"100.66W"}
{"date":"2012-06-01","average_temperature":"26.072","city":"Irbid","latitude":"32.95N","longitude":"35.43E"}
{"date":"2011-08-01","average_temperature":"24.976999999999997","city":"Ise","latitude":"7.23N","longitude":"5.68E"}
{"date":"2011-10-01","average_temperature":"25.807","city":"Ise","latitude":"7.23N","longitude":"5.68E"}
{"date":"2011-05-01","average_temperature":"28.041","city":"Iseyin","latitude":"7.23N","longitude":"4.05E"}
{"date":"2011-08-01","average_temperature":"23.847","city":"Ishinomaki","latitude":"39.38N","longitude":"141.50E"}
{"date":"2010-06-01","average_temperature":"17.855999999999998","city":"Ivanovo","latitude":"57.05N","longitude":"39.84E"}
{"date":"2010-02-01","average_temperature":"7.273","city":"Iwakuni","latitude":"34.56N","longitude":"132.32E"}
{"date":"2011-07-01","average_temperature":"27.123","city":"Iwakuni","latitude":"34.56N","longitude":"132.32E"}
{"date":"2011-06-01","average_temperature":"19.342","city":"Jaú","latitude":"21.70S","longitude":"49.33W"}
{"date":"2011-01-01","average_temperature":"23.878","city":"Jacareí","latitude":"23.31S","longitude":"46.31W"}
{"date":"2010-02-01","average_temperature":"19.178","city":"Jacobabad","latitude":"28.13N","longitude":"68.18E"}
{"date":"2012-10-01","average_temperature":"27.675","city":"Jacobabad","latitude":"28.13N","longitude":"68.18E"}
{"date":"2010-12-01","average_temperature":"26.601999999999997","city":"Jakarta","latitude":"5.63S","longitude":"106.55E"}
{"date":"2010-11-01","average_temperature":"24.515","city":"Jamalpur","latitude":"24.92N","longitude":"86.90E"}
{"date":"2013-04-01","average_temperature":"28.902","city":"Jamame","latitude":"0.80N","longitude":"42.59E"}
{"date":"2012-08-01","average_temperature":"28.174","city":"Jamnagar","latitude":"21.70N","longitude":"70.10E"}
{"date":"2011-03-01","average_temperature":"21.92","city":"Jandira","latitude":"23.31S","longitude":"46.31W"}
{"date":"2010-08-01","average_temperature":"26.996","city":"Jerez","latitude":"36.17N","longitude":"5.97W"}
{"date":"2012-11-01","average_temperature":"20.971999999999998","city":"Jhansi","latitude":"24.92N","longitude":"78.03E"}
{"date":"2011-01-01","average_temperature":"9.207999999999998","city":"Jiangmen","latitude":"23.31N","longitude":"112.72E"}
{"date":"2012-02-01","average_temperature":"6.930999999999999","city":"Jiaojiang","latitude":"28.13N","longitude":"120.91E"}
{"date":"2012-12-01","average_temperature":"8.732000000000001","city":"Jiaojiang","latitude":"28.13N","longitude":"120.91E"}
{"date":"2011-04-01","average_temperature":"21.806","city":"Jieshi","latitude":"23.31N","longitude":"116.21E"}
{"date":"2010-03-01","average_temperature":"-8.309000000000001","city":"Jilin","latitude":"44.20N","longitude":"127.45E"}
{"date":"2012-01-01","average_temperature":"3.5669999999999997","city":"Jingdezhen","latitude":"29.74N","longitude":"116.31E"}
{"date":"2010-10-01","average_temperature":"5.066","city":"Jining","latitude":"40.99N","longitude":"112.90E"}
{"date":"2013-01-01","average_temperature":"2.074","city":"Joetsu","latitude":"37.78N","longitude":"138.31E"}
{"date":"2011-10-01","average_temperature":"17.85","city":"Johannesburg","latitude":"26.52S","longitude":"28.66E"}
{"date":"2011-02-01","average_temperature":"6.1549999999999985","city":"Juarez","latitude":"31.35N","longitude":"105.55W"}
{"date":"2012-08-01","average_temperature":"26.751","city":"Juarez","latitude":"31.35N","longitude":"105.55W"}
{"date":"2012-05-01","average_temperature":"25.98","city":"Juba","latitude":"4.02N","longitude":"31.34E"}
{"date":"2011-07-01","average_temperature":"26.403000000000002","city":"Kabul","latitude":"34.56N","longitude":"70.05E"}
{"date":"2010-12-01","average_temperature":"7.487","city":"Kadoma","latitude":"34.56N","longitude":"136.22E"}
{"date":"2011-09-01","average_temperature":"29.180999999999997","city":"Kakinada","latitude":"16.87N","longitude":"82.05E"}
{"date":"2011-07-01","average_temperature":"26.517","city":"Kakogawa","latitude":"34.56N","longitude":"134.27E"}
{"date":"2010-01-01","average_temperature":"2.608","city":"Kamagaya","latitude":"36.17N","longitude":"139.23E"}
{"date":"2012-11-01","average_temperature":"27.066","city":"Kandy","latitude":"7.23N","longitude":"80.27E"}
{"date":"2010-12-01","average_temperature":"24.804","city":"Kankan","latitude":"10.45N","longitude":"9.00W"}
{"date":"2012-05-01","average_temperature":"31.098000000000003","city":"Kano","latitude":"12.05N","longitude":"8.22E"}
{"date":"2010-02-01","average_temperature":"27.568","city":"Karawang","latitude":"5.63S","longitude":"106.55E"}
{"date":"2010-06-01","average_temperature":"27.388","city":"Karawang","latitude":"5.63S","longitude":"106.55E"}
{"date":"2013-01-01","average_temperature":"-6.282","city":"Kashi","latitude":"39.38N","longitude":"76.99E"}
{"date":"2012-10-01","average_temperature":"18.285","city":"Kashipur","latitude":"29.74N","longitude":"79.38E"}
{"date":"2013-08-01","average_temperature":"28.180999999999997","city":"Kasugai","latitude":"34.56N","longitude":"136.22E"}
{"date":"2010-05-01","average_temperature":"33.896","city":"Kasur","latitude":"31.35N","longitude":"73.51E"}
{"date":"2013-04-01","average_temperature":"27.055999999999997","city":"Kasur","latitude":"31.35N","longitude":"73.51E"}
{"date":"2011-11-01","average_temperature":"23.197","city":"Katihar","latitude":"24.92N","longitude":"86.90E"}
{"date":"2011-04-01","average_temperature":"7.604000000000001","city":"Kayseri","latitude":"39.38N","longitude":"35.38E"}
{"date":"2013-02-01","average_temperature":"-8.078999999999999","city":"Kazan","latitude":"55.45N","longitude":"48.19E"}
{"date":"2011-10-01","average_temperature":"9.846","city":"Kecskemét","latitude":"47.42N","longitude":"20.13E"}
{"date":"2010-05-01","average_temperature":"27.41","city":"Kedungwuni","latitude":"7.23S","longitude":"109.46E"}
{"date":"2013-07-01","average_temperature":"17.59","city":"Kelowna","latitude":"49.03N","longitude":"120.00W"}
{"date":"2013-05-01","average_temperature":"27.182","city":"Kemang","latitude":"7.23S","longitude":"106.22E"}
{"date":"2010-12-01","average_temperature":"6.456","city":"Kerch","latitude":"45.81N","longitude":"35.77E"}
{"date":"2010-02-01","average_temperature":"19.178","city":"Khairpur","latitude":"28.13N","longitude":"68.18E"}
{"date":"2010-02-01","average_temperature":"-1.8230000000000002","city":"Kherson","latitude":"47.42N","longitude":"31.97E"}
{"date":"2010-09-01","average_temperature":"27.361","city":"Khon Kaen","latitude":"16.87N","longitude":"102.14E"}
{"date":"2013-02-01","average_temperature":"17.823999999999995","city":"Khurja","latitude":"28.13N","longitude":"77.27E"}
{"date":"2013-09-01","city":"Kigali","latitude":"2.41S","longitude":"29.73E"}
{"date":"2010-10-01","average_temperature":"24.97","city":"Kinshasa","latitude":"4.02S","longitude":"15.27E"}
{"date":"2011-06-01","average_temperature":"23.225","city":"Kinshasa","latitude":"4.02S","longitude":"15.27E"}
{"date":"2012-05-01","average_temperature":"24.955","city":"Kinshasa","latitude":"4.02S","longitude":"15.27E"}
{"date":"2010-02-01","average_temperature":"10.642000000000001","city":"Kirkuk","latitude":"36.17N","longitude":"43.76E"}
{"date":"2011-07-01","average_temperature":"24.897","city":"Kisangani","latitude":"0.80N","longitude":"24.91E"}
{"date":"2010-04-01","average_temperature":"25.863000000000003","city":"Kisaran","latitude":"2.41N","longitude":"98.84E"}
{"date":"2010-06-01","average_temperature":"20.563000000000002","city":"Kislovodsk","latitude":"44.20N","longitude":"42.48E"}
{"date":"2011-08-01","average_temperature":"21.3","city":"Kisumu","latitude":"0.80S","longitude":"34.55E"}
{"date":"2011-03-01","average_temperature":"-2.6639999999999997","city":"Kitchener","latitude":"44.20N","longitude":"80.50W"}
{"date":"2012-01-01","average_temperature":"1.755","city":"Klaipeda","latitude":"55.45N","longitude":"19.84E"}
{"date":"2012-04-01","average_temperature":"5.837000000000001","city":"Klaipeda","latitude":"55.45N","longitude":"19.84E"}
{"date":"2013-05-01","average_temperature":"27.125","city":"Klaten","latitude":"7.23S","longitude":"111.08E"}
{"date":"2013-01-01","average_temperature":"23.485000000000007","city":"Klerksdorp","latitude":"26.52S","longitude":"26.87E"}
{"date":"2013-02-01","average_temperature":"27.848000000000003","city":"Kollam","latitude":"8.84N","longitude":"77.03E"}
{"date":"2010-04-01","average_temperature":"-1.906","city":"Komsomolsk Na Amure","latitude":"50.63N","longitude":"138.17E"}
{"date":"2013-01-01","average_temperature":"-0.462","city":"Konan","latitude":"36.17N","longitude":"137.24E"}
{"date":"2011-09-01","average_temperature":"18.829","city":"Konya","latitude":"37.78N","longitude":"32.54E"}
{"date":"2012-07-01","average_temperature":"27.436999999999998","city":"Korba","latitude":"21.70N","longitude":"82.21E"}
{"date":"2011-10-01","average_temperature":"27.393","city":"Kota","latitude":"24.92N","longitude":"76.26E"}
{"date":"2012-10-01","average_temperature":"6.0310000000000015","city":"Kovrov","latitude":"57.05N","longitude":"42.79E"}
{"date":"2010-09-01","average_temperature":"27.201999999999998","city":"Kuala Lumpur","latitude":"2.41N","longitude":"102.05E"}
{"date":"2012-08-01","average_temperature":"35.661","city":"Kuhdasht","latitude":"32.95N","longitude":"46.91E"}
{"date":"2012-09-01","average_temperature":"23.275","city":"Kumagaya","latitude":"36.17N","longitude":"139.23E"}
{"date":"2011-06-01","average_temperature":"22.88","city":"Kurashiki","latitude":"34.56N","longitude":"134.27E"}
{"date":"2012-01-01","average_temperature":"3.369","city":"Kurume","latitude":"32.95N","longitude":"131.17E"}
{"date":"2013-03-01","average_temperature":"10.8","city":"Kurume","latitude":"32.95N","longitude":"131.17E"}
{"date":"2010-06-01","average_temperature":"20.018","city":"Kuytun","latitude":"44.20N","longitude":"84.97E"}
{"date":"2013-01-01","average_temperature":"-18.744","city":"Kuytun","latitude":"44.20N","longitude":"84.97E"}
{"date":"2010-10-01","average_temperature":"15.614","city":"Lárisa","latitude":"39.38N","longitude":"22.89E"}
{"date":"2011-07-01","average_temperature":"16.901","city":"Lübeck","latitude":"53.84N","longitude":"9.55E"}
{"date":"2010-10-01","average_temperature":"14.611","city":"Laiwu","latitude":"36.17N","longitude":"117.35E"}
{"date":"2011-06-01","average_temperature":"31.336","city":"Lakhnau","latitude":"26.52N","longitude":"80.60E"}
{"date":"2011-08-01","average_temperature":"19.041","city":"Lambaré","latitude":"24.92S","longitude":"58.52W"}
{"date":"2010-01-01","average_temperature":"2.366","city":"Laohekou","latitude":"32.95N","longitude":"112.02E"}
{"date":"2012-10-01","average_temperature":"23.862","city":"Laredo","latitude":"28.13N","longitude":"99.09W"}
{"date":"2012-09-01","average_temperature":"14.515999999999998","city":"Lausanne","latitude":"45.81N","longitude":"5.77E"}
{"date":"2012-06-01","average_temperature":"12.655999999999999","city":"Leeds","latitude":"53.84N","longitude":"1.36W"}
{"date":"2012-02-01","average_temperature":"-4.8610000000000015","city":"Legnica","latitude":"50.63N","longitude":"16.48E"}
{"date":"2011-09-01","average_temperature":"16.04","city":"Leverkusen","latitude":"50.63N","longitude":"6.34E"}
{"date":"2010-02-01","average_temperature":"2.331","city":"Liaocheng","latitude":"36.17N","longitude":"115.36E"}
{"date":"2012-03-01","average_temperature":"13.095999999999998","city":"Lincoln","latitude":"40.99N","longitude":"95.86W"}
{"date":"2010-08-01","average_temperature":"22.398000000000003","city":"Linhares","latitude":"20.09S","longitude":"39.24W"}
{"date":"2013-05-01","average_temperature":"18.245","city":"Lipetsk","latitude":"52.24N","longitude":"39.42E"}
{"date":"2010-11-01","average_temperature":"27.228","city":"Livingstone","latitude":"18.48S","longitude":"25.35E"}
{"date":"2013-05-01","average_temperature":"15.536","city":"Lleida","latitude":"40.99N","longitude":"0.00W"}
{"date":"2010-03-01","average_temperature":"25.087","city":"Londrina","latitude":"23.31S","longitude":"51.55W"}
{"date":"2012-10-01","average_temperature":"5.738","city":"Longfeng","latitude":"45.81N","longitude":"125.77E"}
{"date":"2011-09-01","average_temperature":"29.399","city":"Loni","latitude":"28.13N","longitude":"77.27E"}
{"date":"2011-10-01","average_temperature":"12.497","city":"Los Angeles","latitude":"37.78S","longitude":"73.22W"}
{"date":"2013-09-01","average_temperature":"30.929000000000002","city":"Los Mochis","latitude":"26.52N","longitude":"109.25W"}
{"date":"2010-04-01","average_temperature":"13.780999999999999","city":"Luan","latitude":"31.35N","longitude":"116.86E"}
{"date":"2010-12-01","average_temperature":"7.3599999999999985","city":"Lubbock","latitude":"32.95N","longitude":"102.45W"}
{"date":"2010-12-01","average_temperature":"5.547999999999999","city":"Luohe","latitude":"32.95N","longitude":"113.94E"}
{"date":"2010-12-01","average_temperature":"6.5280000000000005","city":"Maanshan","latitude":"31.35N","longitude":"118.74E"}
{"date":"2012-08-01","average_temperature":"19.344","city":"Macaé","latitude":"21.70S","longitude":"42.40W"}
{"date":"2012-12-01","average_temperature":"20.987","city":"Machala","latitude":"4.02S","longitude":"79.55W"}
{"date":"2011-04-01","average_temperature":"3.569","city":"Magnitogorsk","latitude":"53.84N","longitude":"58.64E"}
{"date":"2011-01-01","average_temperature":"27.12","city":"Mahajanga","latitude":"15.27S","longitude":"45.83E"}
{"date":"2013-01-01","average_temperature":"24.980999999999998","city":"Maiduguri","latitude":"12.05N","longitude":"13.15E"}
{"date":"2011-08-01","average_temperature":"26.999000000000002","city":"Makasar","latitude":"5.63S","longitude":"119.46E"}
{"date":"2011-11-01","average_temperature":"28.039","city":"Malang","latitude":"7.23S","longitude":"112.70E"}
{"date":"2011-08-01","average_temperature":"30.678","city":"Maler Kotla","latitude":"29.74N","longitude":"75.69E"}
{"date":"2011-11-01","average_temperature":"26.656","city":"Manado","latitude":"0.80N","longitude":"124.55E"}
{"date":"2013-02-01","average_temperature":"14.559","city":"Mandi Bahauddin","latitude":"32.95N","longitude":"73.72E"}
{"date":"2010-11-01","average_temperature":"26.546","city":"Manila","latitude":"15.27N","longitude":"120.83E"}
{"date":"2012-08-01","average_temperature":"27.451999999999998","city":"Manisa","latitude":"39.38N","longitude":"27.05E"}
{"date":"2010-10-01","average_temperature":"23.957","city":"Maoming","latitude":"21.70N","longitude":"111.63E"}
{"date":"2010-11-01","average_temperature":"24.14","city":"Maputo","latitude":"26.52S","longitude":"32.24E"}
{"date":"2013-04-01","average_temperature":"28.529","city":"Masaya","latitude":"12.05N","longitude":"85.48W"}
{"date":"2011-04-01","average_temperature":"15.445","city":"Mashhad","latitude":"36.17N","longitude":"59.67E"}
{"date":"2012-06-01","average_temperature":"23.203000000000003","city":"Mataró","latitude":"40.99N","longitude":"2.13E"}
{"date":"2011-01-01","average_temperature":"13.376","city":"Mathura","latitude":"28.13N","longitude":"77.27E"}
{"date":"2011-09-01","average_temperature":"23.851000000000006","city":"Matsusaka","latitude":"34.56N","longitude":"136.22E"}
{"date":"2010-10-01","average_temperature":"19.398","city":"Mauá","latitude":"23.31S","longitude":"46.31W"}
{"date":"2012-08-01","average_temperature":"25.069000000000006","city":"Mbandaka","latitude":"0.80N","longitude":"18.48E"}
{"date":"2012-05-01","average_temperature":"25.590999999999998","city":"Mbour","latitude":"13.66N","longitude":"17.34W"}
{"date":"2010-07-01","average_temperature":"27.936","city":"Medan","latitude":"4.02N","longitude":"98.84E"}
{"date":"2011-12-01","average_temperature":"18.724","city":"Medellín","latitude":"5.63N","longitude":"75.87W"}
{"date":"2011-01-01","average_temperature":"23.072","city":"Meiktila","latitude":"20.09N","longitude":"95.55E"}
{"date":"2011-01-01","average_temperature":"26.233","city":"Melaka","latitude":"2.41N","longitude":"102.05E"}
{"date":"2013-08-01","average_temperature":"10.440999999999999","city":"Melbourne","latitude":"37.78S","longitude":"144.41E"}
{"date":"2010-11-01","average_temperature":"21.348000000000003","city":"Miami","latitude":"26.52N","longitude":"80.60W"}
{"date":"2011-06-01","average_temperature":"15.311","city":"Miass","latitude":"55.45N","longitude":"59.53E"}
{"date":"2011-07-01","average_temperature":"26.945999999999998","city":"Mingshui","latitude":"36.17N","longitude":"117.35E"}
{"date":"2010-06-01","average_temperature":"21.572","city":"Mixco","latitude":"15.27N","longitude":"90.83W"}
{"date":"2012-02-01","average_temperature":"13.436","city":"Mobile","latitude":"31.35N","longitude":"88.59W"}
{"date":"2013-05-01","average_temperature":"30.928","city":"Mokolo","latitude":"10.45N","longitude":"13.91E"}
{"date":"2010-02-01","average_temperature":"5.052999999999999","city":"Montgomery","latitude":"32.95N","longitude":"87.13W"}
{"date":"2011-12-01","average_temperature":"6.962999999999999","city":"Moreno Valley","latitude":"34.56N","longitude":"116.76W"}
{"date":"2010-06-01","average_temperature":"32.667","city":"Morvi","latitude":"23.31N","longitude":"70.78E"}
{"date":"2012-09-01","average_temperature":"6.65","city":"Murmansk","latitude":"68.31N","longitude":"34.70E"}
{"date":"2010-06-01","average_temperature":"32.585","city":"Muzaffarnagar","latitude":"29.74N","longitude":"77.54E"}
{"date":"2011-02-01","average_temperature":"16.454","city":"Muzaffarnagar","latitude":"29.74N","longitude":"77.54E"}
{"date":"2012-01-01","average_temperature":"15.092","city":"Muzaffarpur","latitude":"26.52N","longitude":"85.97E"}
{"date":"2011-09-01","average_temperature":"24.862","city":"Mwene Ditu","latitude":"7.23S","longitude":"23.51E"}
{"date":"2012-02-01","average_temperature":"28.061999999999998","city":"My Tho","latitude":"10.45N","longitude":"105.55E"}
{"date":"2011-09-01","average_temperature":"28.607000000000006","city":"Myingyan","latitude":"21.70N","longitude":"96.06E"}
{"date":"2010-03-01","average_temperature":"29.593","city":"Nadiad","latitude":"23.31N","longitude":"72.52E"}
{"date":"2011-09-01","average_temperature":"27.599","city":"Nadiad","latitude":"23.31N","longitude":"72.52E"}
{"date":"2012-11-01","average_temperature":"24.257","city":"Najran","latitude":"16.87N","longitude":"43.53E"}
{"date":"2011-05-01","average_temperature":"29.049","city":"Nakhon Ratchasima","latitude":"15.27N","longitude":"102.50E"}
{"date":"2012-01-01","average_temperature":"-4.097","city":"Nalchik","latitude":"42.59N","longitude":"43.64E"}
{"date":"2012-06-01","average_temperature":"31.369","city":"Nandurbar","latitude":"21.70N","longitude":"73.56E"}
{"date":"2013-07-01","average_temperature":"28.271","city":"Nanning","latitude":"23.31N","longitude":"107.48E"}
{"date":"2012-07-01","average_temperature":"24.636","city":"Nanpiao","latitude":"40.99N","longitude":"121.42E"}
{"date":"2010-03-01","average_temperature":"20.282","city":"Nantou","latitude":"23.31N","longitude":"121.46E"}
{"date":"2010-08-01","average_temperature":"24.854","city":"Naples","latitude":"40.99N","longitude":"14.91E"}
{"date":"2012-02-01","average_temperature":"14.095999999999998","city":"Naucalpan","latitude":"20.09N","longitude":"98.96W"}
{"date":"2011-03-01","average_temperature":"3.153","city":"Nazran","latitude":"44.20N","longitude":"44.72E"}
{"date":"2011-02-01","average_temperature":"21.246","city":"Nazret","latitude":"8.84N","longitude":"39.73E"}
{"date":"2011-09-01","average_temperature":"23.04","city":"Ndola","latitude":"13.66S","longitude":"28.90E"}
{"date":"2012-09-01","average_temperature":"26.202","city":"Neiva","latitude":"2.41N","longitude":"74.73W"}
{"date":"2012-06-01","average_temperature":"5.5489999999999995","city":"Neuquen","latitude":"39.38S","longitude":"68.67W"}
{"date":"2011-03-01","average_temperature":"5.394","city":"Newcastle Upon Tyne","latitude":"55.45N","longitude":"2.83W"}
{"date":"2013-09-01","city":"Newport","latitude":"52.24N","longitude":"2.63W"}
{"date":"2012-04-01","average_temperature":"16.217","city":"Neyshabur","latitude":"36.17N","longitude":"59.67E"}
{"date":"2010-09-01","average_temperature":"22.111","city":"Ngaoundéré","latitude":"7.23N","longitude":"13.78E"}
{"date":"2012-08-01","average_temperature":"27.604","city":"Niamey","latitude":"13.66N","longitude":"2.48E"}
{"date":"2011-03-01","average_temperature":"5.921","city":"Nice","latitude":"44.20N","longitude":"6.71E"}
{"date":"2010-08-01","average_temperature":"12.197","city":"Nigel","latitude":"26.52S","longitude":"28.66E"}
{"date":"2013-02-01","average_temperature":"1.5589999999999995","city":"Nijmegen","latitude":"52.24N","longitude":"5.26E"}
{"date":"2010-06-01","average_temperature":"18.861","city":"Nis","latitude":"42.59N","longitude":"21.82E"}
{"date":"2011-01-01","average_temperature":"2.86","city":"Nishinomiya","latitude":"34.56N","longitude":"136.22E"}
{"date":"2011-09-01","average_temperature":"22.92","city":"Nkongsamba","latitude":"5.63N","longitude":"9.69E"}
{"date":"2012-04-01","average_temperature":"28.579","city":"Nnewi","latitude":"5.63N","longitude":"6.46E"}
{"date":"2012-04-01","average_temperature":"8.144","city":"Noginsk","latitude":"55.45N","longitude":"39.69E"}
{"date":"2011-02-01","average_temperature":"8.491","city":"Norfolk","latitude":"36.17N","longitude":"75.58W"}
{"date":"2010-02-01","average_temperature":"2.812","city":"Northampton","latitude":"52.24N","longitude":"0.00W"}
{"date":"2012-08-01","average_temperature":"17.697000000000006","city":"Norwich","latitude":"52.24N","longitude":"0.00W"}
{"date":"2011-08-01","average_temperature":"15.155999999999999","city":"Nottingham","latitude":"53.84N","longitude":"1.36W"}
{"date":"2013-08-01","average_temperature":"30.499000000000002","city":"Nouakchott","latitude":"18.48N","longitude":"15.21W"}
{"date":"2012-02-01","average_temperature":"24.737","city":"Nova Friburgo","latitude":"21.70S","longitude":"42.40W"}
{"date":"2011-11-01","average_temperature":"-4.367","city":"Novocheboksarsk","latitude":"55.45N","longitude":"48.19E"}
{"date":"2011-05-01","average_temperature":"11.269","city":"Novokuznetsk","latitude":"53.84N","longitude":"85.91E"}
{"date":"2013-02-01","average_temperature":"-1.8019999999999998","city":"Nuremberg","latitude":"49.03N","longitude":"12.24E"}
{"date":"2011-06-01","average_temperature":"19.386","city":"Odesa","latitude":"45.81N","longitude":"31.15E"}
{"date":"2011-09-01","average_temperature":"25.842","city":"Offa","latitude":"8.84N","longitude":"4.05E"}
{"date":"2012-10-01","average_temperature":"26.184","city":"Okrika","latitude":"4.02N","longitude":"7.23E"}
{"date":"2011-10-01","average_temperature":"14.55","city":"Olathe","latitude":"39.38N","longitude":"95.72W"}
{"date":"2011-12-01","average_temperature":"3.25","city":"Ome","latitude":"36.17N","longitude":"139.23E"}
{"date":"2013-03-01","average_temperature":"15.344","city":"Orange","latitude":"32.95N","longitude":"117.77W"}
{"date":"2010-03-01","average_temperature":"16.666","city":"Orlando","latitude":"28.13N","longitude":"80.91W"}
{"date":"2011-11-01","average_temperature":"0.3620000000000001","city":"Orumiyeh","latitude":"37.78N","longitude":"44.75E"}
{"date":"2010-04-01","average_temperature":"13.706","city":"Osmaniye","latitude":"37.78N","longitude":"36.61E"}
{"date":"2011-02-01","average_temperature":"3.734","city":"Ota","latitude":"36.17N","longitude":"139.23E"}
{"date":"2012-08-01","average_temperature":"26.680999999999997","city":"Ota","latitude":"36.17N","longitude":"139.23E"}
{"date":"2013-07-01","average_temperature":"25.324","city":"Owo","latitude":"7.23N","longitude":"5.68E"}
{"date":"2010-10-01","average_temperature":"10.466","city":"Oxford","latitude":"52.24N","longitude":"0.00W"}
{"date":"2012-04-01","average_temperature":"7.496","city":"Oxford","latitude":"52.24N","longitude":"0.00W"}
{"date":"2010-07-01","average_temperature":"23.435","city":"Pécs","latitude":"45.81N","longitude":"17.31E"}
{"date":"2010-10-01","average_temperature":"9.057","city":"Pécs","latitude":"45.81N","longitude":"17.31E"}
{"date":"2010-07-01","average_temperature":"28.954","city":"Pétionville","latitude":"18.48N","longitude":"72.68W"}
{"date":"2011-09-01","average_temperature":"28.226","city":"Pétionville","latitude":"18.48N","longitude":"72.68W"}
{"date":"2010-06-01","average_temperature":"26.618000000000002","city":"Pôrto Velho","latitude":"8.84S","longitude":"64.05W"}
{"date":"2010-03-01","average_temperature":"19.835","city":"Paarl","latitude":"34.56S","longitude":"19.46E"}
{"date":"2012-01-01","average_temperature":"18.549","city":"Pabna","latitude":"23.31N","longitude":"90.00E"}
{"date":"2011-05-01","average_temperature":"17.146","city":"Palermo","latitude":"37.78N","longitude":"14.24E"}
{"date":"2011-08-01","average_temperature":"29.956999999999997","city":"Pali","latitude":"26.52N","longitude":"73.43E"}
{"date":"2012-05-01","average_temperature":"34.601","city":"Pali","latitude":"26.52N","longitude":"73.43E"}
{"date":"2013-06-01","average_temperature":"32.996","city":"Pallavaram","latitude":"13.66N","longitude":"80.09E"}
{"date":"2010-11-01","average_temperature":"12.114","city":"Palmdale","latitude":"34.56N","longitude":"118.70W"}
{"date":"2013-09-01","city":"Pamanukan","latitude":"5.63S","longitude":"108.16E"}
{"date":"2013-04-01","average_temperature":"4.792","city":"Panevezys","latitude":"55.45N","longitude":"25.51E"}
{"date":"2010-01-01","average_temperature":"12.42","city":"Panipat","latitude":"29.74N","longitude":"77.54E"}
{"date":"2012-11-01","average_temperature":"12.395","city":"Panzhihua","latitude":"26.52N","longitude":"102.09E"}
{"date":"2011-04-01","average_temperature":"27.449","city":"Parnaíba","latitude":"2.41S","longitude":"40.98W"}
{"date":"2010-02-01","average_temperature":"4.397","city":"Parsabad","latitude":"39.38N","longitude":"47.86E"}
{"date":"2013-04-01","average_temperature":"6.497999999999999","city":"Penza","latitude":"53.84N","longitude":"45.00E"}
{"date":"2011-03-01","average_temperature":"17.597","city":"Peoria","latitude":"32.95N","longitude":"112.02W"}
{"date":"2011-11-01","average_temperature":"26.826999999999998","city":"Perbaungan","latitude":"4.02N","longitude":"98.84E"}
{"date":"2012-06-01","average_temperature":"25.673000000000002","city":"Peristérion","latitude":"37.78N","longitude":"24.41E"}
{"date":"2011-09-01","average_temperature":"15.767000000000001","city":"Peterborough","latitude":"52.24N","longitude":"0.00W"}
{"date":"2011-01-01","average_temperature":"-1.238","city":"Philadelphia","latitude":"39.38N","longitude":"74.91W"}
{"date":"2012-04-01","average_temperature":"12.135","city":"Philadelphia","latitude":"39.38N","longitude":"74.91W"}
{"date":"2010-03-01","average_temperature":"26.386","city":"Pilibhit","latitude":"28.13N","longitude":"79.09E"}
{"date":"2013-08-01","average_temperature":"25.441","city":"Pindiga","latitude":"10.45N","longitude":"10.64E"}
{"date":"2010-09-01","average_temperature":"27.500999999999998","city":"Pingchen","latitude":"24.92N","longitude":"120.59E"}
{"date":"2010-12-01","average_temperature":"3.96","city":"Pingdingshan","latitude":"34.56N","longitude":"112.86E"}
{"date":"2011-02-01","average_temperature":"23.115","city":"Plây Cu","latitude":"13.66N","longitude":"108.17E"}
{"date":"2011-01-01","average_temperature":"4.596","city":"Plymouth","latitude":"50.63N","longitude":"3.80W"}
{"date":"2010-12-01","average_temperature":"24.151","city":"Ponce","latitude":"18.48N","longitude":"65.92W"}
{"date":"2011-08-01","average_temperature":"26.295","city":"Ponnani","latitude":"10.45N","longitude":"76.09E"}
{"date":"2012-04-01","average_temperature":"26.98","city":"Pontianak","latitude":"0.80S","longitude":"110.09E"}
{"date":"2010-02-01","average_temperature":"4.683","city":"Poole","latitude":"50.63N","longitude":"1.27W"}
{"date":"2012-06-01","average_temperature":"28.65","city":"Port Au Prince","latitude":"18.48N","longitude":"72.68W"}
{"date":"2010-07-01","average_temperature":"27.936999999999998","city":"Port Said","latitude":"31.35N","longitude":"32.04E"}
{"date":"2010-07-01","average_temperature":"28.711","city":"Portmore","latitude":"18.48N","longitude":"76.06W"}
{"date":"2010-11-01","average_temperature":"27.203000000000003","city":"Portmore","latitude":"18.48N","longitude":"76.06W"}
{"date":"2012-01-01","average_temperature":"26.756","city":"Probolinggo","latitude":"7.23S","longitude":"112.70E"}
{"date":"2012-03-01","average_temperature":"30.451","city":"Proddatur","latitude":"15.27N","longitude":"79.17E"}
{"date":"2011-12-01","average_temperature":"-13.181","city":"Prokopyevsk","latitude":"53.84N","longitude":"85.91E"}
{"date":"2010-06-01","average_temperature":"19.733","city":"Providence","latitude":"42.59N","longitude":"72.00W"}
{"date":"2012-08-01","average_temperature":"29.910999999999998","city":"Pudukkottai","latitude":"10.45N","longitude":"79.36E"}
{"date":"2012-09-01","average_temperature":"28.849","city":"Puerto Vallarta","latitude":"20.09N","longitude":"105.78W"}
{"date":"2012-01-01","average_temperature":"20.298","city":"Pune","latitude":"18.48N","longitude":"74.37E"}
{"date":"2012-05-01","average_temperature":"22.828000000000007","city":"Puqi","latitude":"29.74N","longitude":"114.46E"}
{"date":"2010-02-01","average_temperature":"24.796","city":"Pyay","latitude":"18.48N","longitude":"94.65E"}
{"date":"2011-11-01","average_temperature":"17.852999999999998","city":"Qena","latitude":"26.52N","longitude":"32.24E"}
{"date":"2010-10-01","average_temperature":"4.718","city":"Qiqihar","latitude":"47.42N","longitude":"124.34E"}
{"date":"2010-05-01","average_temperature":"14.796","city":"Qitaihe","latitude":"45.81N","longitude":"130.38E"}
{"date":"2011-07-01","average_temperature":"23.305","city":"Qitaihe","latitude":"45.81N","longitude":"130.38E"}
{"date":"2011-09-01","average_temperature":"14.726","city":"Qostanay","latitude":"53.84N","longitude":"64.09E"}
{"date":"2010-05-01","average_temperature":"24.838","city":"Queimados","latitude":"23.31S","longitude":"42.82W"}
{"date":"2013-03-01","average_temperature":"5.9300000000000015","city":"Qunduz","latitude":"36.17N","longitude":"69.61E"}
{"date":"2010-05-01","average_temperature":"15.689","city":"Ranghulu","latitude":"47.42N","longitude":"124.34E"}
{"date":"2010-10-01","average_temperature":"27.647","city":"Rantauprapat","latitude":"2.41N","longitude":"100.45E"}
{"date":"2012-01-01","average_temperature":"2.417","city":"Rasht","latitude":"37.78N","longitude":"48.81E"}
{"date":"2013-09-01","city":"Rawang","latitude":"4.02N","longitude":"102.05E"}
{"date":"2011-01-01","average_temperature":"5.8740000000000006","city":"Reading","latitude":"50.63N","longitude":"1.27W"}
{"date":"2012-06-01","average_temperature":"13.161","city":"Reading","latitude":"50.63N","longitude":"1.27W"}
{"date":"2012-10-01","average_temperature":"9.95","city":"Recklinghausen","latitude":"52.24N","longitude":"7.88E"}
{"date":"2012-11-01","average_temperature":"17.542","city":"Reggio Di Calabria","latitude":"37.78N","longitude":"16.27E"}
{"date":"2012-12-01","average_temperature":"2.7910000000000004","city":"Reno","latitude":"39.38N","longitude":"120.69W"}
{"date":"2012-12-01","average_temperature":"1.872","city":"Reutlingen","latitude":"49.03N","longitude":"9.80E"}
{"date":"2010-02-01","average_temperature":"13.413","city":"Reynosa","latitude":"26.52N","longitude":"98.51W"}
{"date":"2010-10-01","average_temperature":"22.612","city":"Ribeirão Das Neves","latitude":"20.09S","longitude":"44.36W"}
{"date":"2010-12-01","average_temperature":"23.216","city":"Ribeirão Pires","latitude":"23.31S","longitude":"46.31W"}
{"date":"2013-06-01","average_temperature":"16.436","city":"Richards Bay","latitude":"28.13S","longitude":"31.82E"}
{"date":"2010-01-01","average_temperature":"9.599","city":"Richmond","latitude":"37.78N","longitude":"122.03W"}
{"date":"2010-08-01","average_temperature":"19.276","city":"Riga","latitude":"57.05N","longitude":"25.08E"}
{"date":"2010-12-01","average_temperature":"-4.2970000000000015","city":"Rochester","latitude":"42.59N","longitude":"78.55W"}
{"date":"2010-08-01","average_temperature":"20.222","city":"Roseville","latitude":"39.38N","longitude":"120.69W"}
{"date":"2013-01-01","average_temperature":"2.565","city":"Roseville","latitude":"39.38N","longitude":"120.69W"}
{"date":"2012-02-01","average_temperature":"-13.42","city":"Ryazan","latitude":"53.84N","longitude":"39.55E"}
{"date":"2010-05-01","average_temperature":"21.250999999999998","city":"São José Do Rio Prêto","latitude":"20.09S","longitude":"49.48W"}
{"date":"2012-09-01","average_temperature":"20.464000000000002","city":"São José Dos Campos","latitude":"23.31S","longitude":"46.31W"}
{"date":"2011-10-01","average_temperature":"24.75","city":"Sabha","latitude":"26.52N","longitude":"14.33E"}
{"date":"2012-03-01","average_temperature":"23.741","city":"Sadiqabad","latitude":"28.13N","longitude":"70.00E"}
{"date":"2012-02-01","average_temperature":"4.122","city":"Saga","latitude":"32.95N","longitude":"131.17E"}
{"date":"2010-04-01","average_temperature":"9.589","city":"Sagamihara","latitude":"36.17N","longitude":"139.23E"}
{"date":"2011-03-01","average_temperature":"-2.7200000000000006","city":"Saint Petersburg","latitude":"60.27N","longitude":"29.19E"}
{"date":"2010-10-01","average_temperature":"15.880999999999998","city":"Saitama","latitude":"36.17N","longitude":"139.23E"}
{"date":"2010-05-01","average_temperature":"17.619","city":"Sakai","latitude":"34.56N","longitude":"136.22E"}
{"date":"2010-01-01","average_temperature":"22.149","city":"Salalah","latitude":"16.87N","longitude":"53.58E"}
{"date":"2010-07-01","average_temperature":"25.357","city":"Salerno","latitude":"40.99N","longitude":"14.91E"}
{"date":"2010-09-01","average_temperature":"19.965","city":"Salerno","latitude":"40.99N","longitude":"14.91E"}
{"date":"2013-06-01","average_temperature":"20.384","city":"Salinas","latitude":"36.17N","longitude":"121.33W"}
{"date":"2012-11-01","average_temperature":"25.555999999999997","city":"Salvador","latitude":"13.66S","longitude":"38.81W"}
{"date":"2012-09-01","average_temperature":"14.137","city":"Salzgitter","latitude":"52.24N","longitude":"10.51E"}
{"date":"2010-12-01","average_temperature":"26.795","city":"Samarinda","latitude":"0.80S","longitude":"116.52E"}
{"date":"2013-03-01","average_temperature":"27.739","city":"Samarinda","latitude":"0.80S","longitude":"116.52E"}
{"date":"2013-07-01","average_temperature":"22.098000000000003","city":"San Cristóbal","latitude":"7.23N","longitude":"72.16W"}
{"date":"2010-08-01","average_temperature":"19.428","city":"San Diego","latitude":"32.95N","longitude":"117.77W"}
{"date":"2012-06-01","average_temperature":"17.34","city":"San Diego","latitude":"32.95N","longitude":"117.77W"}
{"date":"2012-09-01","average_temperature":"28.462","city":"San Francisco De Macorís","latitude":"20.09N","longitude":"69.95W"}
{"date":"2012-11-01","average_temperature":"24.372","city":"San José","latitude":"10.45N","longitude":"84.27W"}
{"date":"2010-10-01","average_temperature":"22.405","city":"San Lorenzo","latitude":"24.92S","longitude":"56.75W"}
{"date":"2012-06-01","average_temperature":"18.633000000000006","city":"San Lorenzo","latitude":"24.92S","longitude":"56.75W"}
{"date":"2013-06-01","average_temperature":"21.023000000000003","city":"San Luis Potosí","latitude":"21.70N","longitude":"101.25W"}
{"date":"2010-10-01","average_temperature":"18.467","city":"Sanandaj","latitude":"34.56N","longitude":"46.70E"}
{"date":"2012-01-01","average_temperature":"14.267000000000001","city":"Sanchung","latitude":"24.92N","longitude":"120.59E"}
{"date":"2012-05-01","average_temperature":"26.58","city":"Sancti Spíritus","latitude":"21.70N","longitude":"78.75W"}
{"date":"2010-05-01","average_temperature":"27.199","city":"Santa Catarina","latitude":"26.52N","longitude":"100.30W"}
{"date":"2011-04-01","average_temperature":"22.529","city":"Santa Luzia","latitude":"20.09S","longitude":"44.36W"}
{"date":"2010-08-01","average_temperature":"14.6","city":"Santa Maria","latitude":"29.74S","longitude":"53.54W"}
{"date":"2012-02-01","average_temperature":"25.581999999999997","city":"Sapucaia","latitude":"29.74S","longitude":"51.69W"}
{"date":"2010-03-01","average_temperature":"-4.737","city":"Saratov","latitude":"52.24N","longitude":"47.30E"}
{"date":"2011-01-01","average_temperature":"-15.569","city":"Saskatoon","latitude":"52.24N","longitude":"107.74W"}
{"date":"2012-09-01","average_temperature":"29.653000000000002","city":"Satkhira","latitude":"23.31N","longitude":"88.25E"}
{"date":"2013-05-01","average_temperature":"35.869","city":"Seoni","latitude":"21.70N","longitude":"78.75E"}
{"date":"2011-08-01","average_temperature":"17.548000000000002","city":"Sergiyev Posad","latitude":"57.05N","longitude":"36.89E"}
{"date":"2012-02-01","average_temperature":"28.872","city":"Shagamu","latitude":"7.23N","longitude":"4.05E"}
{"date":"2012-12-01","average_temperature":"4.486000000000001","city":"Shahrud","latitude":"36.17N","longitude":"55.69E"}
{"date":"2011-11-01","average_temperature":"14.734000000000002","city":"Shashi","latitude":"29.74N","longitude":"112.62E"}
{"date":"2012-10-01","average_temperature":"23.761","city":"Shenzhen","latitude":"23.31N","longitude":"114.47E"}
{"date":"2012-11-01","average_temperature":"22.799000000000003","city":"Sherpur","latitude":"24.92N","longitude":"90.44E"}
{"date":"2013-04-01","average_temperature":"22.694000000000003","city":"Shinyanga","latitude":"4.02S","longitude":"32.95E"}
{"date":"2013-03-01","average_temperature":"28.986","city":"Sholapur","latitude":"18.48N","longitude":"76.06E"}
{"date":"2011-02-01","average_temperature":"-1.778","city":"Shymkent","latitude":"42.59N","longitude":"69.82E"}
{"date":"2012-10-01","average_temperature":"23.759","city":"Sialkot","latitude":"32.95N","longitude":"73.72E"}
{"date":"2011-06-01","average_temperature":"30.366999999999997","city":"Siwan","latitude":"26.52N","longitude":"84.18E"}
{"date":"2011-12-01","average_temperature":"5.707999999999999","city":"Slough","latitude":"52.24N","longitude":"0.00W"}
{"date":"2011-01-01","average_temperature":"-5.976000000000001","city":"Smolensk","latitude":"55.45N","longitude":"31.18E"}
{"date":"2013-05-01","average_temperature":"20.113","city":"Sogamoso","latitude":"5.63N","longitude":"72.65W"}
{"date":"2013-09-01","city":"Sogamoso","latitude":"5.63N","longitude":"72.65W"}
{"date":"2011-05-01","average_temperature":"28.493000000000002","city":"Sohag","latitude":"26.52N","longitude":"32.24E"}
{"date":"2010-08-01","average_temperature":"26.868000000000002","city":"Soledad","latitude":"10.45N","longitude":"74.45W"}
{"date":"2012-02-01","average_temperature":"27.555999999999997","city":"Sorong","latitude":"0.80S","longitude":"130.98E"}
{"date":"2012-09-01","average_temperature":"27.296","city":"Sorong","latitude":"0.80S","longitude":"130.98E"}
{"date":"2010-03-01","average_temperature":"5.625","city":"South Bend","latitude":"40.99N","longitude":"85.21W"}
{"date":"2010-01-01","average_temperature":"6.69","city":"Spring Valley","latitude":"36.17N","longitude":"115.36W"}
{"date":"2011-07-01","average_temperature":"29.808000000000003","city":"Springfield","latitude":"37.78N","longitude":"93.56W"}
{"date":"2013-01-01","average_temperature":"-4.14","city":"Springfield","latitude":"42.59N","longitude":"72.00W"}
{"date":"2012-12-01","average_temperature":"3.809","city":"Stockport","latitude":"53.84N","longitude":"1.36W"}
{"date":"2010-09-01","average_temperature":"14.388","city":"Suihua","latitude":"47.42N","longitude":"126.71E"}
{"date":"2011-08-01","average_temperature":"28.85","city":"Suining","latitude":"29.74N","longitude":"105.23E"}
{"date":"2011-03-01","average_temperature":"28.734","city":"Suriapet","latitude":"16.87N","longitude":"80.37E"}
{"date":"2012-01-01","average_temperature":"10.934","city":"Susah","latitude":"36.17N","longitude":"9.94E"}
{"date":"2013-09-01","city":"Sutton Coldfield","latitude":"52.24N","longitude":"2.63W"}
{"date":"2011-02-01","average_temperature":"-4.686","city":"Syracuse","latitude":"42.59N","longitude":"76.36W"}
{"date":"2010-06-01","average_temperature":"21.425","city":"Syzran","latitude":"53.84N","longitude":"47.73E"}
{"date":"2012-07-01","average_temperature":"24.684","city":"Tétouan","latitude":"36.17N","longitude":"5.97W"}
{"date":"2012-02-01","average_temperature":"-2.8120000000000003","city":"Tabriz","latitude":"37.78N","longitude":"46.78E"}
{"date":"2011-10-01","average_temperature":"23.599","city":"Tabuk","latitude":"28.13N","longitude":"37.27E"}
{"date":"2012-02-01","average_temperature":"-9.427","city":"Taganrog","latitude":"47.42N","longitude":"39.08E"}
{"date":"2010-06-01","average_temperature":"25.254","city":"Taichung","latitude":"24.92N","longitude":"120.59E"}
{"date":"2011-08-01","average_temperature":"20.924","city":"Taiyuan","latitude":"37.78N","longitude":"111.86E"}
{"date":"2010-02-01","average_temperature":"2.267","city":"Tajimi","latitude":"36.17N","longitude":"137.24E"}
{"date":"2012-08-01","average_temperature":"26.820999999999998","city":"Tajimi","latitude":"36.17N","longitude":"137.24E"}
{"date":"2013-03-01","average_temperature":"18.025","city":"Tali","latitude":"24.92N","longitude":"120.59E"}
{"date":"2011-08-01","average_temperature":"26.372","city":"Tamale","latitude":"8.84N","longitude":"0.81W"}
{"date":"2012-06-01","average_temperature":"27.218000000000004","city":"Taman","latitude":"7.23S","longitude":"112.70E"}
{"date":"2013-06-01","average_temperature":"32.996","city":"Tambaram","latitude":"13.66N","longitude":"80.09E"}
{"date":"2010-07-01","average_temperature":"26.541","city":"Tambov","latitude":"52.24N","longitude":"42.04E"}
{"date":"2013-09-01","city":"Tambov","latitude":"52.24N","longitude":"42.04E"}
{"date":"2011-11-01","average_temperature":"20.834","city":"Tampa","latitude":"28.13N","longitude":"82.73W"}
{"date":"2012-03-01","average_temperature":"-0.00199999999999978","city":"Tampere","latitude":"61.88N","longitude":"22.08E"}
{"date":"2012-07-01","average_temperature":"34.666","city":"Tando Adam","latitude":"26.52N","longitude":"68.06E"}
{"date":"2012-04-01","average_temperature":"21.638","city":"Tanshui","latitude":"24.92N","longitude":"120.59E"}
{"date":"2012-01-01","average_temperature":"14.267000000000001","city":"Taoyüan","latitude":"24.92N","longitude":"120.59E"}
{"date":"2012-04-01","average_temperature":"21.638","city":"Taoyüan","latitude":"24.92N","longitude":"120.59E"}
{"date":"2010-01-01","average_temperature":"15.833","city":"Tarhunah","latitude":"32.95N","longitude":"14.36E"}
{"date":"2010-10-01","average_temperature":"17.689999999999994","city":"Tarragona","latitude":"40.99N","longitude":"2.13E"}
{"date":"2010-10-01","average_temperature":"24.13","city":"Tartus","latitude":"34.56N","longitude":"35.03E"}
{"date":"2011-12-01","average_temperature":"20.334","city":"Taunggyi","latitude":"20.09N","longitude":"97.25E"}
{"date":"2012-07-01","average_temperature":"25.379","city":"Tema","latitude":"5.63N","longitude":"0.00W"}
{"date":"2010-12-01","average_temperature":"17.462","city":"Tepic","latitude":"21.70N","longitude":"104.71W"}
{"date":"2010-10-01","average_temperature":"29.308000000000003","city":"Teresina","latitude":"5.63S","longitude":"43.59W"}
{"date":"2011-10-01","average_temperature":"26.995","city":"Ternate","latitude":"0.80N","longitude":"127.77E"}
{"date":"2011-02-01","average_temperature":"27.831","city":"Teshie","latitude":"5.63N","longitude":"0.00W"}
{"date":"2012-03-01","average_temperature":"28.656999999999996","city":"Teshie","latitude":"5.63N","longitude":"0.00W"}
{"date":"2012-07-01","average_temperature":"20.014","city":"Tete","latitude":"16.87S","longitude":"33.49E"}
{"date":"2011-06-01","average_temperature":"26.886999999999997","city":"Thaton","latitude":"16.87N","longitude":"97.12E"}
{"date":"2010-03-01","average_temperature":"9.219","city":"Thessaloníki","latitude":"40.99N","longitude":"23.43E"}
{"date":"2010-04-01","average_temperature":"31.87","city":"Tiruchchirappalli","latitude":"10.45N","longitude":"79.36E"}
{"date":"2010-08-01","average_temperature":"25.733","city":"Tirunelveli","latitude":"8.84N","longitude":"77.03E"}
{"date":"2012-05-01","average_temperature":"24.71","city":"Toluca","latitude":"18.48N","longitude":"99.72W"}
{"date":"2010-08-01","average_temperature":"24.559","city":"Toms River","latitude":"39.38N","longitude":"74.91W"}
{"date":"2012-11-01","average_temperature":"21.736","city":"Tonk","latitude":"26.52N","longitude":"75.22E"}
{"date":"2010-12-01","average_temperature":"4.022","city":"Torrejón De Ardoz","latitude":"40.99N","longitude":"4.26W"}
{"date":"2013-07-01","average_temperature":"24.093000000000004","city":"Toulon","latitude":"42.59N","longitude":"6.55E"}
{"date":"2010-05-01","average_temperature":"13.155999999999999","city":"Tours","latitude":"47.42N","longitude":"1.18E"}
{"date":"2011-08-01","average_temperature":"21.206","city":"Townsville","latitude":"18.48S","longitude":"147.04E"}
{"date":"2011-01-01","average_temperature":"2.86","city":"Toyota","latitude":"34.56N","longitude":"136.22E"}
{"date":"2011-12-01","average_temperature":"21.384","city":"Trelew","latitude":"42.59S","longitude":"65.45W"}
{"date":"2010-09-01","average_temperature":"29.659","city":"Trincomalee","latitude":"8.84N","longitude":"81.89E"}
{"date":"2013-05-01","average_temperature":"22.982","city":"Tripoli","latitude":"32.95N","longitude":"12.45E"}
{"date":"2011-05-01","average_temperature":"18.685","city":"Trujillo","latitude":"8.84S","longitude":"78.65W"}
{"date":"2013-05-01","average_temperature":"24.415","city":"Tubruq","latitude":"31.35N","longitude":"24.50E"}
{"date":"2010-11-01","average_temperature":"12.55","city":"Tucson","latitude":"31.35N","longitude":"111.20W"}
{"date":"2013-04-01","average_temperature":"29.8","city":"Tumkur","latitude":"13.66N","longitude":"76.79E"}
{"date":"2010-11-01","average_temperature":"16.048000000000002","city":"Tunis","latitude":"36.17N","longitude":"9.94E"}
{"date":"2012-10-01","average_temperature":"22.308000000000003","city":"Tunis","latitude":"36.17N","longitude":"9.94E"}
{"date":"2010-12-01","average_temperature":"19.447","city":"Tunja","latitude":"5.63N","longitude":"72.65W"}
{"date":"2012-10-01","average_temperature":"8.744","city":"Tychy","latitude":"50.63N","longitude":"19.01E"}
{"date":"2012-02-01","average_temperature":"1.8419999999999999","city":"Ueda","latitude":"36.17N","longitude":"139.23E"}
{"date":"2011-11-01","average_temperature":"27.351999999999997","city":"Ungaran","latitude":"7.23S","longitude":"111.08E"}
{"date":"2013-07-01","average_temperature":"29.816999999999997","city":"Unnao","latitude":"26.52N","longitude":"80.60E"}
{"date":"2012-12-01","average_temperature":"26.811999999999998","city":"Uromi","latitude":"7.23N","longitude":"5.68E"}
{"date":"2011-11-01","average_temperature":"23.868","city":"Uruguaiana","latitude":"29.74S","longitude":"57.23W"}
{"date":"2011-02-01","average_temperature":"3.375","city":"Usak","latitude":"39.38N","longitude":"29.13E"}
{"date":"2013-09-01","city":"Uzhhorod","latitude":"49.03N","longitude":"22.04E"}
{"date":"2012-08-01","average_temperature":"11.956","city":"Valparaiso","latitude":"32.95S","longitude":"71.81W"}
{"date":"2012-10-01","average_temperature":"7.888999999999999","city":"Vancouver","latitude":"49.03N","longitude":"122.45W"}
{"date":"2012-10-01","average_temperature":"10.969000000000001","city":"Vancouver","latitude":"45.81N","longitude":"123.46W"}
{"date":"2013-08-01","average_temperature":"29.364","city":"Varanasi","latitude":"24.92N","longitude":"83.35E"}
{"date":"2013-04-01","average_temperature":"21.258000000000003","city":"Varginha","latitude":"21.70S","longitude":"45.87W"}
{"date":"2011-10-01","average_temperature":"13.094000000000001","city":"Varna","latitude":"42.59N","longitude":"28.36E"}
{"date":"2013-05-01","average_temperature":"13.17","city":"Verona","latitude":"45.81N","longitude":"10.38E"}
{"date":"2010-04-01","average_temperature":"7.057","city":"Victoria","latitude":"49.03N","longitude":"122.45W"}
{"date":"2011-02-01","average_temperature":"21.586","city":"Vidisha","latitude":"23.31N","longitude":"77.77E"}
{"date":"2010-09-01","average_temperature":"18.41","city":"Vigo","latitude":"42.59N","longitude":"8.73W"}
{"date":"2010-12-01","average_temperature":"21.325","city":"Vinh","latitude":"18.48N","longitude":"106.48E"}
{"date":"2011-06-01","average_temperature":"9.134","city":"Virginia","latitude":"28.13S","longitude":"26.36E"}
{"date":"2011-04-01","average_temperature":"13.655","city":"Visalia","latitude":"36.17N","longitude":"119.34W"}
{"date":"2011-03-01","average_temperature":"1.127","city":"Vladikavkaz","latitude":"42.59N","longitude":"43.64E"}
{"date":"2010-05-01","average_temperature":"35.369","city":"Warangal","latitude":"18.48N","longitude":"79.44E"}
{"date":"2011-11-01","average_temperature":"24.53","city":"Wardha","latitude":"20.09N","longitude":"78.48E"}
{"date":"2012-11-01","average_temperature":"18.326","city":"Wazirabad","latitude":"32.95N","longitude":"73.72E"}
{"date":"2013-09-01","city":"Weihai","latitude":"37.78N","longitude":"122.03E"}
{"date":"2011-09-01","average_temperature":"10.511","city":"Wellington","latitude":"40.99S","longitude":"174.67E"}
{"date":"2010-03-01","average_temperature":"5.0630000000000015","city":"West Valley City","latitude":"40.99N","longitude":"112.90W"}
{"date":"2010-10-01","average_temperature":"11.205","city":"Westminster","latitude":"39.38N","longitude":"104.05W"}
{"date":"2012-08-01","average_temperature":"26.223000000000003","city":"Wichita","latitude":"37.78N","longitude":"97.63W"}
{"date":"2013-06-01","average_temperature":"25.154","city":"Wichita","latitude":"37.78N","longitude":"97.63W"}
{"date":"2010-12-01","average_temperature":"-3.911000000000001","city":"Wiesbaden","latitude":"50.63N","longitude":"8.87E"}
{"date":"2010-07-01","average_temperature":"15.328","city":"Windhoek","latitude":"23.31S","longitude":"16.60E"}
{"date":"2011-05-01","average_temperature":"20.153","city":"Winston Salem","latitude":"36.17N","longitude":"79.56W"}
{"date":"2013-07-01","average_temperature":"19.317","city":"Wroclaw","latitude":"50.63N","longitude":"16.48E"}
{"date":"2012-02-01","average_temperature":"-7.21","city":"Wuda","latitude":"39.38N","longitude":"106.13E"}
{"date":"2010-06-01","average_temperature":"24.184","city":"Wuxi","latitude":"31.35N","longitude":"120.63E"}
{"date":"2010-04-01","average_temperature":"14.107000000000001","city":"Wuxue","latitude":"29.74N","longitude":"116.31E"}
{"date":"2011-02-01","average_temperature":"2.43","city":"Xian","latitude":"34.56N","longitude":"108.97E"}
{"date":"2010-02-01","average_temperature":"8.769","city":"Xiangdong","latitude":"28.13N","longitude":"113.64E"}
{"date":"2011-07-01","average_temperature":"29.535","city":"Xiantao","latitude":"29.74N","longitude":"112.62E"}
{"date":"2012-07-01","average_temperature":"22.133000000000003","city":"Xingyi","latitude":"24.92N","longitude":"104.63E"}
{"date":"2012-05-01","average_temperature":"21.923000000000002","city":"Xinpu","latitude":"34.56N","longitude":"118.70E"}
{"date":"2010-03-01","average_temperature":"8.002","city":"Xuchang","latitude":"34.56N","longitude":"112.86E"}
{"date":"2010-10-01","average_temperature":"23.38","city":"Yüanlin","latitude":"24.92N","longitude":"120.59E"}
{"date":"2010-08-01","average_temperature":"28.959","city":"Yangzhou","latitude":"32.95N","longitude":"119.68E"}
{"date":"2011-03-01","average_temperature":"4.0360000000000005","city":"Yantai","latitude":"37.78N","longitude":"122.03E"}
{"date":"2011-06-01","average_temperature":"30.429000000000002","city":"Yazd","latitude":"31.35N","longitude":"54.66E"}
{"date":"2011-10-01","average_temperature":"4.9369999999999985","city":"Yekaterinburg","latitude":"57.05N","longitude":"60.49E"}
{"date":"2010-04-01","average_temperature":"29.579","city":"Yelahanka","latitude":"13.66N","longitude":"76.79E"}
{"date":"2012-05-01","average_temperature":"22.785999999999998","city":"Yingzhong","latitude":"31.35N","longitude":"113.09E"}
{"date":"2010-04-01","average_temperature":"10.168","city":"Yonago","latitude":"36.17N","longitude":"133.26E"}
{"date":"2010-09-01","average_temperature":"23.851","city":"Yonago","latitude":"36.17N","longitude":"133.26E"}
{"date":"2011-06-01","average_temperature":"25.989","city":"Yongan","latitude":"26.52N","longitude":"118.21E"}
{"date":"2011-10-01","average_temperature":"12.001","city":"Yonkers","latitude":"40.99N","longitude":"74.56W"}
{"date":"2011-01-01","average_temperature":"-10.732000000000001","city":"Yuci","latitude":"37.78N","longitude":"111.86E"}
{"date":"2011-12-01","average_temperature":"14.796","city":"Yulin","latitude":"21.70N","longitude":"109.90E"}
{"date":"2012-05-01","average_temperature":"24.708000000000002","city":"Yungho","latitude":"24.92N","longitude":"122.36E"}
{"date":"2011-05-01","average_temperature":"12.784","city":"Yushu","latitude":"44.20N","longitude":"127.45E"}
{"date":"2011-12-01","average_temperature":"7.1789999999999985","city":"Yuyao","latitude":"29.74N","longitude":"121.85E"}
{"date":"2013-03-01","average_temperature":"8.47","city":"Zhangdian","latitude":"36.17N","longitude":"117.35E"}
{"date":"2010-08-01","average_temperature":"28.432","city":"Zhangzhou","latitude":"24.92N","longitude":"117.04E"}
{"date":"2012-09-01","average_temperature":"27.003","city":"Zhanjiang","latitude":"21.70N","longitude":"109.90E"}
{"date":"2012-12-01","average_temperature":"16.708000000000002","city":"Zhanjiang","latitude":"21.70N","longitude":"109.90E"}
{"date":"2013-07-01","average_temperature":"28.544","city":"Zhanjiang","latitude":"21.70N","longitude":"109.90E"}
{"date":"2010-07-01","average_temperature":"23.735","city":"Zhezkazgan","latitude":"47.42N","longitude":"67.50E"}
{"date":"2010-05-01","average_temperature":"19.563","city":"Zhicheng","latitude":"29.74N","longitude":"110.77E"}
{"date":"2011-10-01","average_temperature":"14.782","city":"Zhoucheng","latitude":"24.92N","longitude":"102.86E"}
{"date":"2013-03-01","average_temperature":"13.901","city":"Zhuzhou","latitude":"28.13N","longitude":"113.64E"}
{"date":"2010-06-01","average_temperature":"19.956000000000003","city":"Zonguldak","latitude":"40.99N","longitude":"31.95E"}
