{"date":"2011-02-01","average_temperature":"1.6929999999999998","city":"Çorum","latitude":"40.99N","longitude":"34.08E"}
{"date":"2012-04-01","average_temperature":"8.0","city":"Aachen","latitude":"50.63N","longitude":"6.34E"}
{"date":"2011-08-01","average_temperature":"24.824","city":"Abidjan","latitude":"5.63N","longitude":"3.23W"}
{"date":"2011-08-01","average_temperature":"27.305","city":"Acarigua","latitude":"8.84N","longitude":"68.92W"}
{"date":"2012-01-01","average_temperature":"10.075","city":"Adana","latitude":"36.17N","longitude":"35.80E"}
{"date":"2011-06-01","average_temperature":"18.805","city":"Addis Abeba","latitude":"8.84N","longitude":"38.11E"}
{"date":"2013-03-01","average_temperature":"22.401000000000003","city":"Adelaide","latitude":"34.56S","longitude":"138.16E"}
{"date":"2011-03-01","average_temperature":"25.301","city":"Aden","latitude":"13.66N","longitude":"45.41E"}
{"date":"2011-06-01","average_temperature":"30.14","city":"Aden","latitude":"13.66N","longitude":"45.41E"}
{"date":"2011-02-01","average_temperature":"13.252","city":"Agadir","latitude":"29.74N","longitude":"9.23W"}
{"date":"2012-01-01","average_temperature":"11.594000000000001","city":"Agadir","latitude":"29.74N","longitude":"9.23W"}
{"date":"2010-11-01","average_temperature":"15.282000000000002","city":"Aguascalientes","latitude":"21.70N","longitude":"102.98W"}
{"date":"2012-11-01","average_temperature":"16.485000000000007","city":"Aguascalientes","latitude":"21.70N","longitude":"102.98W"}
{"date":"2011-04-01","average_temperature":"12.274000000000001","city":"Akashi","latitude":"34.56N","longitude":"134.27E"}
{"date":"2012-05-01","average_temperature":"16.669999999999998","city":"Akishima","latitude":"36.17N","longitude":"139.23E"}
{"date":"2010-01-01","average_temperature":"2.099","city":"Akita","latitude":"39.38N","longitude":"139.42E"}
{"date":"2011-01-01","average_temperature":"1.7080000000000002","city":"Aksaray","latitude":"37.78N","longitude":"34.58E"}
{"date":"2011-04-01","average_temperature":"13.135","city":"Albury","latitude":"36.17S","longitude":"147.18E"}
{"date":"2013-03-01","average_temperature":"4.303","city":"Alexandria","latitude":"39.38N","longitude":"76.99W"}
{"date":"2012-10-01","average_temperature":"19.451","city":"Algiers","latitude":"36.17N","longitude":"3.98E"}
{"date":"2013-09-01","city":"Algiers","latitude":"36.17N","longitude":"3.98E"}
{"date":"2010-08-01","average_temperature":"16.912000000000006","city":"Almere","latitude":"52.24N","longitude":"5.26E"}
{"date":"2010-02-01","average_temperature":"29.521","city":"Amaigbo","latitude":"5.63N","longitude":"8.07E"}
{"date":"2010-12-01","average_temperature":"25.46","city":"Ambarnath","latitude":"18.48N","longitude":"72.68E"}
{"date":"2010-05-01","average_temperature":"31.235","city":"Ambur","latitude":"12.05N","longitude":"78.90E"}
{"date":"2012-03-01","average_temperature":"26.512","city":"Anand","latitude":"23.31N","longitude":"72.52E"}
{"date":"2010-05-01","average_temperature":"21.636000000000006","city":"Anqing","latitude":"31.35N","longitude":"116.86E"}
{"date":"2012-01-01","average_temperature":"10.075","city":"Antakya","latitude":"36.17N","longitude":"35.80E"}
{"date":"2013-09-01","city":"Antakya","latitude":"36.17N","longitude":"35.80E"}
{"date":"2011-08-01","average_temperature":"26.794","city":"Antipolo","latitude":"15.27N","longitude":"120.83E"}
{"date":"2013-02-01","average_temperature":"28.791","city":"Anyama","latitude":"5.63N","longitude":"4.84W"}
{"date":"2010-09-01","average_temperature":"25.558000000000003","city":"Apopa","latitude":"13.66N","longitude":"90.00W"}
{"date":"2012-09-01","average_temperature":"14.125","city":"Aqtöbe","latitude":"50.63N","longitude":"57.04E"}
{"date":"2011-09-01","average_temperature":"19.283","city":"Arad","latitude":"45.81N","longitude":"21.92E"}
{"date":"2010-09-01","average_temperature":"29.781","city":"Araguaína","latitude":"7.23S","longitude":"47.84W"}
{"date":"2010-10-01","average_temperature":"16.933","city":"Araucária","latitude":"24.92S","longitude":"49.66W"}
{"date":"2012-11-01","average_temperature":"10.847000000000001","city":"Ardabil","latitude":"37.78N","longitude":"48.81E"}
{"date":"2013-02-01","average_temperature":"22.288","city":"Arica","latitude":"18.48S","longitude":"70.99W"}
{"date":"2010-07-01","average_temperature":"18.031","city":"Arkhangelsk","latitude":"65.09N","longitude":"40.21E"}
{"date":"2013-06-01","average_temperature":"27.691","city":"Arlington","latitude":"32.95N","longitude":"96.70W"}
{"date":"2010-08-01","average_temperature":"22.785","city":"Armenia","latitude":"4.02N","longitude":"76.34W"}
{"date":"2010-03-01","average_temperature":"-2.951","city":"Arvada","latitude":"39.38N","longitude":"106.13W"}
{"date":"2010-07-01","average_temperature":"18.980999999999998","city":"Asahikawa","latitude":"44.20N","longitude":"143.11E"}
{"date":"2010-03-01","average_temperature":"29.03","city":"Asansol","latitude":"23.31N","longitude":"86.50E"}
{"date":"2010-06-01","average_temperature":"31.636999999999997","city":"Asansol","latitude":"23.31N","longitude":"86.50E"}
{"date":"2013-09-01","city":"Astana","latitude":"50.63N","longitude":"72.25E"}
{"date":"2013-08-01","average_temperature":"23.921","city":"Astrakhan","latitude":"45.81N","longitude":"47.31E"}
{"date":"2011-09-01","average_temperature":"22.453000000000007","city":"Asunción","latitude":"24.92S","longitude":"58.52W"}
{"date":"2013-07-01","average_temperature":"33.694","city":"Aswan","latitude":"23.31N","longitude":"32.33E"}
{"date":"2010-08-01","average_temperature":"28.649","city":"Ayer Itam","latitude":"5.63N","longitude":"100.09E"}
{"date":"2013-05-01","average_temperature":"32.247","city":"Azare","latitude":"12.05N","longitude":"9.86E"}
{"date":"2010-07-01","average_temperature":"28.886999999999997","city":"Badajoz","latitude":"39.38N","longitude":"6.24W"}
{"date":"2011-12-01","average_temperature":"-1.9280000000000002","city":"Baglan","latitude":"36.17N","longitude":"69.61E"}
{"date":"2011-06-01","average_temperature":"34.838","city":"Bahawalnagar","latitude":"29.74N","longitude":"73.85E"}
{"date":"2010-02-01","average_temperature":"22.959","city":"Baidyabati","latitude":"23.31N","longitude":"88.25E"}
{"date":"2011-05-01","average_temperature":"13.982","city":"Balashikha","latitude":"55.45N","longitude":"36.85E"}
{"date":"2011-07-01","average_temperature":"27.046","city":"Balikpapan","latitude":"0.80S","longitude":"116.52E"}
{"date":"2011-09-01","average_temperature":"20.646","city":"Baltimore","latitude":"39.38N","longitude":"76.99W"}
{"date":"2011-06-01","average_temperature":"31.953000000000007","city":"Bama","latitude":"12.05N","longitude":"13.15E"}
{"date":"2010-05-01","average_temperature":"25.066000000000006","city":"Bamenda","latitude":"5.63N","longitude":"9.69E"}
{"date":"2010-12-01","average_temperature":"7.711","city":"Bandar E Anzali","latitude":"37.78N","longitude":"48.81E"}
{"date":"2013-01-01","average_temperature":"26.864","city":"Banjarmasin","latitude":"4.02S","longitude":"114.91E"}
{"date":"2010-08-01","average_temperature":"29.494","city":"Bareli","latitude":"28.13N","longitude":"79.09E"}
{"date":"2011-08-01","average_temperature":"23.69","city":"Barinas","latitude":"8.84N","longitude":"70.54W"}
{"date":"2011-04-01","average_temperature":"28.055999999999997","city":"Barisal","latitude":"23.31N","longitude":"90.00E"}
{"date":"2011-11-01","average_temperature":"-8.953","city":"Barnaul","latitude":"53.84N","longitude":"83.18E"}
{"date":"2013-04-01","average_temperature":"7.53","city":"Basildon","latitude":"52.24N","longitude":"0.00W"}
{"date":"2011-07-01","average_temperature":"31.085","city":"Batman","latitude":"37.78N","longitude":"40.68E"}
{"date":"2010-01-01","average_temperature":"25.534000000000002","city":"Baturaja","latitude":"4.02S","longitude":"103.66E"}
{"date":"2010-01-01","average_temperature":"23.835","city":"Bayamo","latitude":"20.09N","longitude":"76.78W"}
{"date":"2012-06-01","average_temperature":"19.656","city":"Beian","latitude":"47.42N","longitude":"126.71E"}
{"date":"2012-10-01","average_temperature":"3.943","city":"Beian","latitude":"47.42N","longitude":"126.71E"}
{"date":"2010-12-01","average_temperature":"16.479000000000006","city":"Beihai","latitude":"21.70N","longitude":"109.90E"}
{"date":"2012-11-01","average_temperature":"27.094","city":"Bekasi","latitude":"5.63S","longitude":"106.55E"}
{"date":"2013-03-01","average_temperature":"28.534000000000002","city":"Belém","latitude":"0.80S","longitude":"49.02W"}
{"date":"2013-05-01","average_temperature":"27.29","city":"Belém","latitude":"0.80S","longitude":"49.02W"}
{"date":"2011-05-01","average_temperature":"16.756","city":"Belgorod","latitude":"50.63N","longitude":"36.76E"}
{"date":"2011-10-01","average_temperature":"21.969","city":"Belo Horizonte","latitude":"20.09S","longitude":"44.36W"}
{"date":"2013-06-01","average_temperature":"28.392","city":"Benha","latitude":"29.74N","longitude":"31.38E"}
{"date":"2011-01-01","average_temperature":"14.396999999999998","city":"Beni Suef","latitude":"29.74N","longitude":"31.38E"}
{"date":"2012-03-01","average_temperature":"16.461","city":"Beni Suef","latitude":"29.74N","longitude":"31.38E"}
{"date":"2012-12-01","average_temperature":"0.059000000000000004","city":"Bergamo","latitude":"45.81N","longitude":"10.38E"}
{"date":"2011-11-01","average_temperature":"25.613000000000003","city":"Bhadravati","latitude":"13.66N","longitude":"75.14E"}
{"date":"2011-11-01","average_temperature":"22.978","city":"Bhairab Bazar","latitude":"24.92N","longitude":"90.44E"}
{"date":"2011-02-01","average_temperature":"-2.7110000000000003","city":"Bielsko Biala","latitude":"50.63N","longitude":"19.01E"}
{"date":"2011-06-01","average_temperature":"26.169","city":"Binzhou","latitude":"37.78N","longitude":"117.97E"}
{"date":"2010-04-01","average_temperature":"19.286","city":"Bisho","latitude":"32.95S","longitude":"27.77E"}
{"date":"2013-07-01","average_temperature":"16.154","city":"Bisho","latitude":"32.95S","longitude":"27.77E"}
{"date":"2013-01-01","average_temperature":"3.0269999999999997","city":"Blackburn","latitude":"53.84N","longitude":"1.36W"}
{"date":"2012-05-01","average_temperature":"21.315","city":"Blumenau","latitude":"26.52S","longitude":"48.36W"}
{"date":"2011-11-01","average_temperature":"28.311","city":"Boa Vista","latitude":"2.41N","longitude":"60.27W"}
{"date":"2011-02-01","average_temperature":"28.934","city":"Bobo Dioulasso","latitude":"10.45N","longitude":"4.09W"}
{"date":"2010-10-01","average_temperature":"27.021","city":"Bohicon","latitude":"7.23N","longitude":"2.43E"}
{"date":"2013-05-01","average_temperature":"15.819","city":"Borujerd","latitude":"34.56N","longitude":"48.65E"}
{"date":"2011-05-01","average_temperature":"21.916","city":"Bozhou","latitude":"32.95N","longitude":"115.85E"}
{"date":"2010-01-01","average_temperature":"23.738000000000003","city":"Bragança Paulista","latitude":"23.31S","longitude":"46.31W"}
{"date":"2012-04-01","average_temperature":"12.854000000000001","city":"Braila","latitude":"45.81N","longitude":"28.85E"}
{"date":"2013-09-01","city":"Breda","latitude":"52.24N","longitude":"5.26E"}
{"date":"2010-09-01","average_temperature":"15.165999999999999","city":"Brescia","latitude":"45.81N","longitude":"10.38E"}
{"date":"2010-10-01","average_temperature":"13.474","city":"Bridgeport","latitude":"40.99N","longitude":"72.43W"}
{"date":"2011-08-01","average_temperature":"28.318","city":"Brikama","latitude":"13.66N","longitude":"17.34W"}
{"date":"2012-02-01","average_temperature":"24.334","city":"Brits","latitude":"24.92S","longitude":"28.37E"}
{"date":"2011-10-01","average_temperature":"5.819","city":"Bryansk","latitude":"53.84N","longitude":"34.09E"}
{"date":"2010-09-01","average_temperature":"14.684","city":"Budapest","latitude":"47.42N","longitude":"20.13E"}
{"date":"2011-05-01","average_temperature":"22.574","city":"Buenaventura","latitude":"4.02N","longitude":"76.34W"}
{"date":"2011-07-01","average_temperature":"22.804000000000002","city":"Buenaventura","latitude":"4.02N","longitude":"76.34W"}
{"date":"2011-01-01","average_temperature":"10.432","city":"Burbank","latitude":"34.56N","longitude":"118.70W"}
{"date":"2011-03-01","average_temperature":"23.479","city":"Burewala","latitude":"29.74N","longitude":"72.00E"}
{"date":"2010-01-01","average_temperature":"3.4960000000000004","city":"Burgas","latitude":"42.59N","longitude":"28.36E"}
{"date":"2012-07-01","average_temperature":"19.125","city":"Burgos","latitude":"42.59N","longitude":"4.36W"}
{"date":"2012-08-01","average_temperature":"20.833000000000002","city":"Burgos","latitude":"42.59N","longitude":"4.36W"}
{"date":"2010-06-01","average_temperature":"21.811","city":"Butembo","latitude":"0.80N","longitude":"29.73E"}
{"date":"2011-06-01","average_temperature":"18.101","city":"Bydgoszcz","latitude":"53.84N","longitude":"17.73E"}
{"date":"2012-04-01","average_temperature":"25.405","city":"Córdoba","latitude":"18.48N","longitude":"96.34W"}
{"date":"2012-11-01","average_temperature":"26.382","city":"Cúa","latitude":"10.45N","longitude":"66.27W"}
{"date":"2013-02-01","average_temperature":"24.781999999999996","city":"Cúa","latitude":"10.45N","longitude":"66.27W"}
{"date":"2013-04-01","average_temperature":"22.035999999999998","city":"Cúcuta","latitude":"7.23N","longitude":"72.16W"}
{"date":"2011-02-01","average_temperature":"28.146","city":"Cabo Frio","latitude":"23.31S","longitude":"42.82W"}
{"date":"2011-05-01","average_temperature":"14.4","city":"Caen","latitude":"49.03N","longitude":"0.00W"}
{"date":"2010-08-01","average_temperature":"22.785","city":"Cali","latitude":"4.02N","longitude":"76.34W"}
{"date":"2012-09-01","average_temperature":"26.935","city":"Cam Pha","latitude":"21.70N","longitude":"108.17E"}
{"date":"2011-03-01","average_temperature":"24.114","city":"Camagüey","latitude":"21.70N","longitude":"78.75W"}
{"date":"2013-05-01","average_temperature":"26.467","city":"Camagüey","latitude":"21.70N","longitude":"78.75W"}
{"date":"2011-05-01","average_temperature":"24.62","city":"Campina Grande","latitude":"7.23S","longitude":"36.49W"}
{"date":"2010-11-01","average_temperature":"24.386000000000006","city":"Capiatá","latitude":"24.92S","longitude":"56.75W"}
{"date":"2013-06-01","average_temperature":"26.927","city":"Carúpano","latitude":"10.45N","longitude":"63.00W"}
{"date":"2010-07-01","average_temperature":"27.941999999999997","city":"Carolina","latitude":"18.48N","longitude":"65.92W"}
{"date":"2012-10-01","average_temperature":"23.141","city":"Cascavel","latitude":"24.92S","longitude":"53.20W"}
{"date":"2011-01-01","average_temperature":"25.309","city":"Catanduva","latitude":"21.70S","longitude":"49.33W"}
{"date":"2011-07-01","average_temperature":"27.22","city":"Cebu","latitude":"10.45N","longitude":"123.55E"}
{"date":"2010-09-01","average_temperature":"27.941000000000006","city":"Chakwal","latitude":"32.95N","longitude":"73.72E"}
{"date":"2012-09-01","average_temperature":"17.866","city":"Chandigarh","latitude":"31.35N","longitude":"77.28E"}
{"date":"2013-04-01","average_temperature":"16.624000000000002","city":"Changde","latitude":"28.13N","longitude":"111.82E"}
{"date":"2011-08-01","average_temperature":"17.703","city":"Charleroi","latitude":"50.63N","longitude":"3.80E"}
{"date":"2012-09-01","average_temperature":"28.349","city":"Chas","latitude":"23.31N","longitude":"86.50E"}
{"date":"2012-01-01","average_temperature":"26.526999999999997","city":"Chavakachcheri","latitude":"8.84N","longitude":"80.27E"}
{"date":"2010-06-01","average_temperature":"26.296999999999997","city":"Chenghai","latitude":"23.31N","longitude":"116.21E"}
{"date":"2011-11-01","average_temperature":"1.394","city":"Cherkasy","latitude":"49.03N","longitude":"31.84E"}
{"date":"2010-04-01","average_temperature":"7.795000000000001","city":"Cherkessk","latitude":"44.20N","longitude":"42.48E"}
{"date":"2013-01-01","average_temperature":"15.314","city":"Chhatarpur","latitude":"24.92N","longitude":"79.80E"}
{"date":"2011-11-01","average_temperature":"22.999","city":"Chhindwara","latitude":"21.70N","longitude":"78.75E"}
{"date":"2011-10-01","average_temperature":"16.61","city":"Chincha Alta","latitude":"13.66S","longitude":"76.79W"}
{"date":"2011-02-01","average_temperature":"21.521","city":"Chingola","latitude":"12.05S","longitude":"27.95E"}
{"date":"2011-01-01","average_temperature":"12.210999999999999","city":"Chishtian Mandi","latitude":"29.74N","longitude":"72.00E"}
{"date":"2012-12-01","average_temperature":"15.658","city":"Chishtian Mandi","latitude":"29.74N","longitude":"72.00E"}
{"date":"2013-02-01","average_temperature":"-0.379","city":"Chorzow","latitude":"50.63N","longitude":"19.01E"}
{"date":"2012-09-01","average_temperature":"26.944000000000003","city":"Chuncheng","latitude":"21.70N","longitude":"111.63E"}
{"date":"2011-01-01","average_temperature":"-0.6039999999999999","city":"Chuzhou","latitude":"32.95N","longitude":"117.77E"}
{"date":"2013-02-01","average_temperature":"25.502","city":"Ciamis","latitude":"7.23S","longitude":"107.84E"}
{"date":"2011-10-01","average_temperature":"26.533","city":"Cibadak","latitude":"7.23S","longitude":"106.22E"}
{"date":"2012-03-01","average_temperature":"27.691000000000006","city":"Ciputat","latitude":"5.63S","longitude":"106.55E"}
{"date":"2012-12-01","average_temperature":"18.635","city":"Clearwater","latitude":"28.13N","longitude":"82.73W"}
{"date":"2013-03-01","average_temperature":"15.819","city":"Clearwater","latitude":"28.13N","longitude":"82.73W"}
{"date":"2013-04-01","average_temperature":"15.46","city":"Cochabamba","latitude":"16.87S","longitude":"66.98W"}
{"date":"2010-02-01","average_temperature":"27.177","city":"Colombo","latitude":"7.23N","longitude":"80.27E"}
{"date":"2010-09-01","average_temperature":"26.738000000000003","city":"Colombo","latitude":"7.23N","longitude":"80.27E"}
{"date":"2013-07-01","average_temperature":"25.678","city":"Columbus","latitude":"32.95N","longitude":"85.21W"}
{"date":"2010-05-01","average_temperature":"7.732","city":"Copiapo","latitude":"28.13S","longitude":"70.00W"}
{"date":"2011-03-01","average_temperature":"13.321000000000002","city":"Copiapo","latitude":"28.13S","longitude":"70.00W"}
{"date":"2011-02-01","average_temperature":"20.078000000000007","city":"Coral Springs","latitude":"26.52N","longitude":"80.60W"}
{"date":"2013-01-01","average_temperature":"20.774","city":"Coral Springs","latitude":"26.52N","longitude":"80.60W"}
{"date":"2010-12-01","average_temperature":"23.971","city":"Cordoba","latitude":"31.35S","longitude":"64.08W"}
{"date":"2013-09-01","city":"Cork","latitude":"52.24N","longitude":"7.88W"}
{"date":"2011-09-01","average_temperature":"28.721","city":"Corpus Christi","latitude":"28.13N","longitude":"97.27W"}
{"date":"2010-02-01","average_temperature":"13.774000000000001","city":"Costa Mesa","latitude":"32.95N","longitude":"117.77W"}
{"date":"2013-06-01","average_temperature":"27.252","city":"Cotabato","latitude":"7.23N","longitude":"124.05E"}
{"date":"2012-09-01","average_temperature":"15.165","city":"Cottbus","latitude":"52.24N","longitude":"13.14E"}
{"date":"2011-12-01","average_temperature":"22.244","city":"Cubatão","latitude":"23.31S","longitude":"46.31W"}
{"date":"2011-12-01","average_temperature":"19.329","city":"Cuernavaca","latitude":"18.48N","longitude":"99.72W"}
{"date":"2012-05-01","average_temperature":"13.077","city":"Curico","latitude":"34.56S","longitude":"72.00W"}
{"date":"2012-11-01","average_temperature":"27.094","city":"Curug","latitude":"5.63S","longitude":"106.55E"}
{"date":"2012-04-01","average_temperature":"25.679","city":"Da Lat","latitude":"12.05N","longitude":"108.49E"}
{"date":"2012-12-01","average_temperature":"17.319000000000003","city":"Dadu","latitude":"26.52N","longitude":"68.06E"}
{"date":"2010-05-01","average_temperature":"28.211","city":"Dagupan","latitude":"16.87N","longitude":"120.56E"}
{"date":"2011-04-01","average_temperature":"22.218000000000004","city":"Dakar","latitude":"15.27N","longitude":"17.50W"}
{"date":"2010-05-01","average_temperature":"27.67","city":"Daloa","latitude":"7.23N","longitude":"5.68W"}
{"date":"2010-06-01","average_temperature":"30.468000000000004","city":"Dasoguz","latitude":"40.99N","longitude":"59.64E"}
{"date":"2011-05-01","average_temperature":"12.625","city":"Daugavpils","latitude":"55.45N","longitude":"25.51E"}
{"date":"2012-12-01","average_temperature":"19.738","city":"Debre Zeyit","latitude":"8.84N","longitude":"39.73E"}
{"date":"2011-09-01","average_temperature":"18.316","city":"Debrecen","latitude":"47.42N","longitude":"22.50E"}
{"date":"2011-06-01","average_temperature":"31.687","city":"Dehri","latitude":"24.92N","longitude":"83.35E"}
{"date":"2013-02-01","average_temperature":"8.484","city":"Denizli","latitude":"37.78N","longitude":"28.47E"}
{"date":"2012-02-01","average_temperature":"-4.4990000000000006","city":"Derbent","latitude":"42.59N","longitude":"48.00E"}
{"date":"2011-04-01","average_temperature":"10.48","city":"Des Moines","latitude":"40.99N","longitude":"93.73W"}
{"date":"2012-12-01","average_temperature":"21.665","city":"Dese","latitude":"10.45N","longitude":"40.09E"}
{"date":"2011-10-01","average_temperature":"25.517","city":"Dhule","latitude":"20.09N","longitude":"75.07E"}
{"date":"2010-06-01","average_temperature":"16.759999999999998","city":"Diadema","latitude":"23.31S","longitude":"46.31W"}
{"date":"2010-11-01","average_temperature":"17.840000000000003","city":"Dibrugarh","latitude":"28.13N","longitude":"95.45E"}
{"date":"2011-02-01","average_temperature":"-11.834000000000001","city":"Didao","latitude":"45.81N","longitude":"130.38E"}
{"date":"2011-07-01","average_temperature":"26.094","city":"Digos","latitude":"7.23N","longitude":"125.68E"}
{"date":"2011-12-01","average_temperature":"25.824","city":"Digos","latitude":"7.23N","longitude":"125.68E"}
{"date":"2012-03-01","average_temperature":"-6.289","city":"Dimitrovgrad","latitude":"53.84N","longitude":"50.45E"}
{"date":"2010-04-01","average_temperature":"29.521","city":"Diourbel","latitude":"15.27N","longitude":"15.83W"}
{"date":"2013-08-01","average_temperature":"28.824","city":"Donghai","latitude":"23.31N","longitude":"116.21E"}
{"date":"2012-10-01","average_temperature":"19.131","city":"Dos Quebradas","latitude":"5.63N","longitude":"75.87W"}
{"date":"2012-12-01","average_temperature":"4.785","city":"Dudley","latitude":"52.24N","longitude":"2.63W"}
{"date":"2012-05-01","average_temperature":"32.232","city":"Dum Dum","latitude":"23.31N","longitude":"88.25E"}
{"date":"2013-05-01","average_temperature":"28.541","city":"Dumaguete","latitude":"8.84N","longitude":"124.05E"}
{"date":"2013-07-01","average_temperature":"3.3200000000000003","city":"Dunedin","latitude":"45.81S","longitude":"169.62E"}
{"date":"2012-08-01","average_temperature":"15.759","city":"East London","latitude":"32.95S","longitude":"27.77E"}
{"date":"2011-08-01","average_temperature":"25.201999999999998","city":"Ebina","latitude":"36.17N","longitude":"139.23E"}
{"date":"2013-08-01","average_temperature":"14.915999999999999","city":"Edinburgh","latitude":"55.45N","longitude":"2.83W"}
{"date":"2013-09-01","city":"Elbasan","latitude":"40.99N","longitude":"19.17E"}
{"date":"2011-02-01","average_temperature":"-5.307","city":"Elista","latitude":"45.81N","longitude":"45.00E"}
{"date":"2012-08-01","average_temperature":"28.757","city":"Eluru","latitude":"16.87N","longitude":"80.37E"}
{"date":"2013-09-01","city":"Engels","latitude":"50.63N","longitude":"46.90E"}
{"date":"2012-07-01","average_temperature":"17.57","city":"Erfurt","latitude":"50.63N","longitude":"11.41E"}
{"date":"2012-06-01","average_temperature":"17.244","city":"Erlangen","latitude":"49.03N","longitude":"9.80E"}
{"date":"2013-07-01","average_temperature":"20.968000000000004","city":"Erlangen","latitude":"49.03N","longitude":"9.80E"}
{"date":"2013-03-01","average_temperature":"8.144","city":"Eskisehir","latitude":"39.38N","longitude":"31.21E"}
{"date":"2010-03-01","average_temperature":"4.918","city":"Fürth","latitude":"49.03N","longitude":"9.80E"}
{"date":"2011-05-01","average_temperature":"33.172999999999995","city":"Farrukhabad","latitude":"28.13N","longitude":"79.09E"}
{"date":"2011-08-01","average_temperature":"29.214000000000002","city":"Fatehpur","latitude":"26.52N","longitude":"80.60E"}
{"date":"2013-06-01","average_temperature":"33.226","city":"Firozpur","latitude":"31.35N","longitude":"75.39E"}
{"date":"2010-11-01","average_temperature":"17.737000000000005","city":"Florencia","latitude":"2.41N","longitude":"76.34W"}
{"date":"2010-10-01","average_temperature":"25.3","city":"Floridablanca","latitude":"7.23N","longitude":"73.78W"}
{"date":"2010-11-01","average_temperature":"23.427","city":"Franca","latitude":"20.09S","longitude":"47.77W"}
{"date":"2010-04-01","average_temperature":"20.855","city":"Francisco Morato","latitude":"23.31S","longitude":"46.31W"}
{"date":"2011-11-01","average_temperature":"15.692","city":"Fuji","latitude":"34.56N","longitude":"138.16E"}
{"date":"2013-04-01","average_temperature":"11.31","city":"Fujisawa","latitude":"36.17N","longitude":"139.23E"}
{"date":"2012-01-01","average_temperature":"4.089","city":"Fukuyama","latitude":"34.56N","longitude":"134.27E"}
{"date":"2010-04-01","average_temperature":"9.589","city":"Funabashi","latitude":"36.17N","longitude":"139.23E"}
{"date":"2013-06-01","average_temperature":"20.927","city":"Funabashi","latitude":"36.17N","longitude":"139.23E"}
{"date":"2010-01-01","average_temperature":"-11.584000000000001","city":"Fushun","latitude":"40.99N","longitude":"123.55E"}
{"date":"2010-06-01","average_temperature":"22.018","city":"Fushun","latitude":"40.99N","longitude":"123.55E"}
{"date":"2011-02-01","average_temperature":"-4.940000000000001","city":"Fushun","latitude":"40.99N","longitude":"123.55E"}
{"date":"2011-12-01","average_temperature":"-8.642000000000001","city":"Fushun","latitude":"40.99N","longitude":"123.55E"}
{"date":"2013-04-01","average_temperature":"6.186","city":"Fuxin","latitude":"42.59N","longitude":"122.18E"}
{"date":"2010-03-01","average_temperature":"28.523000000000003","city":"Gagnoa","latitude":"5.63N","longitude":"6.46W"}
{"date":"2010-04-01","average_temperature":"10.335","city":"Gaomi","latitude":"36.17N","longitude":"119.34E"}
{"date":"2012-02-01","average_temperature":"15.527000000000001","city":"Gaozhou","latitude":"21.70N","longitude":"111.63E"}
{"date":"2011-04-01","average_temperature":"11.645","city":"Gazni","latitude":"32.95N","longitude":"67.98E"}
{"date":"2010-10-01","average_temperature":"26.311999999999998","city":"Gbongan","latitude":"7.23N","longitude":"4.05E"}
{"date":"2010-12-01","average_temperature":"27.396","city":"Gbongan","latitude":"7.23N","longitude":"4.05E"}
{"date":"2013-07-01","average_temperature":"25.206","city":"Gbongan","latitude":"7.23N","longitude":"4.05E"}
{"date":"2010-11-01","average_temperature":"3.658","city":"Gdansk","latitude":"53.84N","longitude":"17.73E"}
{"date":"2011-09-01","average_temperature":"15.107000000000001","city":"Gdansk","latitude":"53.84N","longitude":"17.73E"}
{"date":"2013-06-01","average_temperature":"9.365","city":"Geelong","latitude":"37.78S","longitude":"144.41E"}
{"date":"2010-07-01","average_temperature":"24.905","city":"Gemena","latitude":"4.02N","longitude":"20.09E"}
{"date":"2010-01-01","average_temperature":"12.425","city":"General Escobedo","latitude":"26.52N","longitude":"100.30W"}
{"date":"2010-05-01","average_temperature":"12.979000000000001","city":"Getafe","latitude":"40.99N","longitude":"4.26W"}
{"date":"2012-12-01","average_temperature":"20.726999999999997","city":"Godhra","latitude":"23.31N","longitude":"74.27E"}
{"date":"2011-11-01","average_temperature":"22.904","city":"Goiânia","latitude":"16.87S","longitude":"48.56W"}
{"date":"2010-01-01","average_temperature":"-11.99","city":"Gomel","latitude":"52.24N","longitude":"31.53E"}
{"date":"2011-08-01","average_temperature":"29.335","city":"Gonbad E Qabus","latitude":"37.78N","longitude":"54.92E"}
{"date":"2012-09-01","average_temperature":"29.148000000000003","city":"Gonda","latitude":"26.52N","longitude":"82.39E"}
{"date":"2011-06-01","average_temperature":"30.366999999999997","city":"Gorakhpur","latitude":"26.52N","longitude":"84.18E"}
{"date":"2013-03-01","average_temperature":"27.46","city":"Gorontalo","latitude":"0.80N","longitude":"122.95E"}
{"date":"2013-09-01","city":"Governador Valadares","latitude":"18.48S","longitude":"42.25W"}
{"date":"2010-10-01","average_temperature":"11.597000000000001","city":"Grand Rapids","latitude":"42.59N","longitude":"85.09W"}
{"date":"2011-02-01","average_temperature":"-4.074","city":"Grand Rapids","latitude":"42.59N","longitude":"85.09W"}
{"date":"2010-05-01","average_temperature":"15.890999999999998","city":"Gravataí","latitude":"29.74S","longitude":"51.69W"}
{"date":"2011-01-01","average_temperature":"25.493000000000002","city":"Gravataí","latitude":"29.74S","longitude":"51.69W"}
{"date":"2011-10-01","average_temperature":"11.116","city":"Green Bay","latitude":"44.20N","longitude":"87.20W"}
{"date":"2011-06-01","average_temperature":"27.508000000000003","city":"Guacara","latitude":"10.45N","longitude":"67.91W"}
{"date":"2011-09-01","average_temperature":"24.013","city":"Guanare","latitude":"8.84N","longitude":"70.54W"}
{"date":"2012-06-01","average_temperature":"24.14","city":"Guanare","latitude":"8.84N","longitude":"70.54W"}
{"date":"2010-03-01","average_temperature":"9.978","city":"Guangyuan","latitude":"32.95N","longitude":"106.28E"}
{"date":"2012-08-01","average_temperature":"24.795","city":"Guangyuan","latitude":"32.95N","longitude":"106.28E"}
{"date":"2010-08-01","average_temperature":"20.322000000000006","city":"Guarapari","latitude":"20.09S","longitude":"40.95W"}
{"date":"2010-07-01","average_temperature":"21.613000000000003","city":"Guaratinguetá","latitude":"23.31S","longitude":"44.56W"}
{"date":"2010-03-01","average_temperature":"27.415","city":"Gudalur","latitude":"12.05N","longitude":"80.55E"}
{"date":"2013-07-01","average_temperature":"31.053","city":"Gurgaon","latitude":"28.13N","longitude":"77.27E"}
{"date":"2011-11-01","average_temperature":"26.053","city":"Gusau","latitude":"12.05N","longitude":"6.58E"}
{"date":"2012-03-01","average_temperature":"28.898000000000003","city":"Hadejia","latitude":"12.05N","longitude":"9.86E"}
{"date":"2010-07-01","average_temperature":"27.464","city":"Hagonoy","latitude":"15.27N","longitude":"120.83E"}
{"date":"2010-01-01","average_temperature":"-21.526","city":"Hailun","latitude":"47.42N","longitude":"126.71E"}
{"date":"2013-09-01","city":"Halle","latitude":"50.63N","longitude":"11.41E"}
{"date":"2013-08-01","average_temperature":"23.195999999999998","city":"Hami","latitude":"42.59N","longitude":"93.82E"}
{"date":"2010-04-01","average_temperature":"10.041","city":"Hamilton","latitude":"42.59N","longitude":"80.73W"}
{"date":"2013-09-01","city":"Hanoi","latitude":"21.70N","longitude":"106.44E"}
{"date":"2011-10-01","average_temperature":"10.006","city":"Hanover","latitude":"52.24N","longitude":"10.51E"}
{"date":"2010-05-01","average_temperature":"18.944000000000003","city":"Hanzhong","latitude":"32.95N","longitude":"106.28E"}
{"date":"2011-03-01","average_temperature":"23.864","city":"Hapur","latitude":"28.13N","longitude":"77.27E"}
{"date":"2013-02-01","average_temperature":"10.229","city":"Hayward","latitude":"37.78N","longitude":"122.03W"}
{"date":"2013-08-01","average_temperature":"27.092","city":"Hazaribag","latitude":"23.31N","longitude":"84.76E"}
{"date":"2013-07-01","average_temperature":"30.484","city":"Hermosillo","latitude":"29.74N","longitude":"110.77W"}
{"date":"2010-07-01","average_temperature":"25.558000000000003","city":"Hiratsuka","latitude":"36.17N","longitude":"139.23E"}
{"date":"2012-04-01","average_temperature":"14.008","city":"Hobart","latitude":"42.59S","longitude":"148.36E"}
{"date":"2011-03-01","average_temperature":"7.286","city":"Hofu","latitude":"34.56N","longitude":"132.32E"}
{"date":"2013-03-01","average_temperature":"20.052","city":"Hsintien","latitude":"24.92N","longitude":"122.36E"}
{"date":"2013-09-01","city":"Huánuco","latitude":"10.45S","longitude":"76.09W"}
{"date":"2011-12-01","average_temperature":"3.347","city":"Huainan","latitude":"32.95N","longitude":"117.77E"}
{"date":"2011-03-01","average_temperature":"-3.736","city":"Hulan","latitude":"45.81N","longitude":"125.77E"}
{"date":"2011-03-01","average_temperature":"-4.579","city":"Hulan Ergi","latitude":"47.42N","longitude":"124.34E"}
{"date":"2011-11-01","average_temperature":"11.448","city":"Huntsville","latitude":"34.56N","longitude":"85.62W"}
{"date":"2013-07-01","average_temperature":"20.844","city":"Iasi","latitude":"47.42N","longitude":"27.24E"}
{"date":"2013-03-01","average_temperature":"29.531","city":"Ibadan","latitude":"7.23N","longitude":"4.05E"}
{"date":"2010-11-01","average_temperature":"19.461","city":"Ibagué","latitude":"4.02N","longitude":"74.73W"}
{"date":"2012-04-01","average_temperature":"12.181","city":"Ica","latitude":"13.66S","longitude":"75.14W"}
{"date":"2011-11-01","average_temperature":"17.025","city":"Ichihara","latitude":"34.56N","longitude":"140.11E"}
{"date":"2011-02-01","average_temperature":"28.525","city":"Ilawe","latitude":"7.23N","longitude":"5.68E"}
{"date":"2012-01-01","average_temperature":"27.704","city":"Ilobu","latitude":"7.23N","longitude":"4.05E"}
{"date":"2012-02-01","average_temperature":"28.872","city":"Ilobu","latitude":"7.23N","longitude":"4.05E"}
{"date":"2012-11-01","average_temperature":"11.302","city":"Imabari","latitude":"34.56N","longitude":"132.32E"}
{"date":"2010-03-01","average_temperature":"27.91","city":"Imperatriz","latitude":"5.63S","longitude":"46.82W"}
{"date":"2010-09-01","average_temperature":"24.749000000000002","city":"Imphal","latitude":"24.92N","longitude":"93.99E"}
{"date":"2013-04-01","average_temperature":"10.089","city":"Independence","latitude":"39.38N","longitude":"93.64W"}
{"date":"2011-10-01","average_temperature":"8.547","city":"Ingolstadt","latitude":"49.03N","longitude":"12.24E"}
{"date":"2011-08-01","average_temperature":"29.096","city":"Ingraj Bazar","latitude":"24.92N","longitude":"88.67E"}
{"date":"2013-07-01","average_temperature":"14.985999999999999","city":"Iquique","latitude":"20.09S","longitude":"69.95W"}
{"date":"2013-05-01","average_temperature":"31.948","city":"Iranshahr","latitude":"26.52N","longitude":"60.90E"}
{"date":"2011-02-01","average_temperature":"8.783999999999999","city":"Irbil","latitude":"36.17N","longitude":"43.76E"}
{"date":"2010-08-01","average_temperature":"27.295","city":"Isesaki","latitude":"36.17N","longitude":"139.23E"}
{"date":"2012-09-01","average_temperature":"22.345","city":"Ishinomaki","latitude":"39.38N","longitude":"141.50E"}
{"date":"2011-05-01","average_temperature":"24.178","city":"Isiro","latitude":"2.41N","longitude":"28.13E"}
{"date":"2011-09-01","average_temperature":"21.9","city":"Itaboraí","latitude":"23.31S","longitude":"42.82W"}
{"date":"2012-12-01","average_temperature":"-16.637999999999998","city":"Izhevsk","latitude":"57.05N","longitude":"54.59E"}
{"date":"2011-07-01","average_temperature":"17.597","city":"Jacareí","latitude":"23.31S","longitude":"46.31W"}
{"date":"2010-04-01","average_temperature":"19.484","city":"Jackson","latitude":"32.95N","longitude":"90.96W"}
{"date":"2010-08-01","average_temperature":"27.093000000000004","city":"Jakarta","latitude":"5.63S","longitude":"106.55E"}
{"date":"2012-12-01","average_temperature":"4.026","city":"Jalalabad","latitude":"34.56N","longitude":"70.05E"}
{"date":"2012-02-01","average_temperature":"29.326999999999998","city":"Jalingo","latitude":"8.84N","longitude":"12.16E"}
{"date":"2012-03-01","average_temperature":"27.079","city":"Jalna","latitude":"20.09N","longitude":"75.07E"}
{"date":"2011-09-01","average_temperature":"27.179","city":"Jamnagar","latitude":"21.70N","longitude":"70.10E"}
{"date":"2011-01-01","average_temperature":"23.878","city":"Jandira","latitude":"23.31S","longitude":"46.31W"}
{"date":"2011-08-01","average_temperature":"27.353","city":"Jaramana","latitude":"32.95N","longitude":"35.43E"}
{"date":"2013-05-01","average_temperature":"22.583","city":"Jaramana","latitude":"32.95N","longitude":"35.43E"}
{"date":"2011-03-01","average_temperature":"21.948","city":"Jaranwala","latitude":"31.35N","longitude":"73.51E"}
{"date":"2012-07-01","average_temperature":"34.235","city":"Jaranwala","latitude":"31.35N","longitude":"73.51E"}
{"date":"2012-03-01","average_temperature":"24.171999999999997","city":"Jaunpur","latitude":"26.52N","longitude":"82.39E"}
{"date":"2010-02-01","average_temperature":"-1.456","city":"Jersey City","latitude":"40.99N","longitude":"74.56W"}
{"date":"2013-05-01","average_temperature":"31.287","city":"Jetpur","latitude":"21.70N","longitude":"70.10E"}
{"date":"2012-12-01","average_temperature":"14.485","city":"Jhang","latitude":"31.35N","longitude":"71.62E"}
{"date":"2011-08-01","average_temperature":"25.233","city":"Jiaozhou","latitude":"36.17N","longitude":"119.34E"}
{"date":"2012-07-01","average_temperature":"26.878","city":"Jiaozhou","latitude":"36.17N","longitude":"119.34E"}
{"date":"2012-02-01","average_temperature":"3.928","city":"Jiaxing","latitude":"31.35N","longitude":"120.63E"}
{"date":"2013-07-01","average_temperature":"26.019","city":"Jimeta","latitude":"8.84N","longitude":"12.16E"}
{"date":"2013-08-01","average_temperature":"22.964","city":"Jos","latitude":"10.45N","longitude":"9.00E"}
{"date":"2012-04-01","average_temperature":"26.928","city":"Juazeiro Do Norte","latitude":"7.23S","longitude":"39.73W"}
{"date":"2011-05-01","average_temperature":"27.03","city":"Juba","latitude":"4.02N","longitude":"31.34E"}
{"date":"2013-06-01","average_temperature":"22.431","city":"Kaiyuan","latitude":"23.31N","longitude":"103.98E"}
{"date":"2012-05-01","average_temperature":"32.683","city":"Kakinada","latitude":"16.87N","longitude":"82.05E"}
{"date":"2011-03-01","average_temperature":"27.553","city":"Kalol","latitude":"23.31N","longitude":"72.52E"}
{"date":"2010-12-01","average_temperature":"13.539000000000001","city":"Kamalia","latitude":"31.35N","longitude":"73.51E"}
{"date":"2011-04-01","average_temperature":"29.276","city":"Kanchrapara","latitude":"23.31N","longitude":"88.25E"}
{"date":"2012-06-01","average_temperature":"27.323","city":"Kandi","latitude":"10.45N","longitude":"2.45E"}
{"date":"2010-03-01","average_temperature":"30.866999999999997","city":"Kaolack","latitude":"13.66N","longitude":"15.69W"}
{"date":"2010-06-01","average_temperature":"19.877","city":"Karaman","latitude":"37.78N","longitude":"32.54E"}
{"date":"2010-12-01","average_temperature":"-12.373","city":"Karamay","latitude":"45.81N","longitude":"84.23E"}
{"date":"2010-02-01","average_temperature":"6.912000000000001","city":"Kashan","latitude":"34.56N","longitude":"50.59E"}
{"date":"2011-01-01","average_temperature":"-2.782","city":"Kaunas","latitude":"55.45N","longitude":"22.68E"}
{"date":"2013-08-01","average_temperature":"28.180999999999997","city":"Kawanishi","latitude":"34.56N","longitude":"136.22E"}
{"date":"2012-04-01","average_temperature":"22.456999999999997","city":"Keelung","latitude":"24.92N","longitude":"122.36E"}
{"date":"2011-03-01","average_temperature":"27.677000000000003","city":"Kendari","latitude":"4.02S","longitude":"122.95E"}
{"date":"2012-04-01","average_temperature":"12.315","city":"Kerch","latitude":"45.81N","longitude":"35.77E"}
{"date":"2012-09-01","average_temperature":"19.862","city":"Kerch","latitude":"45.81N","longitude":"35.77E"}
{"date":"2012-10-01","average_temperature":"17.211","city":"Kermanshah","latitude":"34.56N","longitude":"46.70E"}
{"date":"2010-12-01","average_temperature":"-8.186","city":"Khimki","latitude":"55.45N","longitude":"36.85E"}
{"date":"2011-06-01","average_temperature":"28.004","city":"Khon Kaen","latitude":"16.87N","longitude":"102.14E"}
{"date":"2011-12-01","average_temperature":"-2.36","city":"Khoy","latitude":"37.78N","longitude":"44.75E"}
{"date":"2012-05-01","average_temperature":"19.072","city":"Kigali","latitude":"2.41S","longitude":"29.73E"}
{"date":"2010-11-01","average_temperature":"23.812","city":"Kindu","latitude":"2.41S","longitude":"26.52E"}
{"date":"2013-04-01","average_temperature":"6.787999999999999","city":"Kingston Upon Hull","latitude":"53.84N","longitude":"1.36W"}
{"date":"2011-04-01","average_temperature":"3.717","city":"Kirov","latitude":"58.66N","longitude":"49.23E"}
{"date":"2010-04-01","average_temperature":"21.869","city":"Kitwe","latitude":"12.05S","longitude":"27.95E"}
{"date":"2011-10-01","average_temperature":"24.351999999999997","city":"Kitwe","latitude":"12.05S","longitude":"27.95E"}
{"date":"2012-01-01","average_temperature":"22.919","city":"Klerksdorp","latitude":"26.52S","longitude":"26.87E"}
{"date":"2011-05-01","average_temperature":"14.637","city":"Koblenz","latitude":"50.63N","longitude":"6.34E"}
{"date":"2013-06-01","average_temperature":"15.589","city":"Koblenz","latitude":"50.63N","longitude":"6.34E"}
{"date":"2013-09-01","city":"Koidu","latitude":"8.84N","longitude":"10.54W"}
{"date":"2010-09-01","average_temperature":"22.414","city":"Kokubunji","latitude":"36.17N","longitude":"139.23E"}
{"date":"2013-07-01","average_temperature":"25.478","city":"Kollam","latitude":"8.84N","longitude":"77.03E"}
{"date":"2012-05-01","average_temperature":"10.742","city":"Komsomolsk Na Amure","latitude":"50.63N","longitude":"138.17E"}
{"date":"2013-05-01","average_temperature":"21.416","city":"Korla","latitude":"40.99N","longitude":"85.21E"}
{"date":"2013-04-01","average_temperature":"9.864","city":"Kosice","latitude":"49.03N","longitude":"22.04E"}
{"date":"2011-08-01","average_temperature":"17.701999999999995","city":"Kostroma","latitude":"57.05N","longitude":"39.84E"}
{"date":"2012-01-01","average_temperature":"-9.083000000000002","city":"Kostroma","latitude":"57.05N","longitude":"39.84E"}
{"date":"2012-10-01","average_temperature":"5.225","city":"Kostroma","latitude":"57.05N","longitude":"39.84E"}
{"date":"2010-05-01","average_temperature":"33.192","city":"Kot Addu","latitude":"29.74N","longitude":"70.15E"}
{"date":"2013-02-01","average_temperature":"26.114","city":"Kota Kinabalu","latitude":"5.63N","longitude":"116.23E"}
{"date":"2011-03-01","average_temperature":"27.185","city":"Kotte","latitude":"7.23N","longitude":"80.27E"}
{"date":"2013-04-01","average_temperature":"1.278","city":"Krasnoyarsk","latitude":"55.45N","longitude":"93.54E"}
{"date":"2010-11-01","average_temperature":"26.879","city":"Kresek","latitude":"5.63S","longitude":"106.55E"}
{"date":"2011-08-01","average_temperature":"12.175","city":"Kroonstad","latitude":"28.13S","longitude":"26.36E"}
{"date":"2013-05-01","average_temperature":"28.505","city":"Kuantan","latitude":"4.02N","longitude":"103.66E"}
{"date":"2012-05-01","average_temperature":"28.987","city":"Kuhdasht","latitude":"32.95N","longitude":"46.91E"}
{"date":"2011-05-01","average_temperature":"18.875999999999998","city":"Kuito","latitude":"12.05S","longitude":"16.44E"}
{"date":"2010-11-01","average_temperature":"23.98","city":"Kulti","latitude":"23.31N","longitude":"86.50E"}
{"date":"2011-02-01","average_temperature":"6.561","city":"Kurume","latitude":"32.95N","longitude":"131.17E"}
{"date":"2013-02-01","average_temperature":"5.691","city":"Kurume","latitude":"32.95N","longitude":"131.17E"}
{"date":"2012-12-01","average_temperature":"24.986","city":"Kusti","latitude":"13.66N","longitude":"32.20E"}
{"date":"2012-01-01","average_temperature":"25.148000000000003","city":"La Plata","latitude":"34.56S","longitude":"58.38W"}
{"date":"2012-05-01","average_temperature":"27.267","city":"La Romana","latitude":"18.48N","longitude":"69.30W"}
{"date":"2012-12-01","average_temperature":"27.659000000000002","city":"Lafiagi","latitude":"8.84N","longitude":"5.68E"}
{"date":"2011-07-01","average_temperature":"26.658","city":"Lagos","latitude":"5.63N","longitude":"3.23E"}
{"date":"2012-02-01","average_temperature":"26.35","city":"Legaspi","latitude":"13.66N","longitude":"123.03E"}
{"date":"2012-12-01","average_temperature":"4.303","city":"Leiden","latitude":"52.24N","longitude":"5.26E"}
{"date":"2010-05-01","average_temperature":"10.501","city":"Leipzig","latitude":"50.63N","longitude":"11.41E"}
{"date":"2011-09-01","average_temperature":"15.342","city":"Leipzig","latitude":"50.63N","longitude":"11.41E"}
{"date":"2010-09-01","average_temperature":"24.534000000000002","city":"Leiyang","latitude":"26.52N","longitude":"112.84E"}
{"date":"2010-08-01","average_temperature":"28.698","city":"Lengshuijiang","latitude":"28.13N","longitude":"111.82E"}
{"date":"2010-08-01","average_temperature":"19.836","city":"Lianran","latitude":"24.92N","longitude":"102.86E"}
{"date":"2010-09-01","average_temperature":"18.801","city":"Lianran","latitude":"24.92N","longitude":"102.86E"}
{"date":"2012-02-01","average_temperature":"1.155","city":"Liaocheng","latitude":"36.17N","longitude":"115.36E"}
{"date":"2012-02-01","average_temperature":"-8.049000000000001","city":"Liaoyang","latitude":"40.99N","longitude":"123.55E"}
{"date":"2013-04-01","average_temperature":"21.305","city":"Licheng","latitude":"23.31N","longitude":"114.47E"}
{"date":"2012-12-01","average_temperature":"23.019","city":"Lilongwe","latitude":"13.66S","longitude":"33.85E"}
{"date":"2011-08-01","average_temperature":"25.459000000000003","city":"Linqing","latitude":"36.17N","longitude":"115.36E"}
{"date":"2011-08-01","average_temperature":"21.814","city":"Linshui","latitude":"36.17N","longitude":"113.37E"}
{"date":"2012-09-01","average_temperature":"16.954","city":"Linshui","latitude":"36.17N","longitude":"113.37E"}
{"date":"2012-03-01","average_temperature":"5.767","city":"Linz","latitude":"49.03N","longitude":"14.69E"}
{"date":"2010-10-01","average_temperature":"16.454","city":"Lisbon","latitude":"39.38N","longitude":"8.32W"}
{"date":"2011-10-01","average_temperature":"23.124000000000002","city":"Liusha","latitude":"23.31N","longitude":"116.21E"}
{"date":"2011-06-01","average_temperature":"26.794","city":"Liuzhou","latitude":"24.92N","longitude":"109.95E"}
{"date":"2011-09-01","average_temperature":"22.375999999999998","city":"Londrina","latitude":"23.31S","longitude":"51.55W"}
{"date":"2012-06-01","average_temperature":"30.726","city":"Louga","latitude":"15.27N","longitude":"15.83W"}
{"date":"2013-06-01","average_temperature":"33.226","city":"Ludhiana","latitude":"31.35N","longitude":"75.39E"}
{"date":"2013-01-01","average_temperature":"1.026","city":"Ludwigshafen","latitude":"49.03N","longitude":"7.35E"}
{"date":"2013-09-01","city":"Lumajang","latitude":"8.84S","longitude":"112.70E"}
{"date":"2011-06-01","average_temperature":"31.008000000000003","city":"Luxor","latitude":"26.52N","longitude":"32.24E"}
{"date":"2013-02-01","average_temperature":"11.857000000000001","city":"Luzhou","latitude":"29.74N","longitude":"105.23E"}
{"date":"2012-05-01","average_temperature":"15.943","city":"Móstoles","latitude":"40.99N","longitude":"4.26W"}
{"date":"2011-05-01","average_temperature":"21.901","city":"Maanshan","latitude":"31.35N","longitude":"118.74E"}
{"date":"2013-04-01","average_temperature":"21.787000000000006","city":"Macaé","latitude":"21.70S","longitude":"42.40W"}
{"date":"2011-08-01","average_temperature":"27.281","city":"Macheng","latitude":"31.35N","longitude":"114.97E"}
{"date":"2012-10-01","average_temperature":"18.25","city":"Macheng","latitude":"31.35N","longitude":"114.97E"}
{"date":"2012-02-01","average_temperature":"2.947","city":"Madrid","latitude":"40.99N","longitude":"4.26W"}
{"date":"2012-05-01","average_temperature":"14.459000000000001","city":"Magdeburg","latitude":"52.24N","longitude":"10.51E"}
{"date":"2010-08-01","average_temperature":"28.252","city":"Mahabad","latitude":"36.17N","longitude":"45.75E"}
{"date":"2010-08-01","average_temperature":"26.305","city":"Mahajanga","latitude":"15.27S","longitude":"45.83E"}
{"date":"2012-06-01","average_temperature":"32.5","city":"Mahesana","latitude":"23.31N","longitude":"72.52E"}
{"date":"2011-03-01","average_temperature":"31.794","city":"Malakal","latitude":"8.84N","longitude":"31.62E"}
{"date":"2012-08-01","average_temperature":"26.143","city":"Malakal","latitude":"8.84N","longitude":"31.62E"}
{"date":"2013-07-01","average_temperature":"32.37","city":"Maler Kotla","latitude":"29.74N","longitude":"75.69E"}
{"date":"2011-09-01","average_temperature":"26.518","city":"Malolos","latitude":"15.27N","longitude":"120.83E"}
{"date":"2013-06-01","average_temperature":"28.572","city":"Malolos","latitude":"15.27N","longitude":"120.83E"}
{"date":"2010-06-01","average_temperature":"27.436999999999998","city":"Manaus","latitude":"2.41S","longitude":"60.27W"}
{"date":"2010-05-01","average_temperature":"20.054000000000002","city":"Manisa","latitude":"39.38N","longitude":"27.05E"}
{"date":"2013-06-01","average_temperature":"28.302","city":"Manzanillo","latitude":"20.09N","longitude":"76.78W"}
{"date":"2010-09-01","average_temperature":"27.591","city":"Maoming","latitude":"21.70N","longitude":"111.63E"}
{"date":"2012-05-01","average_temperature":"20.721","city":"Marília","latitude":"21.70S","longitude":"49.33W"}
{"date":"2011-02-01","average_temperature":"26.269","city":"Marabá","latitude":"5.63S","longitude":"48.43W"}
{"date":"2011-04-01","average_temperature":"27.417","city":"Maracaibo","latitude":"10.45N","longitude":"71.18W"}
{"date":"2010-08-01","average_temperature":"26.778000000000002","city":"Mardan","latitude":"34.56N","longitude":"72.00E"}
{"date":"2012-06-01","average_temperature":"27.958","city":"Maroua","latitude":"10.45N","longitude":"13.91E"}
{"date":"2012-04-01","average_temperature":"13.792","city":"Marseille","latitude":"42.59N","longitude":"6.55E"}
{"date":"2012-09-01","average_temperature":"27.596","city":"Matanzas","latitude":"23.31N","longitude":"81.26W"}
{"date":"2013-01-01","average_temperature":"3.917","city":"Matsusaka","latitude":"34.56N","longitude":"136.22E"}
{"date":"2012-04-01","average_temperature":"27.337000000000003","city":"Maturín","latitude":"10.45N","longitude":"63.00W"}
{"date":"2011-08-01","average_temperature":"18.687","city":"Mauá","latitude":"23.31S","longitude":"46.31W"}
{"date":"2013-05-01","average_temperature":"29.164","city":"Mawlamyine","latitude":"16.87N","longitude":"97.12E"}
{"date":"2011-01-01","average_temperature":"21.469","city":"Maymyo","latitude":"21.70N","longitude":"96.06E"}
{"date":"2012-12-01","average_temperature":"21.923","city":"Maymyo","latitude":"21.70N","longitude":"96.06E"}
{"date":"2013-04-01","average_temperature":"25.308000000000003","city":"Mbuji Mayi","latitude":"5.63S","longitude":"24.22E"}
{"date":"2012-12-01","average_temperature":"26.706","city":"Melaka","latitude":"2.41N","longitude":"102.05E"}
{"date":"2012-05-01","average_temperature":"14.026","city":"Mendoza","latitude":"32.95S","longitude":"67.98W"}
{"date":"2011-10-01","average_temperature":"26.754","city":"Mergui","latitude":"12.05N","longitude":"98.63E"}
{"date":"2013-06-01","average_temperature":"21.53","city":"Messina","latitude":"37.78N","longitude":"16.27E"}
{"date":"2013-06-01","average_temperature":"28.306","city":"Metairie","latitude":"29.74N","longitude":"90.46W"}
{"date":"2010-08-01","average_temperature":"22.272","city":"Metepec","latitude":"18.48N","longitude":"99.72W"}
{"date":"2013-07-01","average_temperature":"25.987","city":"Metro","latitude":"5.63S","longitude":"104.93E"}
{"date":"2011-06-01","average_temperature":"27.416","city":"Meycauayan","latitude":"15.27N","longitude":"120.83E"}
{"date":"2013-08-01","average_temperature":"16.0","city":"Miass","latitude":"55.45N","longitude":"59.53E"}
{"date":"2011-08-01","average_temperature":"24.866999999999997","city":"Mingshui","latitude":"36.17N","longitude":"117.35E"}
{"date":"2010-06-01","average_temperature":"28.05","city":"Miri","latitude":"4.02N","longitude":"113.30E"}
{"date":"2010-09-01","average_temperature":"14.684","city":"Miskolc","latitude":"47.42N","longitude":"20.13E"}
{"date":"2012-05-01","average_temperature":"21.075","city":"Misratah","latitude":"32.95N","longitude":"14.36E"}
{"date":"2013-04-01","average_temperature":"27.879","city":"Modakeke","latitude":"7.23N","longitude":"4.05E"}
{"date":"2013-03-01","average_temperature":"10.234","city":"Modesto","latitude":"37.78N","longitude":"120.00W"}
{"date":"2011-08-01","average_temperature":"27.425","city":"Mogadishu","latitude":"2.41N","longitude":"45.80E"}
{"date":"2010-12-01","average_temperature":"24.043000000000003","city":"Montes Claros","latitude":"16.87S","longitude":"43.53W"}
{"date":"2013-06-01","average_temperature":"21.58","city":"Montes Claros","latitude":"16.87S","longitude":"43.53W"}
{"date":"2013-09-01","city":"Monywa","latitude":"21.70N","longitude":"94.33E"}
{"date":"2011-09-01","average_temperature":"30.92","city":"Mopti","latitude":"15.27N","longitude":"4.17W"}
{"date":"2012-08-01","average_temperature":"20.053","city":"Mudanjiang","latitude":"44.20N","longitude":"129.69E"}
{"date":"2011-05-01","average_temperature":"13.493","city":"Mulhouse","latitude":"47.42N","longitude":"8.29E"}
{"date":"2010-07-01","average_temperature":"34.483000000000004","city":"Multan","latitude":"29.74N","longitude":"72.00E"}
{"date":"2010-09-01","average_temperature":"9.365","city":"Munich","latitude":"47.42N","longitude":"10.66E"}
{"date":"2012-11-01","average_temperature":"12.588","city":"Murcia","latitude":"37.78N","longitude":"2.03W"}
{"date":"2011-03-01","average_temperature":"-5.875000000000001","city":"Murmansk","latitude":"68.31N","longitude":"34.70E"}
{"date":"2013-01-01","average_temperature":"-10.981","city":"Murom","latitude":"55.45N","longitude":"42.52E"}
{"date":"2012-03-01","average_temperature":"25.045","city":"Murwara","latitude":"23.31N","longitude":"81.26E"}
{"date":"2010-12-01","average_temperature":"14.44","city":"Muzaffargarh","latitude":"29.74N","longitude":"72.00E"}
{"date":"2013-04-01","average_temperature":"23.241","city":"Mwanza","latitude":"2.41S","longitude":"32.95E"}
{"date":"2010-05-01","average_temperature":"25.872","city":"Mwene Ditu","latitude":"7.23S","longitude":"23.51E"}
{"date":"2012-02-01","average_temperature":"26.35","city":"Naga","latitude":"13.66N","longitude":"123.03E"}
{"date":"2013-02-01","average_temperature":"26.781","city":"Naga","latitude":"13.66N","longitude":"123.03E"}
{"date":"2013-07-01","average_temperature":"24.599","city":"Nagaoka","latitude":"37.78N","longitude":"138.31E"}
{"date":"2011-03-01","average_temperature":"6.9849999999999985","city":"Nagoya","latitude":"34.56N","longitude":"136.22E"}
{"date":"2013-02-01","average_temperature":"26.226000000000006","city":"Nalgonda","latitude":"16.87N","longitude":"78.70E"}
{"date":"2011-03-01","average_temperature":"5.768","city":"Namangan","latitude":"40.99N","longitude":"72.43E"}
{"date":"2011-08-01","average_temperature":"23.583000000000002","city":"Namangan","latitude":"40.99N","longitude":"72.43E"}
{"date":"2011-10-01","average_temperature":"12.151","city":"Namangan","latitude":"40.99N","longitude":"72.43E"}
{"date":"2013-09-01","city":"Nampula","latitude":"15.27S","longitude":"39.17E"}
{"date":"2012-11-01","average_temperature":"12.427","city":"Narita","latitude":"36.17N","longitude":"141.22E"}
{"date":"2013-06-01","average_temperature":"24.191","city":"Nashville","latitude":"36.17N","longitude":"87.51W"}
{"date":"2010-11-01","average_temperature":"9.219","city":"Navoi","latitude":"39.38N","longitude":"64.51E"}
{"date":"2010-08-01","average_temperature":"32.565999999999995","city":"Nawabshah","latitude":"26.52N","longitude":"68.06E"}
{"date":"2013-06-01","average_temperature":"19.056","city":"Neftekamsk","latitude":"55.45N","longitude":"53.86E"}
{"date":"2013-02-01","average_temperature":"-16.975","city":"Nefteyugansk","latitude":"61.88N","longitude":"73.02E"}
{"date":"2012-05-01","average_temperature":"28.311999999999998","city":"Negombo","latitude":"7.23N","longitude":"80.27E"}
{"date":"2011-10-01","average_temperature":"12.001","city":"New York","latitude":"40.99N","longitude":"74.56W"}
{"date":"2010-02-01","average_temperature":"2.696","city":"Newport","latitude":"52.24N","longitude":"2.63W"}
{"date":"2010-08-01","average_temperature":"26.017","city":"Newport News","latitude":"37.78N","longitude":"77.29W"}
{"date":"2010-08-01","average_temperature":"24.941999999999997","city":"Neyshabur","latitude":"36.17N","longitude":"59.67E"}
{"date":"2013-01-01","average_temperature":"25.625","city":"Neyveli","latitude":"12.05N","longitude":"78.90E"}
{"date":"2011-06-01","average_temperature":"18.901","city":"Nicolás Romero","latitude":"20.09N","longitude":"98.96W"}
{"date":"2011-02-01","average_temperature":"5.939","city":"Niihama","latitude":"34.56N","longitude":"134.27E"}
{"date":"2013-05-01","average_temperature":"18.358","city":"Nishinomiya","latitude":"34.56N","longitude":"136.22E"}
{"date":"2010-02-01","average_temperature":"-14.19","city":"Nizhnekamsk","latitude":"55.45N","longitude":"51.02E"}
{"date":"2013-02-01","average_temperature":"-9.819","city":"Nizhniy Tagil","latitude":"57.05N","longitude":"60.49E"}
{"date":"2010-07-01","average_temperature":"28.924","city":"Nonthaburi","latitude":"13.66N","longitude":"99.91E"}
{"date":"2012-05-01","average_temperature":"-4.702","city":"Norilsk","latitude":"69.92N","longitude":"88.83E"}
{"date":"2013-01-01","average_temperature":"-31.519","city":"Norilsk","latitude":"69.92N","longitude":"88.83E"}
{"date":"2013-08-01","average_temperature":"28.831","city":"North Las Vegas","latitude":"36.17N","longitude":"115.36W"}
{"date":"2010-11-01","average_temperature":"5.4639999999999995","city":"Northampton","latitude":"52.24N","longitude":"0.00W"}
{"date":"2012-08-01","average_temperature":"17.697000000000006","city":"Northampton","latitude":"52.24N","longitude":"0.00W"}
{"date":"2012-09-01","average_temperature":"23.186","city":"Nova Iguaçu","latitude":"23.31S","longitude":"42.82W"}
{"date":"2011-11-01","average_temperature":"4.143","city":"Novara","latitude":"45.81N","longitude":"8.08E"}
{"date":"2013-08-01","average_temperature":"24.419","city":"Nzérékoré","latitude":"7.23N","longitude":"8.92W"}
{"date":"2010-02-01","average_temperature":"-4.146","city":"Obihiro","latitude":"42.59N","longitude":"144.00E"}
{"date":"2012-01-01","average_temperature":"15.113","city":"Oceanside","latitude":"32.95N","longitude":"117.77W"}
{"date":"2011-07-01","average_temperature":"25.933000000000003","city":"Ocumare Del Tuy","latitude":"10.45N","longitude":"66.27W"}
{"date":"2013-08-01","average_temperature":"23.237","city":"Odesa","latitude":"45.81N","longitude":"31.15E"}
{"date":"2012-09-01","average_temperature":"24.467","city":"Okazaki","latitude":"34.56N","longitude":"136.22E"}
{"date":"2013-03-01","average_temperature":"2.478","city":"Oldham","latitude":"53.84N","longitude":"1.36W"}
{"date":"2012-09-01","average_temperature":"23.275","city":"Ome","latitude":"36.17N","longitude":"139.23E"}
{"date":"2012-11-01","average_temperature":"10.41","city":"Omuta","latitude":"32.95N","longitude":"131.17E"}
{"date":"2011-08-01","average_temperature":"25.871","city":"Onitsha","latitude":"5.63N","longitude":"6.46E"}
{"date":"2010-10-01","average_temperature":"8.521","city":"Osorno","latitude":"40.99S","longitude":"72.43W"}
{"date":"2011-12-01","average_temperature":"26.483","city":"Otukpo","latitude":"7.23N","longitude":"8.92E"}
{"date":"2012-12-01","average_temperature":"26.811999999999998","city":"Owo","latitude":"7.23N","longitude":"5.68E"}
{"date":"2011-02-01","average_temperature":"6.488","city":"Oxford","latitude":"52.24N","longitude":"0.00W"}
{"date":"2011-08-01","average_temperature":"24.956","city":"Oyo","latitude":"7.23N","longitude":"4.05E"}
{"date":"2012-08-01","average_temperature":"11.575","city":"Paarl","latitude":"34.56S","longitude":"19.46E"}
{"date":"2011-06-01","average_temperature":"25.349","city":"Pacet","latitude":"7.23S","longitude":"107.84E"}
{"date":"2012-10-01","average_temperature":"9.95","city":"Paderborn","latitude":"52.24N","longitude":"7.88E"}
{"date":"2012-01-01","average_temperature":"27.03","city":"Palembang","latitude":"2.41S","longitude":"105.27E"}
{"date":"2012-02-01","average_temperature":"25.373","city":"Palmas","latitude":"10.45S","longitude":"48.27W"}
{"date":"2012-12-01","average_temperature":"26.971999999999998","city":"Palmas","latitude":"10.45S","longitude":"48.27W"}
{"date":"2011-06-01","average_temperature":"26.433000000000003","city":"Pangkah","latitude":"7.23S","longitude":"109.46E"}
{"date":"2012-04-01","average_temperature":"32.836","city":"Parbhani","latitude":"20.09N","longitude":"76.78E"}
{"date":"2010-11-01","average_temperature":"27.364","city":"Parnamirim","latitude":"5.63S","longitude":"35.52W"}
{"date":"2010-09-01","average_temperature":"26.879","city":"Pasadena","latitude":"29.74N","longitude":"96.00W"}
{"date":"2012-12-01","average_temperature":"14.408","city":"Pasadena","latitude":"29.74N","longitude":"96.00W"}
{"date":"2013-03-01","average_temperature":"15.879000000000001","city":"Pasadena","latitude":"29.74N","longitude":"96.00W"}
{"date":"2012-05-01","average_temperature":"18.257","city":"Pasto","latitude":"0.80N","longitude":"77.95W"}
{"date":"2011-03-01","average_temperature":"14.913999999999998","city":"Pate","latitude":"24.92N","longitude":"120.59E"}
{"date":"2011-02-01","average_temperature":"23.785999999999998","city":"Patos De Minas","latitude":"18.48S","longitude":"47.32W"}
{"date":"2013-09-01","city":"Penza","latitude":"53.84N","longitude":"45.00E"}
{"date":"2012-09-01","average_temperature":"17.538999999999998","city":"Perpignan","latitude":"42.59N","longitude":"2.18E"}
{"date":"2010-06-01","average_temperature":"26.590999999999998","city":"Petare","latitude":"10.45N","longitude":"66.27W"}
{"date":"2013-08-01","average_temperature":"18.823","city":"Pforzheim","latitude":"49.03N","longitude":"9.80E"}
{"date":"2010-04-01","average_temperature":"21.226","city":"Phalaborwa","latitude":"23.31S","longitude":"30.58E"}
{"date":"2012-03-01","average_temperature":"29.316999999999997","city":"Phnum Pénh","latitude":"12.05N","longitude":"105.21E"}
{"date":"2011-04-01","average_temperature":"9.629","city":"Piatra Neamt","latitude":"47.42N","longitude":"27.24E"}
{"date":"2010-09-01","average_temperature":"14.062","city":"Pietermaritzburg","latitude":"29.74S","longitude":"29.54E"}
{"date":"2012-02-01","average_temperature":"18.581","city":"Pietermaritzburg","latitude":"29.74S","longitude":"29.54E"}
{"date":"2011-06-01","average_temperature":"27.921999999999997","city":"Pinar Del Río","latitude":"21.70N","longitude":"83.94W"}
{"date":"2012-12-01","average_temperature":"23.4","city":"Pinar Del Río","latitude":"21.70N","longitude":"83.94W"}
{"date":"2011-10-01","average_temperature":"21.397","city":"Piracicaba","latitude":"23.31S","longitude":"48.06W"}
{"date":"2010-09-01","average_temperature":"18.62","city":"Pittsburgh","latitude":"40.99N","longitude":"80.95W"}
{"date":"2013-08-01","average_temperature":"20.146","city":"Piura","latitude":"5.63S","longitude":"80.72W"}
{"date":"2011-09-01","average_temperature":"25.038","city":"Plây Cu","latitude":"13.66N","longitude":"108.17E"}
{"date":"2012-06-01","average_temperature":"16.998","city":"Plzen","latitude":"50.63N","longitude":"13.94E"}
{"date":"2010-03-01","average_temperature":"27.336","city":"Pontianak","latitude":"0.80S","longitude":"110.09E"}
{"date":"2012-05-01","average_temperature":"30.821","city":"Porbandar","latitude":"21.70N","longitude":"70.10E"}
{"date":"2013-07-01","average_temperature":"27.998","city":"Porbandar","latitude":"21.70N","longitude":"70.10E"}
{"date":"2011-10-01","average_temperature":"10.87","city":"Portland","latitude":"45.81N","longitude":"123.46W"}
{"date":"2012-03-01","average_temperature":"12.75","city":"Porto","latitude":"40.99N","longitude":"8.52W"}
{"date":"2012-07-01","average_temperature":"13.633","city":"Posadas","latitude":"28.13S","longitude":"55.45W"}
{"date":"2011-03-01","average_temperature":"22.458000000000002","city":"Pouso Alegre","latitude":"21.70S","longitude":"45.87W"}
{"date":"2011-02-01","average_temperature":"24.412","city":"Praia Grande","latitude":"23.31S","longitude":"46.31W"}
{"date":"2012-04-01","average_temperature":"11.345","city":"Prato","latitude":"44.20N","longitude":"11.18E"}
{"date":"2012-08-01","average_temperature":"24.446","city":"Prato","latitude":"44.20N","longitude":"11.18E"}
{"date":"2012-04-01","average_temperature":"6.742000000000001","city":"Preston","latitude":"53.84N","longitude":"1.36W"}
{"date":"2010-03-01","average_temperature":"5.814","city":"Pristina","latitude":"42.59N","longitude":"21.82E"}
{"date":"2012-04-01","average_temperature":"11.009","city":"Pristina","latitude":"42.59N","longitude":"21.82E"}
{"date":"2011-11-01","average_temperature":"28.039","city":"Probolinggo","latitude":"7.23S","longitude":"112.70E"}
{"date":"2012-12-01","average_temperature":"25.221999999999998","city":"Proddatur","latitude":"15.27N","longitude":"79.17E"}
{"date":"2010-08-01","average_temperature":"26.774","city":"Pucallpa","latitude":"8.84S","longitude":"73.78W"}
{"date":"2011-10-01","average_temperature":"18.436","city":"Puebla","latitude":"18.48N","longitude":"98.03W"}
{"date":"2010-10-01","average_temperature":"12.902000000000001","city":"Pueblo","latitude":"37.78N","longitude":"103.73W"}
{"date":"2010-01-01","average_temperature":"25.37","city":"Puerto Plata","latitude":"20.09N","longitude":"69.95W"}
{"date":"2010-12-01","average_temperature":"10.34","city":"Punta Arenas","latitude":"52.24S","longitude":"70.95W"}
{"date":"2011-07-01","average_temperature":"26.351999999999997","city":"Purnia","latitude":"26.52N","longitude":"87.76E"}
{"date":"2011-05-01","average_temperature":"22.717","city":"Qianjiang","latitude":"29.74N","longitude":"112.62E"}
{"date":"2012-05-01","average_temperature":"20.625","city":"Qinhuangdao","latitude":"39.38N","longitude":"118.61E"}
{"date":"2012-01-01","average_temperature":"2.4930000000000003","city":"Qom","latitude":"34.56N","longitude":"50.59E"}
{"date":"2013-02-01","average_temperature":"13.709000000000001","city":"Quanzhou","latitude":"24.92N","longitude":"118.82E"}
{"date":"2010-01-01","average_temperature":"5.371","city":"Quchan","latitude":"37.78N","longitude":"58.98E"}
{"date":"2010-06-01","average_temperature":"8.235000000000001","city":"Queenstown","latitude":"31.35S","longitude":"26.39E"}
{"date":"2011-01-01","average_temperature":"21.143","city":"Queenstown","latitude":"31.35S","longitude":"26.39E"}
{"date":"2013-05-01","average_temperature":"22.258000000000006","city":"Quevedo","latitude":"0.80S","longitude":"79.55W"}
{"date":"2010-09-01","average_temperature":"20.67","city":"Qujing","latitude":"24.92N","longitude":"104.63E"}
{"date":"2010-11-01","average_temperature":"9.288","city":"Rafsanjan","latitude":"29.74N","longitude":"55.38E"}
{"date":"2010-06-01","average_temperature":"25.56","city":"Ramat Gan","latitude":"32.95N","longitude":"35.43E"}
{"date":"2010-04-01","average_temperature":"31.96","city":"Rangoon","latitude":"16.87N","longitude":"95.44E"}
{"date":"2010-11-01","average_temperature":"27.298","city":"Rantauprapat","latitude":"2.41N","longitude":"100.45E"}
{"date":"2011-07-01","average_temperature":"15.847000000000001","city":"Remscheid","latitude":"50.63N","longitude":"6.34E"}
{"date":"2012-02-01","average_temperature":"27.287","city":"Rengasdengklok","latitude":"5.63S","longitude":"106.55E"}
{"date":"2010-12-01","average_temperature":"-2.667","city":"Reutlingen","latitude":"49.03N","longitude":"9.80E"}
{"date":"2012-06-01","average_temperature":"28.142","city":"Richardson","latitude":"32.95N","longitude":"96.70W"}
{"date":"2011-02-01","average_temperature":"25.244","city":"Rio Claro","latitude":"21.70S","longitude":"47.60W"}
{"date":"2013-03-01","average_temperature":"-2.6060000000000003","city":"Rivne","latitude":"50.63N","longitude":"26.62E"}
{"date":"2012-11-01","average_temperature":"5.959","city":"Rizhao","latitude":"36.17N","longitude":"119.34E"}
{"date":"2010-02-01","average_temperature":"26.818","city":"Rondonópolis","latitude":"16.87S","longitude":"55.26W"}
{"date":"2012-06-01","average_temperature":"17.648","city":"Roseville","latitude":"39.38N","longitude":"120.69W"}
{"date":"2011-05-01","average_temperature":"14.277999999999999","city":"Rybnik","latitude":"50.63N","longitude":"19.01E"}
{"date":"2011-07-01","average_temperature":"17.597","city":"São Caetano Do Sul","latitude":"23.31S","longitude":"46.31W"}
{"date":"2011-02-01","average_temperature":"24.412","city":"São Paulo","latitude":"23.31S","longitude":"46.31W"}
{"date":"2012-03-01","average_temperature":"22.706999999999997","city":"São Paulo","latitude":"23.31S","longitude":"46.31W"}
{"date":"2013-02-01","average_temperature":"-0.2230000000000001","city":"Saarbrücken","latitude":"49.03N","longitude":"7.35E"}
{"date":"2013-09-01","city":"Sabadell","latitude":"40.99N","longitude":"2.13E"}
{"date":"2012-07-01","average_temperature":"28.37","city":"Sabratah","latitude":"32.95N","longitude":"12.45E"}
{"date":"2010-03-01","average_temperature":"16.641000000000002","city":"Safaqis","latitude":"34.56N","longitude":"11.68E"}
{"date":"2012-07-01","average_temperature":"27.629","city":"Safaqis","latitude":"34.56N","longitude":"11.68E"}
{"date":"2012-06-01","average_temperature":"34.249","city":"Saharanpur","latitude":"29.74N","longitude":"77.54E"}
{"date":"2012-07-01","average_temperature":"34.235","city":"Sahiwal","latitude":"31.35N","longitude":"73.51E"}
{"date":"2012-10-01","average_temperature":"6.417000000000001","city":"Saint Paul","latitude":"45.81N","longitude":"93.46W"}
{"date":"2013-02-01","average_temperature":"26.427","city":"Salatiga","latitude":"7.23S","longitude":"111.08E"}
{"date":"2011-01-01","average_temperature":"18.433","city":"Salta","latitude":"24.92S","longitude":"65.62W"}
{"date":"2013-06-01","average_temperature":"9.394","city":"Salta","latitude":"24.92S","longitude":"65.62W"}
{"date":"2012-09-01","average_temperature":"13.315","city":"Samara","latitude":"53.84N","longitude":"50.45E"}
{"date":"2013-05-01","average_temperature":"17.817","city":"Samsun","latitude":"40.99N","longitude":"36.21E"}
{"date":"2010-07-01","average_temperature":"28.315","city":"San Cristóbal","latitude":"18.48N","longitude":"69.30W"}
{"date":"2012-09-01","average_temperature":"25.129","city":"San José","latitude":"10.45N","longitude":"84.27W"}
{"date":"2011-04-01","average_temperature":"27.084","city":"San Nicolás De Los Garza","latitude":"26.52N","longitude":"100.30W"}
{"date":"2011-05-01","average_temperature":"20.561","city":"San Pablo De Las Salinas","latitude":"20.09N","longitude":"98.96W"}
{"date":"2013-08-01","average_temperature":"28.406","city":"San Pedro De Macorís","latitude":"18.48N","longitude":"69.30W"}
{"date":"2010-09-01","average_temperature":"12.477","city":"San Rafael","latitude":"34.56S","longitude":"68.11W"}
{"date":"2011-12-01","average_temperature":"3.747","city":"Sanandaj","latitude":"34.56N","longitude":"46.70E"}
{"date":"2013-08-01","average_temperature":"28.659","city":"Sanhsia","latitude":"24.92N","longitude":"120.59E"}
{"date":"2010-01-01","average_temperature":"10.017999999999999","city":"Sanming","latitude":"26.52N","longitude":"118.21E"}
{"date":"2012-08-01","average_temperature":"26.892000000000003","city":"Santa Clarita","latitude":"34.56N","longitude":"118.70W"}
{"date":"2013-03-01","average_temperature":"14.463","city":"Santa Clarita","latitude":"34.56N","longitude":"118.70W"}
{"date":"2013-01-01","average_temperature":"27.026","city":"Santa Rita","latitude":"7.23S","longitude":"34.86W"}
{"date":"2012-03-01","average_temperature":"26.055","city":"Santarém","latitude":"2.41S","longitude":"55.45W"}
{"date":"2012-03-01","average_temperature":"25.871","city":"Santiago","latitude":"16.87N","longitude":"122.23E"}
{"date":"2013-07-01","average_temperature":"28.081","city":"Santiago","latitude":"16.87N","longitude":"122.23E"}
{"date":"2011-05-01","average_temperature":"21.658","city":"Sari","latitude":"36.17N","longitude":"53.70E"}
{"date":"2010-06-01","average_temperature":"15.733","city":"Saskatoon","latitude":"52.24N","longitude":"107.74W"}
{"date":"2011-02-01","average_temperature":"-15.062000000000001","city":"Saskatoon","latitude":"52.24N","longitude":"107.74W"}
{"date":"2012-01-01","average_temperature":"0.7150000000000001","city":"Sayama","latitude":"36.17N","longitude":"139.23E"}
{"date":"2010-04-01","average_temperature":"28.18","city":"Sekudai","latitude":"0.80N","longitude":"103.66E"}
{"date":"2012-05-01","average_temperature":"31.809","city":"Selam","latitude":"12.05N","longitude":"78.90E"}
{"date":"2013-09-01","city":"Seoul","latitude":"37.78N","longitude":"126.10E"}
{"date":"2012-02-01","average_temperature":"-12.533","city":"Serpukhov","latitude":"55.45N","longitude":"36.85E"}
{"date":"2010-04-01","average_temperature":"23.819000000000003","city":"Serra","latitude":"20.09S","longitude":"40.95W"}
{"date":"2011-08-01","average_temperature":"21.756999999999998","city":"Sete Lagoas","latitude":"20.09S","longitude":"44.36W"}
{"date":"2010-10-01","average_temperature":"26.311999999999998","city":"Shagamu","latitude":"7.23N","longitude":"4.05E"}
{"date":"2010-08-01","average_temperature":"24.056","city":"Shahr E Kord","latitude":"32.95N","longitude":"50.74E"}
{"date":"2012-02-01","average_temperature":"22.408","city":"Shantipur","latitude":"23.31N","longitude":"88.25E"}
{"date":"2012-02-01","average_temperature":"8.722000000000001","city":"Shaoguan","latitude":"24.92N","longitude":"113.50E"}
{"date":"2011-05-01","average_temperature":"24.979000000000006","city":"Shaping","latitude":"23.31N","longitude":"112.72E"}
{"date":"2010-12-01","average_temperature":"8.008000000000001","city":"Shashi","latitude":"29.74N","longitude":"112.62E"}
{"date":"2012-11-01","average_temperature":"-6.64","city":"Shihezi","latitude":"44.20N","longitude":"84.97E"}
{"date":"2010-11-01","average_temperature":"21.835","city":"Shikarpur","latitude":"28.13N","longitude":"68.18E"}
{"date":"2012-08-01","average_temperature":"18.505000000000006","city":"Shimla","latitude":"31.35N","longitude":"77.28E"}
{"date":"2010-09-01","average_temperature":"19.025","city":"Shymkent","latitude":"42.59N","longitude":"69.82E"}
{"date":"2011-11-01","average_temperature":"1.6280000000000001","city":"Shymkent","latitude":"42.59N","longitude":"69.82E"}
{"date":"2011-03-01","average_temperature":"0.5690000000000001","city":"Siauliai","latitude":"55.45N","longitude":"22.68E"}
{"date":"2010-01-01","average_temperature":"-4.005","city":"Sibiu","latitude":"45.81N","longitude":"24.23E"}
{"date":"2013-08-01","average_temperature":"18.192","city":"Siegen","latitude":"50.63N","longitude":"8.87E"}
{"date":"2012-07-01","average_temperature":"27.436","city":"Siirt","latitude":"37.78N","longitude":"42.71E"}
{"date":"2011-09-01","average_temperature":"28.909000000000002","city":"Sikar","latitude":"28.13N","longitude":"75.45E"}
{"date":"2011-09-01","average_temperature":"22.728","city":"Simi Valley","latitude":"34.56N","longitude":"118.70W"}
{"date":"2010-05-01","average_temperature":"29.279","city":"Singkawang","latitude":"0.80N","longitude":"108.48E"}
{"date":"2013-06-01","average_temperature":"27.471999999999998","city":"Sirjan","latitude":"29.74N","longitude":"55.38E"}
{"date":"2013-08-01","average_temperature":"30.708","city":"Sirsa","latitude":"29.74N","longitude":"75.69E"}
{"date":"2010-06-01","average_temperature":"20.478","city":"Soacha","latitude":"4.02N","longitude":"74.73W"}
{"date":"2011-08-01","average_temperature":"21.133000000000003","city":"Sochi","latitude":"44.20N","longitude":"40.25E"}
{"date":"2010-08-01","average_temperature":"19.768","city":"Sogamoso","latitude":"5.63N","longitude":"72.65W"}
{"date":"2012-02-01","average_temperature":"15.645999999999999","city":"Sohag","latitude":"26.52N","longitude":"32.24E"}
{"date":"2010-01-01","average_temperature":"-1.763","city":"Solingen","latitude":"50.63N","longitude":"6.34E"}
{"date":"2011-02-01","average_temperature":"22.603","city":"Songea","latitude":"10.45S","longitude":"35.18E"}
{"date":"2010-06-01","average_temperature":"25.484","city":"Soreang","latitude":"7.23S","longitude":"107.84E"}
{"date":"2012-04-01","average_temperature":"10.368","city":"South Bend","latitude":"40.99N","longitude":"85.21W"}
{"date":"2012-08-01","average_temperature":"20.302","city":"Spokane","latitude":"47.42N","longitude":"117.24W"}
{"date":"2011-10-01","average_temperature":"17.85","city":"Springs","latitude":"26.52S","longitude":"28.66E"}
{"date":"2010-06-01","average_temperature":"21.943","city":"Stamford","latitude":"40.99N","longitude":"74.56W"}
{"date":"2010-12-01","average_temperature":"-2.165","city":"Stamford","latitude":"40.99N","longitude":"74.56W"}
{"date":"2011-07-01","average_temperature":"17.959","city":"Stockholm","latitude":"58.66N","longitude":"18.46E"}
{"date":"2011-10-01","average_temperature":"10.166","city":"Strasbourg","latitude":"49.03N","longitude":"7.35E"}
{"date":"2010-03-01","average_temperature":"2.151","city":"Sudbury","latitude":"45.81N","longitude":"81.92W"}
{"date":"2010-06-01","average_temperature":"18.643","city":"Sunnyvale","latitude":"37.78N","longitude":"122.03W"}
{"date":"2011-07-01","average_temperature":"26.378","city":"Surakarta","latitude":"7.23S","longitude":"111.08E"}
{"date":"2012-07-01","average_temperature":"26.162","city":"Surakarta","latitude":"7.23S","longitude":"111.08E"}
{"date":"2013-06-01","average_temperature":"26.909000000000002","city":"Surakarta","latitude":"7.23S","longitude":"111.08E"}
{"date":"2013-05-01","average_temperature":"29.27","city":"Surat Thani","latitude":"8.84N","longitude":"99.73E"}
{"date":"2010-11-01","average_temperature":"26.015","city":"Suriapet","latitude":"16.87N","longitude":"80.37E"}
{"date":"2013-07-01","average_temperature":"16.849","city":"Suzano","latitude":"23.31S","longitude":"46.31W"}
{"date":"2010-11-01","average_temperature":"9.219","city":"Türkmenabat","latitude":"39.38N","longitude":"64.51E"}
{"date":"2012-08-01","average_temperature":"28.433000000000003","city":"Türkmenabat","latitude":"39.38N","longitude":"64.51E"}
{"date":"2013-05-01","average_temperature":"18.317","city":"Taboão Da Serra","latitude":"23.31S","longitude":"46.31W"}
{"date":"2012-08-01","average_temperature":"28.721999999999998","city":"Tadepallegudem","latitude":"16.87N","longitude":"82.05E"}
{"date":"2012-03-01","average_temperature":"4.388","city":"Takaoka","latitude":"36.17N","longitude":"137.24E"}
{"date":"2013-07-01","average_temperature":"24.645000000000003","city":"Takasaki","latitude":"36.17N","longitude":"139.23E"}
{"date":"2010-08-01","average_temperature":"28.454","city":"Takatsuki","latitude":"34.56N","longitude":"136.22E"}
{"date":"2013-09-01","city":"Takatsuki","latitude":"34.56N","longitude":"136.22E"}
{"date":"2013-07-01","average_temperature":"28.485","city":"Tali","latitude":"24.92N","longitude":"120.59E"}
{"date":"2012-02-01","average_temperature":"27.247","city":"Talisay","latitude":"10.45N","longitude":"123.55E"}
{"date":"2012-04-01","average_temperature":"11.395999999999999","city":"Tambov","latitude":"52.24N","longitude":"42.04E"}
{"date":"2010-07-01","average_temperature":"27.886","city":"Tampico","latitude":"21.70N","longitude":"97.79W"}
{"date":"2013-03-01","average_temperature":"22.258000000000003","city":"Tampico","latitude":"21.70N","longitude":"97.79W"}
{"date":"2010-10-01","average_temperature":"27.563000000000002","city":"Tanjung Morawa","latitude":"4.02N","longitude":"98.84E"}
{"date":"2010-07-01","average_temperature":"27.464","city":"Tanza","latitude":"15.27N","longitude":"120.83E"}
{"date":"2013-05-01","average_temperature":"14.565","city":"Targu Mures","latitude":"45.81N","longitude":"24.23E"}
{"date":"2013-08-01","average_temperature":"26.754","city":"Tarlac","latitude":"15.27N","longitude":"120.83E"}
{"date":"2013-06-01","average_temperature":"18.339000000000002","city":"Tarnow","latitude":"50.63N","longitude":"21.55E"}
{"date":"2010-02-01","average_temperature":"-0.6020000000000001","city":"Tashkent","latitude":"40.99N","longitude":"70.30E"}
{"date":"2010-07-01","average_temperature":"25.532","city":"Taunggyi","latitude":"20.09N","longitude":"97.25E"}
{"date":"2011-12-01","average_temperature":"7.4129999999999985","city":"Tekirdag","latitude":"40.99N","longitude":"27.69E"}
{"date":"2012-05-01","average_temperature":"27.462","city":"Tema","latitude":"5.63N","longitude":"0.00W"}
{"date":"2011-05-01","average_temperature":"23.614","city":"Tempe","latitude":"32.95N","longitude":"112.02W"}
{"date":"2012-07-01","average_temperature":"6.606","city":"Temuco","latitude":"39.38S","longitude":"72.83W"}
{"date":"2013-01-01","average_temperature":"17.410999999999998","city":"Temuco","latitude":"39.38S","longitude":"72.83W"}
{"date":"2010-06-01","average_temperature":"31.936","city":"Tenali","latitude":"16.87N","longitude":"80.37E"}
{"date":"2011-10-01","average_temperature":"28.331000000000003","city":"Tenali","latitude":"16.87N","longitude":"80.37E"}
{"date":"2012-04-01","average_temperature":"17.258","city":"Tengzhou","latitude":"34.56N","longitude":"116.76E"}
{"date":"2011-12-01","average_temperature":"12.917","city":"Terrassa","latitude":"40.99N","longitude":"2.13E"}
{"date":"2011-08-01","average_temperature":"18.308","city":"Texcoco","latitude":"20.09N","longitude":"98.96W"}
{"date":"2012-08-01","average_temperature":"26.954","city":"Thaton","latitude":"16.87N","longitude":"97.12E"}
{"date":"2011-06-01","average_temperature":"23.113000000000003","city":"Thessaloníki","latitude":"40.99N","longitude":"23.43E"}
{"date":"2012-06-01","average_temperature":"27.15","city":"Thiès","latitude":"15.27N","longitude":"17.50W"}
{"date":"2012-04-01","average_temperature":"29.116","city":"Thrissur","latitude":"10.45N","longitude":"76.09E"}
{"date":"2010-05-01","average_temperature":"10.363","city":"Tilburg","latitude":"52.24N","longitude":"5.26E"}
{"date":"2011-01-01","average_temperature":"2.9339999999999997","city":"Tilburg","latitude":"52.24N","longitude":"5.26E"}
{"date":"2011-09-01","average_temperature":"29.35","city":"Timon","latitude":"5.63S","longitude":"43.59W"}
{"date":"2010-07-01","average_temperature":"25.246","city":"Tirana","latitude":"40.99N","longitude":"19.17E"}
{"date":"2012-04-01","average_temperature":"30.995","city":"Tiruvannamalai","latitude":"12.05N","longitude":"78.90E"}
{"date":"2013-05-01","average_temperature":"32.648","city":"Tiruvannamalai","latitude":"12.05N","longitude":"78.90E"}
{"date":"2011-10-01","average_temperature":"17.753999999999994","city":"Tokuyama","latitude":"34.56N","longitude":"132.32E"}
{"date":"2013-04-01","average_temperature":"25.773000000000003","city":"Toliary","latitude":"23.31S","longitude":"42.82E"}
{"date":"2010-07-01","average_temperature":"26.054","city":"Toms River","latitude":"39.38N","longitude":"74.91W"}
{"date":"2012-11-01","average_temperature":"10.312","city":"Tongling","latitude":"31.35N","longitude":"118.74E"}
{"date":"2010-11-01","average_temperature":"21.877","city":"Tonk","latitude":"26.52N","longitude":"75.22E"}
{"date":"2010-10-01","average_temperature":"11.684000000000001","city":"Torrejón De Ardoz","latitude":"40.99N","longitude":"4.26W"}
{"date":"2013-04-01","average_temperature":"9.482999999999999","city":"Torrejón De Ardoz","latitude":"40.99N","longitude":"4.26W"}
{"date":"2010-02-01","average_temperature":"6.8420000000000005","city":"Toyonaka","latitude":"34.56N","longitude":"136.22E"}
{"date":"2013-01-01","average_temperature":"3.917","city":"Toyonaka","latitude":"34.56N","longitude":"136.22E"}
{"date":"2010-05-01","average_temperature":"13.53","city":"Trento","latitude":"45.81N","longitude":"10.38E"}
{"date":"2013-01-01","average_temperature":"1.026","city":"Trier","latitude":"49.03N","longitude":"7.35E"}
{"date":"2013-06-01","average_temperature":"16.578","city":"Trier","latitude":"49.03N","longitude":"7.35E"}
{"date":"2012-02-01","average_temperature":"25.009","city":"Tuguegarao","latitude":"18.48N","longitude":"121.69E"}
{"date":"2013-07-01","average_temperature":"18.090999999999998","city":"Tulancingo","latitude":"20.09N","longitude":"98.96W"}
{"date":"2011-02-01","average_temperature":"22.121","city":"Tuluá","latitude":"4.02N","longitude":"76.34W"}
{"date":"2010-01-01","average_temperature":"17.354000000000006","city":"Tungi","latitude":"23.31N","longitude":"90.00E"}
{"date":"2013-02-01","average_temperature":"1.536","city":"Tuzla","latitude":"44.20N","longitude":"17.89E"}
{"date":"2011-10-01","average_temperature":"8.924","city":"Tychy","latitude":"50.63N","longitude":"19.01E"}
{"date":"2011-04-01","average_temperature":"5.836","city":"Tyumen","latitude":"57.05N","longitude":"66.39E"}
{"date":"2011-09-01","average_temperature":"12.563","city":"Ufa","latitude":"55.45N","longitude":"56.69E"}
{"date":"2011-08-01","average_temperature":"27.376","city":"Uji","latitude":"34.56N","longitude":"136.22E"}
{"date":"2010-09-01","average_temperature":"26.475","city":"Ujjain","latitude":"23.31N","longitude":"76.02E"}
{"date":"2011-03-01","average_temperature":"-5.541","city":"Ukhta","latitude":"63.49N","longitude":"52.20E"}
{"date":"2011-01-01","average_temperature":"-12.708","city":"Ulyanovsk","latitude":"53.84N","longitude":"47.73E"}
{"date":"2010-11-01","average_temperature":"23.146","city":"Uruguaiana","latitude":"29.74S","longitude":"57.23W"}
{"date":"2013-03-01","average_temperature":"8.508","city":"Usak","latitude":"39.38N","longitude":"29.13E"}
{"date":"2010-09-01","average_temperature":"22.445","city":"Uvira","latitude":"4.02S","longitude":"29.73E"}
{"date":"2010-02-01","average_temperature":"29.521","city":"Uyo","latitude":"5.63N","longitude":"8.07E"}
{"date":"2010-02-01","average_temperature":"-1.6980000000000002","city":"Uzhhorod","latitude":"49.03N","longitude":"22.04E"}
{"date":"2010-05-01","average_temperature":"14.234000000000002","city":"Uzhhorod","latitude":"49.03N","longitude":"22.04E"}
{"date":"2012-06-01","average_temperature":"18.113","city":"Várzea Paulista","latitude":"23.31S","longitude":"46.31W"}
{"date":"2013-06-01","average_temperature":"19.759","city":"Vallejo","latitude":"37.78N","longitude":"122.03W"}
{"date":"2012-02-01","average_temperature":"2.677","city":"Vancouver","latitude":"49.03N","longitude":"122.45W"}
{"date":"2012-09-01","average_temperature":"27.22","city":"Vejalpur","latitude":"23.31N","longitude":"74.27E"}
{"date":"2010-04-01","average_temperature":"31.576","city":"Velluru","latitude":"12.05N","longitude":"78.90E"}
{"date":"2011-08-01","average_temperature":"25.896","city":"Veracruz","latitude":"18.48N","longitude":"96.34W"}
{"date":"2013-05-01","average_temperature":"26.653","city":"Veracruz","latitude":"18.48N","longitude":"96.34W"}
{"date":"2012-06-01","average_temperature":"19.392","city":"Verona","latitude":"45.81N","longitude":"10.38E"}
{"date":"2011-07-01","average_temperature":"16.694000000000003","city":"Villeurbanne","latitude":"45.81N","longitude":"5.77E"}
{"date":"2011-10-01","average_temperature":"10.077","city":"Villeurbanne","latitude":"45.81N","longitude":"5.77E"}
{"date":"2012-08-01","average_temperature":"19.746","city":"Villeurbanne","latitude":"45.81N","longitude":"5.77E"}
{"date":"2013-09-01","city":"Vinh","latitude":"18.48N","longitude":"106.48E"}
{"date":"2012-06-01","average_temperature":"9.841","city":"Virginia","latitude":"28.13S","longitude":"26.36E"}
{"date":"2011-12-01","average_temperature":"1.399","city":"Volgodonsk","latitude":"47.42N","longitude":"41.45E"}
{"date":"2011-01-01","average_temperature":"-7.499","city":"Volzhskiy","latitude":"49.03N","longitude":"44.08E"}
{"date":"2013-01-01","average_temperature":"-7.638000000000001","city":"Voronezh","latitude":"52.24N","longitude":"39.42E"}
{"date":"2010-08-01","average_temperature":"30.559","city":"Waco","latitude":"31.35N","longitude":"98.01W"}
{"date":"2012-03-01","average_temperature":"29.101999999999997","city":"Wad Madani","latitude":"13.66N","longitude":"33.85E"}
{"date":"2013-09-01","city":"Wad Madani","latitude":"13.66N","longitude":"33.85E"}
{"date":"2013-07-01","average_temperature":"24.741","city":"Wahran","latitude":"36.17N","longitude":"0.00W"}
{"date":"2011-12-01","average_temperature":"17.798","city":"Waitakere","latitude":"36.17S","longitude":"175.03E"}
{"date":"2013-09-01","city":"Wardha","latitude":"20.09N","longitude":"78.48E"}
{"date":"2013-03-01","average_temperature":"6.3610000000000015","city":"Weifang","latitude":"36.17N","longitude":"119.34E"}
{"date":"2011-11-01","average_temperature":"3.158","city":"West Valley City","latitude":"40.99N","longitude":"112.90W"}
{"date":"2011-05-01","average_temperature":"14.488","city":"Wiesbaden","latitude":"50.63N","longitude":"8.87E"}
{"date":"2010-03-01","average_temperature":"23.654","city":"Windhoek","latitude":"23.31S","longitude":"16.60E"}
{"date":"2011-02-01","average_temperature":"-14.768","city":"Winnipeg","latitude":"50.63N","longitude":"97.61W"}
{"date":"2010-02-01","average_temperature":"21.713","city":"Wollongong","latitude":"34.56S","longitude":"151.78E"}
{"date":"2013-09-01","city":"Wollongong","latitude":"34.56S","longitude":"151.78E"}
{"date":"2011-09-01","average_temperature":"14.777999999999999","city":"Worcester","latitude":"52.24N","longitude":"2.63W"}
{"date":"2011-03-01","average_temperature":"9.459","city":"Wuhu","latitude":"31.35N","longitude":"118.74E"}
{"date":"2011-08-01","average_temperature":"23.069000000000006","city":"Xian","latitude":"34.56N","longitude":"108.97E"}
{"date":"2010-07-01","average_temperature":"28.191","city":"Xinpu","latitude":"34.56N","longitude":"118.70E"}
{"date":"2013-04-01","average_temperature":"15.526","city":"Xuanzhou","latitude":"31.35N","longitude":"118.74E"}
{"date":"2013-04-01","average_temperature":"19.538","city":"Yüanlin","latitude":"24.92N","longitude":"120.59E"}
{"date":"2010-06-01","average_temperature":"21.521","city":"Yachiyo","latitude":"36.17N","longitude":"139.23E"}
{"date":"2012-02-01","average_temperature":"14.387","city":"Yangmei","latitude":"24.92N","longitude":"120.59E"}
{"date":"2011-08-01","average_temperature":"23.795","city":"Yantai","latitude":"37.78N","longitude":"122.03E"}
{"date":"2012-06-01","average_temperature":"19.482","city":"Yantai","latitude":"37.78N","longitude":"122.03E"}
{"date":"2011-12-01","average_temperature":"22.087","city":"Yavatmal","latitude":"20.09N","longitude":"78.48E"}
{"date":"2012-11-01","average_temperature":"-4.225999999999999","city":"Yekaterinburg","latitude":"57.05N","longitude":"60.49E"}
{"date":"2010-03-01","average_temperature":"28.794","city":"Yelahanka","latitude":"13.66N","longitude":"76.79E"}
{"date":"2011-08-01","average_temperature":"21.025","city":"Yerevan","latitude":"40.99N","longitude":"44.73E"}
{"date":"2010-01-01","average_temperature":"7.247999999999999","city":"Yibin","latitude":"28.13N","longitude":"104.55E"}
{"date":"2010-07-01","average_temperature":"29.495","city":"Yichun","latitude":"28.13N","longitude":"113.64E"}
{"date":"2013-06-01","average_temperature":"23.041999999999998","city":"Yidu","latitude":"36.17N","longitude":"119.34E"}
{"date":"2012-10-01","average_temperature":"18.16","city":"Yiyang","latitude":"28.13N","longitude":"111.82E"}
{"date":"2010-12-01","average_temperature":"4.8580000000000005","city":"Yizheng","latitude":"32.95N","longitude":"119.68E"}
{"date":"2011-04-01","average_temperature":"23.291","city":"Yulin","latitude":"21.70N","longitude":"109.90E"}
{"date":"2010-03-01","average_temperature":"21.111","city":"Zabol","latitude":"31.35N","longitude":"62.20E"}
{"date":"2012-04-01","average_temperature":"10.501","city":"Zagreb","latitude":"45.81N","longitude":"15.00E"}
{"date":"2013-09-01","city":"Zama","latitude":"36.17N","longitude":"139.23E"}
{"date":"2012-11-01","average_temperature":"27.193","city":"Zanzibar","latitude":"5.63S","longitude":"38.74E"}
{"date":"2012-12-01","average_temperature":"27.639","city":"Zanzibar","latitude":"5.63S","longitude":"38.74E"}
{"date":"2012-08-01","average_temperature":"19.419","city":"Zelenodolsk","latitude":"55.45N","longitude":"48.19E"}
{"date":"2011-11-01","average_temperature":"-0.6930000000000001","city":"Zhangjiakou","latitude":"40.99N","longitude":"115.03E"}
{"date":"2011-04-01","average_temperature":"11.262","city":"Zhezkazgan","latitude":"47.42N","longitude":"67.50E"}
{"date":"2012-05-01","average_temperature":"27.381","city":"Zhongshan","latitude":"21.70N","longitude":"113.37E"}
{"date":"2010-04-01","average_temperature":"9.415","city":"Zielona Gora","latitude":"52.24N","longitude":"15.77E"}
{"date":"2010-04-01","average_temperature":"16.746","city":"Zigong","latitude":"29.74N","longitude":"105.23E"}
{"date":"2010-12-01","average_temperature":"8.763","city":"Zigong","latitude":"29.74N","longitude":"105.23E"}
{"date":"2012-08-01","average_temperature":"18.588","city":"Zwolle","latitude":"52.24N","longitude":"5.26E"}
