{"date":"2011-12-01","average_temperature":"9.658","city":"A Coruña","latitude":"42.59N","longitude":"8.73W"}
{"date":"2011-07-01","average_temperature":"26.219","city":"Aba","latitude":"5.63N","longitude":"8.07E"}
{"date":"2011-02-01","average_temperature":"6.968","city":"Abilene","latitude":"32.95N","longitude":"100.53W"}
{"date":"2011-09-01","average_temperature":"25.77","city":"Accra","latitude":"5.63N","longitude":"0.00W"}
{"date":"2011-08-01","average_temperature":"28.834","city":"Adana","latitude":"36.17N","longitude":"35.80E"}
{"date":"2012-06-01","average_temperature":"30.303","city":"Aden","latitude":"13.66N","longitude":"45.41E"}
{"date":"2013-02-01","average_temperature":"27.426","city":"Adoni","latitude":"15.27N","longitude":"77.50E"}
{"date":"2011-05-01","average_temperature":"32.887","city":"Ahvaz","latitude":"31.35N","longitude":"49.01E"}
{"date":"2011-07-01","average_temperature":"24.948","city":"Akron","latitude":"40.99N","longitude":"80.95W"}
{"date":"2011-03-01","average_temperature":"6.281000000000001","city":"Aksaray","latitude":"37.78N","longitude":"34.58E"}
{"date":"2011-01-01","average_temperature":"13.066","city":"Alanya","latitude":"36.17N","longitude":"31.82E"}
{"date":"2013-02-01","average_temperature":"4.4030000000000005","city":"Alcorcón","latitude":"40.99N","longitude":"4.26W"}
{"date":"2011-02-01","average_temperature":"20.203","city":"Allahabad","latitude":"24.92N","longitude":"81.58E"}
{"date":"2013-04-01","average_temperature":"7.71","city":"Almere","latitude":"52.24N","longitude":"5.26E"}
{"date":"2011-02-01","average_temperature":"-18.259","city":"Almetyevsk","latitude":"55.45N","longitude":"51.02E"}
{"date":"2012-04-01","average_temperature":"12.705","city":"Amadora","latitude":"39.38N","longitude":"8.32W"}
{"date":"2012-04-01","average_temperature":"18.657","city":"Amarillo","latitude":"34.56N","longitude":"101.19W"}
{"date":"2012-01-01","average_temperature":"16.909000000000002","city":"Ambato","latitude":"0.80S","longitude":"77.95W"}
{"date":"2011-09-01","average_temperature":"17.369","city":"Amiens","latitude":"49.03N","longitude":"2.45E"}
{"date":"2013-02-01","average_temperature":"22.741","city":"Amravati","latitude":"21.70N","longitude":"77.02E"}
{"date":"2010-01-01","average_temperature":"14.445","city":"Anaheim","latitude":"32.95N","longitude":"117.77W"}
{"date":"2011-11-01","average_temperature":"26.626","city":"Angeles","latitude":"15.27N","longitude":"120.83E"}
{"date":"2010-07-01","average_temperature":"21.613000000000003","city":"Angra Dos Reis","latitude":"23.31S","longitude":"44.56W"}
{"date":"2012-06-01","average_temperature":"22.745","city":"Angren","latitude":"40.99N","longitude":"70.30E"}
{"date":"2010-08-01","average_temperature":"28.454","city":"Anjo","latitude":"34.56N","longitude":"136.22E"}
{"date":"2010-12-01","average_temperature":"25.912000000000006","city":"Antipolo","latitude":"15.27N","longitude":"120.83E"}
{"date":"2013-04-01","average_temperature":"30.005","city":"Antipolo","latitude":"15.27N","longitude":"120.83E"}
{"date":"2011-12-01","average_temperature":"17.744","city":"Antofagasta","latitude":"23.31S","longitude":"70.78W"}
{"date":"2012-07-01","average_temperature":"14.569","city":"Antofagasta","latitude":"23.31S","longitude":"70.78W"}
{"date":"2011-06-01","average_temperature":"19.214","city":"Aqtöbe","latitude":"50.63N","longitude":"57.04E"}
{"date":"2011-02-01","average_temperature":"19.857","city":"Ara","latitude":"24.92N","longitude":"85.12E"}
{"date":"2013-02-01","average_temperature":"27.19","city":"Araruama","latitude":"23.31S","longitude":"42.82W"}
{"date":"2013-09-01","city":"Arnhem","latitude":"52.24N","longitude":"5.26E"}
{"date":"2012-12-01","average_temperature":"18.570999999999998","city":"Asansol","latitude":"23.31N","longitude":"86.50E"}
{"date":"2013-04-01","average_temperature":"15.558","city":"Asgabat","latitude":"37.78N","longitude":"58.98E"}
{"date":"2010-08-01","average_temperature":"27.667","city":"Astrakhan","latitude":"45.81N","longitude":"47.31E"}
{"date":"2010-03-01","average_temperature":"11.94","city":"Ayacucho","latitude":"13.66S","longitude":"73.49W"}
{"date":"2012-04-01","average_temperature":"25.644","city":"Babakan","latitude":"7.23S","longitude":"107.84E"}
{"date":"2013-09-01","city":"Bafoussam","latitude":"5.63N","longitude":"9.69E"}
{"date":"2013-03-01","average_temperature":"17.636","city":"Baghdad","latitude":"32.95N","longitude":"45.00E"}
{"date":"2010-06-01","average_temperature":"21.351","city":"Baglan","latitude":"36.17N","longitude":"69.61E"}
{"date":"2012-07-01","average_temperature":"29.68","city":"Baidyabati","latitude":"23.31N","longitude":"88.25E"}
{"date":"2013-07-01","average_temperature":"20.844","city":"Balti","latitude":"47.42N","longitude":"27.24E"}
{"date":"2011-05-01","average_temperature":"26.527","city":"Bandundu","latitude":"4.02S","longitude":"16.88E"}
{"date":"2011-06-01","average_temperature":"29.873","city":"Bangaon","latitude":"23.31N","longitude":"88.25E"}
{"date":"2011-10-01","average_temperature":"27.317","city":"Bangkok","latitude":"13.66N","longitude":"99.91E"}
{"date":"2013-04-01","average_temperature":"11.425999999999998","city":"Banja Luka","latitude":"44.20N","longitude":"17.89E"}
{"date":"2010-08-01","average_temperature":"30.226","city":"Bansbaria","latitude":"23.31N","longitude":"88.25E"}
{"date":"2013-06-01","average_temperature":"30.618000000000002","city":"Barasat","latitude":"23.31N","longitude":"88.25E"}
{"date":"2011-12-01","average_temperature":"26.183000000000003","city":"Barcelona","latitude":"10.45N","longitude":"64.64W"}
{"date":"2010-05-01","average_temperature":"24.741999999999997","city":"Barinas","latitude":"8.84N","longitude":"70.54W"}
{"date":"2010-12-01","average_temperature":"24.98","city":"Barquisimeto","latitude":"10.45N","longitude":"69.55W"}
{"date":"2012-07-01","average_temperature":"25.597","city":"Barquisimeto","latitude":"10.45N","longitude":"69.55W"}
{"date":"2010-04-01","average_temperature":"25.509","city":"Barreiras","latitude":"12.05S","longitude":"44.38W"}
{"date":"2010-09-01","average_temperature":"24.096","city":"Barretos","latitude":"20.09S","longitude":"47.77W"}
{"date":"2013-09-01","city":"Barsi","latitude":"18.48N","longitude":"76.06E"}
{"date":"2011-12-01","average_temperature":"24.56","city":"Baruta","latitude":"10.45N","longitude":"66.27W"}
{"date":"2011-02-01","average_temperature":"26.359","city":"Bata","latitude":"2.41N","longitude":"10.45E"}
{"date":"2012-02-01","average_temperature":"25.574","city":"Baturaja","latitude":"4.02S","longitude":"103.66E"}
{"date":"2011-06-01","average_temperature":"24.024","city":"Bayrut","latitude":"34.56N","longitude":"35.03E"}
{"date":"2010-08-01","average_temperature":"29.028","city":"Beirut","latitude":"34.56N","longitude":"35.03E"}
{"date":"2013-08-01","average_temperature":"26.9","city":"Beirut","latitude":"34.56N","longitude":"35.03E"}
{"date":"2012-03-01","average_temperature":"30.872","city":"Bellary","latitude":"15.27N","longitude":"77.50E"}
{"date":"2010-05-01","average_temperature":"18.657","city":"Beppu","latitude":"32.95N","longitude":"131.17E"}
{"date":"2012-11-01","average_temperature":"5.905","city":"Bergisch Gladbach","latitude":"50.63N","longitude":"6.34E"}
{"date":"2010-08-01","average_temperature":"29.178","city":"Bhairab Bazar","latitude":"24.92N","longitude":"90.44E"}
{"date":"2010-06-01","average_temperature":"33.57","city":"Bhilwara","latitude":"24.92N","longitude":"74.48E"}
{"date":"2011-01-01","average_temperature":"13.162","city":"Bhiwani","latitude":"28.13N","longitude":"75.45E"}
{"date":"2011-09-01","average_temperature":"28.909000000000002","city":"Bhiwani","latitude":"28.13N","longitude":"75.45E"}
{"date":"2012-09-01","average_temperature":"29.603","city":"Bhiwani","latitude":"28.13N","longitude":"75.45E"}
{"date":"2010-08-01","average_temperature":"17.185000000000002","city":"Bielefeld","latitude":"52.24N","longitude":"7.88E"}
{"date":"2012-08-01","average_temperature":"19.266","city":"Bielsko Biala","latitude":"50.63N","longitude":"19.01E"}
{"date":"2010-11-01","average_temperature":"22.159000000000002","city":"Bikaner","latitude":"28.13N","longitude":"73.64E"}
{"date":"2011-11-01","average_temperature":"23.974","city":"Bikaner","latitude":"28.13N","longitude":"73.64E"}
{"date":"2011-04-01","average_temperature":"26.64","city":"Bintulu","latitude":"2.41N","longitude":"113.30E"}
{"date":"2012-11-01","average_temperature":"5.196000000000001","city":"Binzhou","latitude":"37.78N","longitude":"117.97E"}
{"date":"2013-07-01","average_temperature":"27.044","city":"Biratnagar","latitude":"26.52N","longitude":"87.76E"}
{"date":"2010-10-01","average_temperature":"26.632","city":"Birganj","latitude":"26.52N","longitude":"84.18E"}
{"date":"2013-05-01","average_temperature":"31.584","city":"Birganj","latitude":"26.52N","longitude":"84.18E"}
{"date":"2011-09-01","average_temperature":"16.615","city":"Bisho","latitude":"32.95S","longitude":"27.77E"}
{"date":"2013-03-01","average_temperature":"20.818","city":"Bisho","latitude":"32.95S","longitude":"27.77E"}
{"date":"2013-08-01","average_temperature":"21.965","city":"Blantyre","latitude":"15.27S","longitude":"35.83E"}
{"date":"2012-07-01","average_temperature":"27.033","city":"Bojnurd","latitude":"37.78N","longitude":"56.95E"}
{"date":"2013-07-01","average_temperature":"23.899","city":"Bologna","latitude":"44.20N","longitude":"11.18E"}
{"date":"2012-10-01","average_temperature":"28.738000000000003","city":"Botad","latitude":"21.70N","longitude":"71.83E"}
{"date":"2011-07-01","average_temperature":"17.232","city":"Boulogne Billancourt","latitude":"49.03N","longitude":"2.45E"}
{"date":"2013-06-01","average_temperature":"16.34","city":"Boulogne Billancourt","latitude":"49.03N","longitude":"2.45E"}
{"date":"2010-07-01","average_temperature":"17.417","city":"Brighton","latitude":"50.63N","longitude":"1.27W"}
{"date":"2011-03-01","average_temperature":"6.607","city":"Bristol","latitude":"52.24N","longitude":"2.63W"}
{"date":"2012-09-01","average_temperature":"14.92","city":"Brugge","latitude":"50.63N","longitude":"3.80E"}
{"date":"2011-04-01","average_temperature":"12.757","city":"Budapest","latitude":"47.42N","longitude":"20.13E"}
{"date":"2010-10-01","average_temperature":"26.675","city":"Budaun","latitude":"28.13N","longitude":"79.09E"}
{"date":"2010-02-01","average_temperature":"-3.945","city":"Buffalo","latitude":"42.59N","longitude":"78.55W"}
{"date":"2010-09-01","average_temperature":"24.544","city":"Buhe","latitude":"29.74N","longitude":"112.62E"}
{"date":"2012-08-01","average_temperature":"21.91","city":"Bujumbura","latitude":"4.02S","longitude":"29.73E"}
{"date":"2011-04-01","average_temperature":"20.105999999999998","city":"Bulawayo","latitude":"20.09S","longitude":"29.00E"}
{"date":"2013-04-01","average_temperature":"15.921","city":"Burbank","latitude":"34.56N","longitude":"118.70W"}
{"date":"2011-05-01","average_temperature":"27.024","city":"Butuan","latitude":"8.84N","longitude":"125.68E"}
{"date":"2013-03-01","average_temperature":"28.234","city":"Cà Mau","latitude":"8.84N","longitude":"104.59E"}
{"date":"2011-09-01","average_temperature":"28.603","city":"Cabimas","latitude":"10.45N","longitude":"71.18W"}
{"date":"2013-07-01","average_temperature":"28.790000000000006","city":"Cabimas","latitude":"10.45N","longitude":"71.18W"}
{"date":"2012-11-01","average_temperature":"27.122","city":"Calabar","latitude":"5.63N","longitude":"8.07E"}
{"date":"2010-04-01","average_temperature":"14.908","city":"Calama","latitude":"23.31S","longitude":"69.03W"}
{"date":"2011-03-01","average_temperature":"16.102999999999998","city":"Calama","latitude":"23.31S","longitude":"69.03W"}
{"date":"2012-05-01","average_temperature":"13.061","city":"Calama","latitude":"23.31S","longitude":"69.03W"}
{"date":"2012-01-01","average_temperature":"22.855","city":"Cam Ranh","latitude":"12.05N","longitude":"108.49E"}
{"date":"2011-12-01","average_temperature":"23.943","city":"Camagüey","latitude":"21.70N","longitude":"78.75W"}
{"date":"2011-05-01","average_temperature":"14.984000000000002","city":"Cambridge","latitude":"42.59N","longitude":"72.00W"}
{"date":"2012-05-01","average_temperature":"7.829999999999999","city":"Canberra","latitude":"36.17S","longitude":"149.17E"}
{"date":"2010-03-01","average_temperature":"27.237","city":"Capiatá","latitude":"24.92S","longitude":"56.75W"}
{"date":"2012-03-01","average_temperature":"26.742","city":"Carúpano","latitude":"10.45N","longitude":"63.00W"}
{"date":"2011-03-01","average_temperature":"24.866999999999997","city":"Cariacica","latitude":"20.09S","longitude":"40.95W"}
{"date":"2012-01-01","average_temperature":"24.139","city":"Carolina","latitude":"18.48N","longitude":"65.92W"}
{"date":"2010-04-01","average_temperature":"26.752","city":"Carrefour","latitude":"18.48N","longitude":"72.68W"}
{"date":"2011-10-01","average_temperature":"27.552000000000003","city":"Carrefour","latitude":"18.48N","longitude":"72.68W"}
{"date":"2012-02-01","average_temperature":"26.07","city":"Carrefour","latitude":"18.48N","longitude":"72.68W"}
{"date":"2010-07-01","average_temperature":"26.873","city":"Cary","latitude":"36.17N","longitude":"79.56W"}
{"date":"2010-05-01","average_temperature":"19.334","city":"Casablanca","latitude":"32.95N","longitude":"6.70W"}
{"date":"2013-04-01","average_temperature":"25.103","city":"Chakwal","latitude":"32.95N","longitude":"73.72E"}
{"date":"2011-10-01","average_temperature":"23.299","city":"Chandler","latitude":"32.95N","longitude":"112.02W"}
{"date":"2011-10-01","average_temperature":"18.371","city":"Changzhou","latitude":"31.35N","longitude":"120.63E"}
{"date":"2011-11-01","average_temperature":"21.744","city":"Chapecó","latitude":"26.52S","longitude":"53.73W"}
{"date":"2013-03-01","average_temperature":"21.48","city":"Chapecó","latitude":"26.52S","longitude":"53.73W"}
{"date":"2012-07-01","average_temperature":"27.427","city":"Chattanooga","latitude":"34.56N","longitude":"85.62W"}
{"date":"2011-09-01","average_temperature":"18.331","city":"Chicago","latitude":"42.59N","longitude":"87.27W"}
{"date":"2013-07-01","average_temperature":"23.215","city":"Chihuahua","latitude":"28.13N","longitude":"106.36W"}
{"date":"2012-03-01","average_temperature":"23.227","city":"Chincha Alta","latitude":"13.66S","longitude":"76.79W"}
{"date":"2012-01-01","average_temperature":"-28.263","city":"Chita","latitude":"52.24N","longitude":"112.99E"}
{"date":"2013-09-01","city":"Chon Buri","latitude":"13.66N","longitude":"101.56E"}
{"date":"2012-05-01","average_temperature":"16.644000000000002","city":"Chula Vista","latitude":"32.95N","longitude":"117.77W"}
{"date":"2013-02-01","average_temperature":"16.325","city":"Chupei","latitude":"24.92N","longitude":"120.59E"}
{"date":"2012-10-01","average_temperature":"26.503","city":"Ciamis","latitude":"7.23S","longitude":"107.84E"}
{"date":"2010-10-01","average_temperature":"26.32","city":"Cikupa","latitude":"5.63S","longitude":"106.55E"}
{"date":"2010-05-01","average_temperature":"28.49","city":"Cileungsi","latitude":"5.63S","longitude":"106.55E"}
{"date":"2010-12-01","average_temperature":"-3.685","city":"Cincinnati","latitude":"39.38N","longitude":"85.32W"}
{"date":"2013-01-01","average_temperature":"4.823","city":"Clarksville","latitude":"36.17N","longitude":"87.51W"}
{"date":"2013-04-01","average_temperature":"14.219000000000001","city":"Clarksville","latitude":"36.17N","longitude":"87.51W"}
{"date":"2010-11-01","average_temperature":"20.375999999999998","city":"Clearwater","latitude":"28.13N","longitude":"82.73W"}
{"date":"2010-12-01","average_temperature":"26.238000000000003","city":"Colatina","latitude":"20.09S","longitude":"40.95W"}
{"date":"2012-12-01","average_temperature":"9.812000000000001","city":"Columbia","latitude":"34.56N","longitude":"81.73W"}
{"date":"2012-04-01","average_temperature":"27.493","city":"Conakry","latitude":"8.84N","longitude":"13.78W"}
{"date":"2013-06-01","average_temperature":"19.759","city":"Concord","latitude":"37.78N","longitude":"122.03W"}
{"date":"2013-09-01","average_temperature":"20.471","city":"Concord","latitude":"37.78N","longitude":"122.03W"}
{"date":"2012-12-01","average_temperature":"24.761999999999997","city":"Contagem","latitude":"20.09S","longitude":"44.36W"}
{"date":"2011-02-01","average_temperature":"14.482999999999999","city":"Copiapo","latitude":"28.13S","longitude":"70.00W"}
{"date":"2011-09-01","average_temperature":"9.305","city":"Copiapo","latitude":"28.13S","longitude":"70.00W"}
{"date":"2012-05-01","average_temperature":"26.315","city":"Corpus Christi","latitude":"28.13N","longitude":"97.27W"}
{"date":"2012-02-01","average_temperature":"28.488000000000003","city":"Corrientes","latitude":"28.13S","longitude":"59.09W"}
{"date":"2013-02-01","average_temperature":"3.088","city":"Craiova","latitude":"44.20N","longitude":"24.60E"}
{"date":"2010-01-01","average_temperature":"-6.533","city":"Czestochowa","latitude":"50.63N","longitude":"19.01E"}
{"date":"2013-04-01","average_temperature":"8.374","city":"Düsseldorf","latitude":"50.63N","longitude":"6.34E"}
{"date":"2012-02-01","average_temperature":"-5.932","city":"Dabrowa Gornicza","latitude":"50.63N","longitude":"19.01E"}
{"date":"2012-07-01","average_temperature":"26.26","city":"Daito","latitude":"34.56N","longitude":"136.22E"}
{"date":"2010-05-01","average_temperature":"24.410999999999998","city":"Dakar","latitude":"15.27N","longitude":"17.50W"}
{"date":"2013-05-01","average_temperature":"27.01","city":"Daloa","latitude":"7.23N","longitude":"5.68W"}
{"date":"2012-05-01","average_temperature":"13.249","city":"Daugavpils","latitude":"55.45N","longitude":"25.51E"}
{"date":"2013-07-01","average_temperature":"25.908","city":"Davao","latitude":"7.23N","longitude":"125.68E"}
{"date":"2010-09-01","average_temperature":"27.246","city":"Dawei","latitude":"13.66N","longitude":"98.26E"}
{"date":"2010-03-01","average_temperature":"12.585999999999999","city":"Daxian","latitude":"31.35N","longitude":"107.43E"}
{"date":"2011-07-01","average_temperature":"27.204","city":"Daxian","latitude":"31.35N","longitude":"107.43E"}
{"date":"2010-05-01","average_temperature":"23.818","city":"Debre Zeyit","latitude":"8.84N","longitude":"39.73E"}
{"date":"2012-12-01","average_temperature":"7.306999999999999","city":"Denizli","latitude":"37.78N","longitude":"28.47E"}
{"date":"2011-07-01","average_temperature":"27.519000000000002","city":"Des Moines","latitude":"40.99N","longitude":"93.73W"}
{"date":"2010-09-01","average_temperature":"17.585","city":"Detroit","latitude":"42.59N","longitude":"82.91W"}
{"date":"2010-01-01","average_temperature":"-17.439","city":"Didao","latitude":"45.81N","longitude":"130.38E"}
{"date":"2011-03-01","average_temperature":"7.1339999999999995","city":"Dijon","latitude":"47.42N","longitude":"5.92E"}
{"date":"2010-12-01","average_temperature":"23.813","city":"Divinópolis","latitude":"20.09S","longitude":"44.36W"}
{"date":"2010-08-01","average_temperature":"25.980999999999998","city":"Dongying","latitude":"37.78N","longitude":"117.97E"}
{"date":"2010-10-01","average_temperature":"17.764","city":"Dos Hermanas","latitude":"37.78N","longitude":"6.10W"}
{"date":"2011-03-01","average_temperature":"19.39","city":"Dos Quebradas","latitude":"5.63N","longitude":"75.87W"}
{"date":"2011-01-01","average_temperature":"25.785999999999998","city":"Douala","latitude":"4.02N","longitude":"10.45E"}
{"date":"2013-04-01","average_temperature":"8.896","city":"Dresden","latitude":"50.63N","longitude":"13.94E"}
{"date":"2013-04-01","average_temperature":"6.9289999999999985","city":"Dublin","latitude":"53.84N","longitude":"6.82W"}
{"date":"2010-02-01","average_temperature":"1.158","city":"Duisburg","latitude":"50.63N","longitude":"6.34E"}
{"date":"2011-01-01","average_temperature":"13.517000000000001","city":"Dunedin","latitude":"45.81S","longitude":"169.62E"}
{"date":"2010-09-01","average_temperature":"23.066000000000006","city":"Duque De Caxias","latitude":"23.31S","longitude":"42.82W"}
{"date":"2011-01-01","average_temperature":"23.223000000000006","city":"Durban","latitude":"29.74S","longitude":"31.38E"}
{"date":"2012-11-01","average_temperature":"21.14","city":"Durban","latitude":"29.74S","longitude":"31.38E"}
{"date":"2013-03-01","average_temperature":"23.516","city":"Durban","latitude":"29.74S","longitude":"31.38E"}
{"date":"2011-09-01","average_temperature":"26.819000000000006","city":"Durg","latitude":"21.70N","longitude":"80.48E"}
{"date":"2011-10-01","average_temperature":"6.0920000000000005","city":"Dzerzhinsk","latitude":"57.05N","longitude":"42.79E"}
{"date":"2012-06-01","average_temperature":"14.702","city":"Ede","latitude":"52.24N","longitude":"5.26E"}
{"date":"2013-02-01","average_temperature":"29.679000000000002","city":"Ede","latitude":"7.23N","longitude":"4.05E"}
{"date":"2010-12-01","average_temperature":"-3.0969999999999995","city":"Emmen","latitude":"52.24N","longitude":"7.88E"}
{"date":"2011-02-01","average_temperature":"4.562","city":"Esenyurt","latitude":"40.99N","longitude":"27.69E"}
{"date":"2010-02-01","average_temperature":"19.005","city":"Etah","latitude":"28.13N","longitude":"79.09E"}
{"date":"2011-08-01","average_temperature":"18.275","city":"Eugene","latitude":"44.20N","longitude":"122.98W"}
{"date":"2012-04-01","average_temperature":"9.238","city":"Eugene","latitude":"44.20N","longitude":"122.98W"}
{"date":"2013-07-01","average_temperature":"20.656999999999996","city":"Fairfield","latitude":"37.78N","longitude":"122.03W"}
{"date":"2012-10-01","average_temperature":"26.354","city":"Faridabad","latitude":"28.13N","longitude":"77.27E"}
{"date":"2010-04-01","average_temperature":"18.189","city":"Fayetteville","latitude":"34.56N","longitude":"79.78W"}
{"date":"2012-08-01","average_temperature":"20.557","city":"Focsani","latitude":"45.81N","longitude":"26.54E"}
{"date":"2010-01-01","average_temperature":"-1.564","city":"Fort Collins","latitude":"40.99N","longitude":"104.38W"}
{"date":"2011-02-01","average_temperature":"20.078000000000007","city":"Fort Lauderdale","latitude":"26.52N","longitude":"80.60W"}
{"date":"2012-03-01","average_temperature":"26.925","city":"Fortaleza","latitude":"4.02S","longitude":"40.98W"}
{"date":"2013-01-01","average_temperature":"-0.125","city":"Frankfurt","latitude":"50.63N","longitude":"8.87E"}
{"date":"2010-08-01","average_temperature":"19.485","city":"Fresnillo","latitude":"23.31N","longitude":"102.23W"}
{"date":"2011-07-01","average_temperature":"18.951","city":"Fresnillo","latitude":"23.31N","longitude":"102.23W"}
{"date":"2010-06-01","average_temperature":"21.521","city":"Fuchu","latitude":"36.17N","longitude":"139.23E"}
{"date":"2010-11-01","average_temperature":"27.549","city":"Funtua","latitude":"12.05N","longitude":"6.58E"}
{"date":"2012-11-01","average_temperature":"-0.35100000000000003","city":"Fushun","latitude":"40.99N","longitude":"123.55E"}
{"date":"2011-12-01","average_temperature":"2.991","city":"Fuyang","latitude":"32.95N","longitude":"115.85E"}
{"date":"2013-05-01","average_temperature":"17.605999999999998","city":"Fuyu","latitude":"45.81N","longitude":"125.77E"}
{"date":"2011-11-01","average_temperature":"5.046","city":"Göteborg","latitude":"58.66N","longitude":"12.31E"}
{"date":"2011-12-01","average_temperature":"1.6370000000000002","city":"Göteborg","latitude":"58.66N","longitude":"12.31E"}
{"date":"2011-02-01","average_temperature":"24.184","city":"Gandajika","latitude":"7.23S","longitude":"23.51E"}
{"date":"2013-06-01","average_temperature":"35.018","city":"Ganganagar","latitude":"29.74N","longitude":"73.85E"}
{"date":"2013-08-01","average_temperature":"31.749","city":"Ganganagar","latitude":"29.74N","longitude":"73.85E"}
{"date":"2013-04-01","average_temperature":"17.902","city":"Ganzhou","latitude":"26.52N","longitude":"114.63E"}
{"date":"2010-10-01","average_temperature":"16.701999999999998","city":"Gaziantep","latitude":"37.78N","longitude":"36.61E"}
{"date":"2011-10-01","average_temperature":"13.649","city":"Gebze","latitude":"40.99N","longitude":"29.82E"}
{"date":"2010-01-01","average_temperature":"-4.851","city":"Gera","latitude":"50.63N","longitude":"11.41E"}
{"date":"2011-09-01","average_temperature":"15.342","city":"Gera","latitude":"50.63N","longitude":"11.41E"}
{"date":"2012-05-01","average_temperature":"15.943","city":"Getafe","latitude":"40.99N","longitude":"4.26W"}
{"date":"2011-05-01","average_temperature":"12.303999999999998","city":"Gloucester","latitude":"52.24N","longitude":"2.63W"}
{"date":"2013-09-01","city":"Godhra","latitude":"23.31N","longitude":"74.27E"}
{"date":"2011-07-01","average_temperature":"32.325","city":"Gojra","latitude":"31.35N","longitude":"73.51E"}
{"date":"2011-07-01","average_temperature":"27.357","city":"Gombe","latitude":"10.45N","longitude":"10.64E"}
{"date":"2011-10-01","average_temperature":"18.128","city":"Gonbad E Qabus","latitude":"37.78N","longitude":"54.92E"}
{"date":"2011-09-01","average_temperature":"18.732","city":"Gondar","latitude":"12.05N","longitude":"37.81E"}
{"date":"2011-09-01","average_temperature":"28.945","city":"Gorakhpur","latitude":"26.52N","longitude":"84.18E"}
{"date":"2012-06-01","average_temperature":"26.835","city":"Gorontalo","latitude":"0.80N","longitude":"122.95E"}
{"date":"2011-04-01","average_temperature":"12.217","city":"Gorzow Wielkopolski","latitude":"52.24N","longitude":"15.77E"}
{"date":"2011-05-01","average_temperature":"15.335999999999999","city":"Grand Rapids","latitude":"42.59N","longitude":"85.09W"}
{"date":"2010-03-01","average_temperature":"26.901999999999997","city":"Grogol","latitude":"7.23S","longitude":"111.08E"}
{"date":"2013-04-01","average_temperature":"19.21","city":"Guaíba","latitude":"29.74S","longitude":"51.69W"}
{"date":"2012-04-01","average_temperature":"21.351999999999997","city":"Guarujá","latitude":"23.31S","longitude":"46.31W"}
{"date":"2013-05-01","average_temperature":"33.766","city":"Gulbarga","latitude":"16.87N","longitude":"77.02E"}
{"date":"2012-06-01","average_temperature":"28.228","city":"Gusau","latitude":"12.05N","longitude":"6.58E"}
{"date":"2013-04-01","average_temperature":"7.71","city":"Haarlem","latitude":"52.24N","longitude":"5.26E"}
{"date":"2013-06-01","average_temperature":"30.469","city":"Hadejia","latitude":"12.05N","longitude":"9.86E"}
{"date":"2010-09-01","average_temperature":"13.387","city":"Hagen","latitude":"52.24N","longitude":"7.88E"}
{"date":"2012-08-01","average_temperature":"24.497","city":"Hakodate","latitude":"40.99N","longitude":"140.59E"}
{"date":"2011-05-01","average_temperature":"18.337","city":"Hamamatsu","latitude":"34.56N","longitude":"138.16E"}
{"date":"2011-10-01","average_temperature":"8.169","city":"Hami","latitude":"42.59N","longitude":"93.82E"}
{"date":"2011-07-01","average_temperature":"27.094","city":"Hampton","latitude":"36.17N","longitude":"75.58W"}
{"date":"2013-04-01","average_temperature":"23.105","city":"Hanoi","latitude":"21.70N","longitude":"106.44E"}
{"date":"2011-05-01","average_temperature":"34.758","city":"Hanumangarh","latitude":"29.74N","longitude":"73.85E"}
{"date":"2011-07-01","average_temperature":"29.757","city":"Hardoi","latitude":"26.52N","longitude":"80.60E"}
{"date":"2011-11-01","average_temperature":"22.64","city":"Hargeysa","latitude":"8.84N","longitude":"44.59E"}
{"date":"2012-11-01","average_temperature":"27.750999999999998","city":"Hat Yai","latitude":"7.23N","longitude":"99.73E"}
{"date":"2010-01-01","average_temperature":"-18.585","city":"Hegang","latitude":"47.42N","longitude":"131.45E"}
{"date":"2010-06-01","average_temperature":"17.708000000000006","city":"Heidelberg","latitude":"49.03N","longitude":"9.80E"}
{"date":"2013-03-01","average_temperature":"-7.401999999999999","city":"Hengshan","latitude":"45.81N","longitude":"130.38E"}
{"date":"2012-08-01","average_temperature":"27.026","city":"Henzada","latitude":"16.87N","longitude":"95.44E"}
{"date":"2010-10-01","average_temperature":"8.755","city":"Hildesheim","latitude":"52.24N","longitude":"10.51E"}
{"date":"2012-03-01","average_temperature":"8.587","city":"Hiroshima","latitude":"34.56N","longitude":"132.32E"}
{"date":"2013-05-01","average_temperature":"18.738000000000003","city":"Hofu","latitude":"34.56N","longitude":"132.32E"}
{"date":"2011-07-01","average_temperature":"24.529","city":"Houma","latitude":"36.17N","longitude":"111.38E"}
{"date":"2011-12-01","average_temperature":"-2.616","city":"Houma","latitude":"36.17N","longitude":"111.38E"}
{"date":"2011-12-01","average_temperature":"17.944000000000006","city":"Hsichih","latitude":"24.92N","longitude":"122.36E"}
{"date":"2011-05-01","average_temperature":"23.767","city":"Hsintien","latitude":"24.92N","longitude":"122.36E"}
{"date":"2012-01-01","average_temperature":"9.914","city":"Huánuco","latitude":"10.45S","longitude":"76.09W"}
{"date":"2013-06-01","average_temperature":"20.031","city":"Huadian","latitude":"42.59N","longitude":"126.55E"}
{"date":"2012-11-01","average_temperature":"9.067","city":"Huancayo","latitude":"12.05S","longitude":"75.62W"}
{"date":"2012-12-01","average_temperature":"14.911","city":"Huangpu","latitude":"23.31N","longitude":"112.72E"}
{"date":"2012-03-01","average_temperature":"11.33","city":"Huangyan","latitude":"28.13N","longitude":"120.91E"}
{"date":"2012-11-01","average_temperature":"24.202","city":"Hubli","latitude":"15.27N","longitude":"75.83E"}
{"date":"2012-12-01","average_temperature":"23.15","city":"Hue","latitude":"16.87N","longitude":"107.16E"}
{"date":"2010-08-01","average_temperature":"28.802000000000003","city":"Huizhou","latitude":"23.31N","longitude":"114.47E"}
{"date":"2013-07-01","average_temperature":"28.431","city":"Humen","latitude":"23.31N","longitude":"114.47E"}
{"date":"2012-10-01","average_temperature":"19.892","city":"Huntington Beach","latitude":"32.95N","longitude":"117.77W"}
{"date":"2011-09-01","average_temperature":"25.668000000000003","city":"Ichalkaranji","latitude":"16.87N","longitude":"73.67E"}
{"date":"2013-09-01","city":"Ilam","latitude":"32.95N","longitude":"46.91E"}
{"date":"2010-01-01","average_temperature":"25.509","city":"Iligan","latitude":"8.84N","longitude":"124.05E"}
{"date":"2012-07-01","average_temperature":"25.215999999999998","city":"Ilobu","latitude":"7.23N","longitude":"4.05E"}
{"date":"2013-08-01","average_temperature":"27.711","city":"Iloilo","latitude":"10.45N","longitude":"121.91E"}
{"date":"2010-06-01","average_temperature":"24.259","city":"Indianapolis","latitude":"39.38N","longitude":"85.32W"}
{"date":"2013-03-01","average_temperature":"19.614","city":"Iquique","latitude":"20.09S","longitude":"69.95W"}
{"date":"2012-11-01","average_temperature":"19.771","city":"Iráklion","latitude":"34.56N","longitude":"25.30E"}
{"date":"2013-09-01","city":"Iranshahr","latitude":"26.52N","longitude":"60.90E"}
{"date":"2011-05-01","average_temperature":"6.7410000000000005","city":"Irkutsk","latitude":"52.24N","longitude":"105.11E"}
{"date":"2012-02-01","average_temperature":"1.8419999999999999","city":"Isehara","latitude":"36.17N","longitude":"139.23E"}
{"date":"2010-04-01","average_temperature":"12.357000000000001","city":"Istanbul","latitude":"40.99N","longitude":"29.82E"}
{"date":"2010-11-01","average_temperature":"23.529","city":"Itaboraí","latitude":"23.31S","longitude":"42.82W"}
{"date":"2013-07-01","average_temperature":"23.768","city":"Itaboraí","latitude":"23.31S","longitude":"42.82W"}
{"date":"2010-02-01","average_temperature":"1.186","city":"Iwaki","latitude":"37.78N","longitude":"140.34E"}
{"date":"2011-03-01","average_temperature":"26.548","city":"Jabalpur","latitude":"23.31N","longitude":"79.51E"}
{"date":"2010-09-01","average_temperature":"20.063","city":"Jacareí","latitude":"23.31S","longitude":"46.31W"}
{"date":"2012-09-01","average_temperature":"24.779","city":"Jackson","latitude":"32.95N","longitude":"90.96W"}
{"date":"2010-12-01","average_temperature":"10.527999999999999","city":"Jacksonville","latitude":"29.74N","longitude":"81.23W"}
{"date":"2011-09-01","average_temperature":"27.916","city":"Jagadhri","latitude":"29.74N","longitude":"77.54E"}
{"date":"2011-01-01","average_temperature":"26.895","city":"Jember","latitude":"8.84S","longitude":"114.32E"}
{"date":"2012-11-01","average_temperature":"4.103","city":"Jersey City","latitude":"40.99N","longitude":"74.56W"}
{"date":"2011-08-01","average_temperature":"27.764","city":"Jetpur","latitude":"21.70N","longitude":"70.10E"}
{"date":"2013-09-01","city":"Jhelum","latitude":"32.95N","longitude":"73.72E"}
{"date":"2010-01-01","average_temperature":"14.21","city":"Jhunjhunun","latitude":"28.13N","longitude":"75.45E"}
{"date":"2010-03-01","average_temperature":"9.237","city":"Jiangyin","latitude":"31.35N","longitude":"120.63E"}
{"date":"2013-08-01","average_temperature":"27.215","city":"Jiaozuo","latitude":"34.56N","longitude":"112.86E"}
{"date":"2012-06-01","average_temperature":"17.938","city":"Jilin","latitude":"44.20N","longitude":"127.45E"}
{"date":"2013-01-01","average_temperature":"4.138","city":"Jingdezhen","latitude":"29.74N","longitude":"116.31E"}
{"date":"2013-04-01","average_temperature":"16.039","city":"Jingdezhen","latitude":"29.74N","longitude":"116.31E"}
{"date":"2013-02-01","average_temperature":"-6.227","city":"Jinxi","latitude":"40.99N","longitude":"121.42E"}
{"date":"2011-09-01","average_temperature":"18.448","city":"Jinzhou","latitude":"40.99N","longitude":"121.42E"}
{"date":"2010-03-01","average_temperature":"11.14","city":"Jishou","latitude":"28.13N","longitude":"110.00E"}
{"date":"2011-08-01","average_temperature":"26.695","city":"Jombang","latitude":"7.23S","longitude":"112.70E"}
{"date":"2010-03-01","average_temperature":"7.94","city":"Juliaca","latitude":"15.27S","longitude":"70.83W"}
{"date":"2011-11-01","average_temperature":"7.587999999999999","city":"Juliaca","latitude":"15.27S","longitude":"70.83W"}
{"date":"2013-04-01","average_temperature":"11.696","city":"Kütahya","latitude":"39.38N","longitude":"29.13E"}
{"date":"2011-01-01","average_temperature":"3.45","city":"Kahramanmaras","latitude":"37.78N","longitude":"36.61E"}
{"date":"2010-08-01","average_temperature":"22.794","city":"Kalemie","latitude":"5.63S","longitude":"29.06E"}
{"date":"2010-01-01","average_temperature":"21.232","city":"Kalyan","latitude":"20.09N","longitude":"73.36E"}
{"date":"2012-03-01","average_temperature":"21.212","city":"Kamoke","latitude":"31.35N","longitude":"73.51E"}
{"date":"2012-03-01","average_temperature":"29.476","city":"Kanchipuram","latitude":"13.66N","longitude":"80.09E"}
{"date":"2012-03-01","average_temperature":"23.712","city":"Kanpur","latitude":"26.52N","longitude":"80.60E"}
{"date":"2010-12-01","average_temperature":"-1.6469999999999998","city":"Kansas City","latitude":"39.38N","longitude":"93.64W"}
{"date":"2011-10-01","average_temperature":"14.473","city":"Kansas City","latitude":"39.38N","longitude":"93.64W"}
{"date":"2011-03-01","average_temperature":"26.47","city":"Karang Tengah","latitude":"7.23S","longitude":"106.22E"}
{"date":"2013-09-01","city":"Karang Tengah","latitude":"7.23S","longitude":"106.22E"}
{"date":"2013-06-01","average_temperature":"31.033","city":"Karnal","latitude":"29.74N","longitude":"77.54E"}
{"date":"2012-11-01","average_temperature":"14.833","city":"Kashipur","latitude":"29.74N","longitude":"79.38E"}
{"date":"2010-01-01","average_temperature":"4.745","city":"Kasugai","latitude":"34.56N","longitude":"136.22E"}
{"date":"2012-12-01","average_temperature":"5.229","city":"Kasugai","latitude":"34.56N","longitude":"136.22E"}
{"date":"2011-12-01","average_temperature":"3.25","city":"Kasukabe","latitude":"36.17N","longitude":"139.23E"}
{"date":"2012-02-01","average_temperature":"14.18","city":"Kasur","latitude":"31.35N","longitude":"73.51E"}
{"date":"2012-12-01","average_temperature":"14.263","city":"Kasur","latitude":"31.35N","longitude":"73.51E"}
{"date":"2010-07-01","average_temperature":"30.107","city":"Katihar","latitude":"24.92N","longitude":"86.90E"}
{"date":"2010-04-01","average_temperature":"7.0600000000000005","city":"Kaunas","latitude":"55.45N","longitude":"22.68E"}
{"date":"2012-01-01","average_temperature":"-3.4330000000000003","city":"Kayseri","latitude":"39.38N","longitude":"35.38E"}
{"date":"2011-10-01","average_temperature":"15.768","city":"Kermanshah","latitude":"34.56N","longitude":"46.70E"}
{"date":"2013-07-01","average_temperature":"21.609","city":"Khabarovsk","latitude":"49.03N","longitude":"134.69E"}
{"date":"2013-08-01","average_temperature":"19.122","city":"Khabarovsk","latitude":"49.03N","longitude":"134.69E"}
{"date":"2010-09-01","average_temperature":"31.115","city":"Khanewal","latitude":"29.74N","longitude":"72.00E"}
{"date":"2012-09-01","average_temperature":"29.243000000000002","city":"Kharagpur","latitude":"21.70N","longitude":"87.40E"}
{"date":"2012-10-01","average_temperature":"27.346","city":"Kharagpur","latitude":"21.70N","longitude":"87.40E"}
{"date":"2013-05-01","average_temperature":"16.283","city":"Khomeynishahr","latitude":"32.95N","longitude":"50.74E"}
{"date":"2013-07-01","average_temperature":"31.393","city":"Khorramabad","latitude":"32.95N","longitude":"48.83E"}
{"date":"2010-12-01","average_temperature":"19.247","city":"Kigali","latitude":"2.41S","longitude":"29.73E"}
{"date":"2011-01-01","average_temperature":"19.39","city":"Kigali","latitude":"2.41S","longitude":"29.73E"}
{"date":"2012-07-01","average_temperature":"23.987","city":"Kikwit","latitude":"5.63S","longitude":"19.37E"}
{"date":"2013-04-01","average_temperature":"17.214000000000002","city":"Killeen","latitude":"31.35N","longitude":"98.01W"}
{"date":"2013-05-01","average_temperature":"26.71","city":"Kindia","latitude":"10.45N","longitude":"12.27W"}
{"date":"2013-04-01","average_temperature":"25.539","city":"Kinshasa","latitude":"4.02S","longitude":"15.27E"}
{"date":"2010-08-01","average_temperature":"18.391","city":"Kirov","latitude":"58.66N","longitude":"49.23E"}
{"date":"2011-03-01","average_temperature":"0.83","city":"Kirovohrad","latitude":"49.03N","longitude":"31.84E"}
{"date":"2012-04-01","average_temperature":"12.065","city":"Kislovodsk","latitude":"44.20N","longitude":"42.48E"}
{"date":"2012-08-01","average_temperature":"27.212","city":"Kitakyushu","latitude":"34.56N","longitude":"130.38E"}
{"date":"2011-02-01","average_temperature":"-7.057","city":"Kitchener","latitude":"44.20N","longitude":"80.50W"}
{"date":"2010-12-01","average_temperature":"25.99","city":"Klaten","latitude":"7.23S","longitude":"111.08E"}
{"date":"2012-08-01","average_temperature":"27.71","city":"Kolar","latitude":"13.66N","longitude":"78.44E"}
{"date":"2011-07-01","average_temperature":"25.288","city":"Kolhapur","latitude":"16.87N","longitude":"73.67E"}
{"date":"2012-09-01","average_temperature":"22.783","city":"Komatsu","latitude":"36.17N","longitude":"137.24E"}
{"date":"2012-08-01","average_temperature":"26.548000000000002","city":"Koriyama","latitude":"37.78N","longitude":"140.34E"}
{"date":"2013-09-01","city":"Koriyama","latitude":"37.78N","longitude":"140.34E"}
{"date":"2013-03-01","average_temperature":"-1.04","city":"Koszalin","latitude":"53.84N","longitude":"15.00E"}
{"date":"2011-06-01","average_temperature":"34.269000000000005","city":"Kot Addu","latitude":"29.74N","longitude":"70.15E"}
{"date":"2013-06-01","average_temperature":"32.279","city":"Kota","latitude":"24.92N","longitude":"76.26E"}
{"date":"2010-07-01","average_temperature":"16.218","city":"Krasnoyarsk","latitude":"55.45N","longitude":"93.54E"}
{"date":"2012-09-01","average_temperature":"27.274","city":"Kuching","latitude":"0.80N","longitude":"110.09E"}
{"date":"2013-05-01","average_temperature":"26.639","city":"Kuhdasht","latitude":"32.95N","longitude":"46.91E"}
{"date":"2011-01-01","average_temperature":"27.046","city":"Kulim","latitude":"5.63N","longitude":"100.09E"}
{"date":"2011-08-01","average_temperature":"27.91","city":"Kulim","latitude":"5.63N","longitude":"100.09E"}
{"date":"2012-07-01","average_temperature":"25.674000000000003","city":"Kumasi","latitude":"7.23N","longitude":"0.81W"}
{"date":"2012-02-01","average_temperature":"3.587","city":"Kurashiki","latitude":"34.56N","longitude":"134.27E"}
{"date":"2013-06-01","average_temperature":"19.908","city":"Kursk","latitude":"52.24N","longitude":"36.79E"}
{"date":"2013-01-01","average_temperature":"3.917","city":"Kusatsu","latitude":"34.56N","longitude":"136.22E"}
{"date":"2013-01-01","average_temperature":"25.449","city":"Kusti","latitude":"13.66N","longitude":"32.20E"}
{"date":"2011-03-01","average_temperature":"22.446","city":"Kwekwe","latitude":"18.48S","longitude":"30.42E"}
{"date":"2010-04-01","average_temperature":"-3.637000000000001","city":"Kyzyl","latitude":"52.24N","longitude":"94.60E"}
{"date":"2012-11-01","average_temperature":"11.571","city":"La Paz","latitude":"16.87S","longitude":"68.65W"}
{"date":"2012-12-01","average_temperature":"10.771","city":"La Paz","latitude":"16.87S","longitude":"68.65W"}
{"date":"2011-12-01","average_temperature":"24.177","city":"La Vega","latitude":"18.48N","longitude":"70.99W"}
{"date":"2010-04-01","average_temperature":"28.105","city":"Lahad Datu","latitude":"5.63N","longitude":"117.85E"}
{"date":"2011-08-01","average_temperature":"27.535999999999998","city":"Lalitpur","latitude":"24.92N","longitude":"78.03E"}
{"date":"2011-02-01","average_temperature":"24.044","city":"Lampang","latitude":"18.48N","longitude":"99.72E"}
{"date":"2013-08-01","average_temperature":"28.003","city":"Laoag","latitude":"18.48N","longitude":"120.00E"}
{"date":"2011-09-01","average_temperature":"24.174","city":"Las Palmas","latitude":"28.13N","longitude":"15.45W"}
{"date":"2010-11-01","average_temperature":"27.006","city":"Legaspi","latitude":"13.66N","longitude":"123.03E"}
{"date":"2013-01-01","average_temperature":"-0.848","city":"Leipzig","latitude":"50.63N","longitude":"11.41E"}
{"date":"2012-10-01","average_temperature":"26.503","city":"Lembang","latitude":"7.23S","longitude":"107.84E"}
{"date":"2011-08-01","average_temperature":"23.877","city":"Liaoyang","latitude":"40.99N","longitude":"123.55E"}
{"date":"2011-03-01","average_temperature":"16.051","city":"Licheng","latitude":"23.31N","longitude":"114.47E"}
{"date":"2011-01-01","average_temperature":"21.945","city":"Lilongwe","latitude":"13.66S","longitude":"33.85E"}
{"date":"2013-02-01","average_temperature":"-2.4710000000000005","city":"Linxia","latitude":"36.17N","longitude":"103.43E"}
{"date":"2011-04-01","average_temperature":"26.669","city":"Lipa","latitude":"13.66N","longitude":"121.38E"}
{"date":"2010-07-01","average_temperature":"25.982","city":"Lipetsk","latitude":"52.24N","longitude":"39.42E"}
{"date":"2011-03-01","average_temperature":"26.838","city":"Lira","latitude":"2.41N","longitude":"32.95E"}
{"date":"2012-03-01","average_temperature":"17.848","city":"Liusha","latitude":"23.31N","longitude":"116.21E"}
{"date":"2012-02-01","average_temperature":"-2.5660000000000003","city":"Ljubljana","latitude":"45.81N","longitude":"15.00E"}
{"date":"2012-08-01","average_temperature":"26.744","city":"Lleida","latitude":"40.99N","longitude":"0.00W"}
{"date":"2012-03-01","average_temperature":"11.576","city":"Los Angeles","latitude":"34.56N","longitude":"118.70W"}
{"date":"2013-08-01","average_temperature":"26.141","city":"Los Teques","latitude":"10.45N","longitude":"66.27W"}
{"date":"2013-02-01","average_temperature":"25.419","city":"Loum","latitude":"5.63N","longitude":"9.69E"}
{"date":"2011-09-01","average_temperature":"23.158","city":"Luanda","latitude":"8.84S","longitude":"13.78E"}
{"date":"2011-03-01","average_temperature":"14.913999999999998","city":"Luchou","latitude":"24.92N","longitude":"120.59E"}
{"date":"2013-02-01","average_temperature":"27.095","city":"Lumajang","latitude":"8.84S","longitude":"112.70E"}
{"date":"2010-11-01","average_temperature":"5.3229999999999995","city":"Mönchengladbach","latitude":"50.63N","longitude":"6.34E"}
{"date":"2012-10-01","average_temperature":"9.95","city":"Münster","latitude":"52.24N","longitude":"7.88E"}
{"date":"2013-01-01","average_temperature":"3.0180000000000002","city":"Maanshan","latitude":"31.35N","longitude":"118.74E"}
{"date":"2013-07-01","average_temperature":"30.459","city":"Maanshan","latitude":"31.35N","longitude":"118.74E"}
{"date":"2010-05-01","average_temperature":"27.381","city":"Macapá","latitude":"0.80N","longitude":"50.63W"}
{"date":"2011-04-01","average_temperature":"26.776999999999997","city":"Maceió","latitude":"10.45S","longitude":"35.18W"}
{"date":"2013-07-01","average_temperature":"24.951","city":"Maceió","latitude":"10.45S","longitude":"35.18W"}
{"date":"2010-09-01","average_temperature":"29.561","city":"Madras","latitude":"13.66N","longitude":"80.09E"}
{"date":"2010-10-01","average_temperature":"28.855999999999998","city":"Madras","latitude":"13.66N","longitude":"80.09E"}
{"date":"2010-08-01","average_temperature":"29.977","city":"Maicao","latitude":"12.05N","longitude":"72.33W"}
{"date":"2012-12-01","average_temperature":"2.516","city":"Makhachkala","latitude":"42.59N","longitude":"48.00E"}
{"date":"2010-02-01","average_temperature":"28.86","city":"Malambo","latitude":"10.45N","longitude":"74.45W"}
{"date":"2011-08-01","average_temperature":"27.338","city":"Malambo","latitude":"10.45N","longitude":"74.45W"}
{"date":"2011-05-01","average_temperature":"27.515","city":"Malang","latitude":"7.23S","longitude":"112.70E"}
{"date":"2012-09-01","average_temperature":"27.662","city":"Malang","latitude":"7.23S","longitude":"112.70E"}
{"date":"2010-03-01","average_temperature":"27.363000000000003","city":"Manado","latitude":"0.80N","longitude":"124.55E"}
{"date":"2010-05-01","average_temperature":"27.283","city":"Manaus","latitude":"2.41S","longitude":"60.27W"}
{"date":"2010-02-01","average_temperature":"1.87","city":"Manchester","latitude":"53.84N","longitude":"1.36W"}
{"date":"2012-07-01","average_temperature":"25.066999999999997","city":"Mangaluru","latitude":"13.66N","longitude":"75.14E"}
{"date":"2012-09-01","average_temperature":"23.373","city":"Manta","latitude":"0.80S","longitude":"81.16W"}
{"date":"2010-12-01","average_temperature":"24.307","city":"Manzini","latitude":"26.52S","longitude":"32.24E"}
{"date":"2011-09-01","average_temperature":"13.135","city":"Mar Del Plata","latitude":"37.78S","longitude":"56.95W"}
{"date":"2011-04-01","average_temperature":"26.13","city":"Mariara","latitude":"10.45N","longitude":"67.91W"}
{"date":"2013-06-01","average_temperature":"19.09","city":"Maringá","latitude":"23.31S","longitude":"51.55W"}
{"date":"2010-11-01","average_temperature":"9.952","city":"Marv Dasht","latitude":"29.74N","longitude":"53.54E"}
{"date":"2010-10-01","average_temperature":"16.414","city":"Maseru","latitude":"29.74S","longitude":"27.69E"}
{"date":"2011-10-01","average_temperature":"15.992","city":"Maseru","latitude":"29.74S","longitude":"27.69E"}
{"date":"2012-05-01","average_temperature":"11.457","city":"Maseru","latitude":"29.74S","longitude":"27.69E"}
{"date":"2012-12-01","average_temperature":"20.961","city":"Matamoros","latitude":"26.52N","longitude":"96.72W"}
{"date":"2010-11-01","average_temperature":"24.338","city":"Matanzas","latitude":"23.31N","longitude":"81.26W"}
{"date":"2011-10-01","average_temperature":"26.236","city":"Matanzas","latitude":"23.31N","longitude":"81.26W"}
{"date":"2011-09-01","average_temperature":"23.987","city":"Mataró","latitude":"40.99N","longitude":"2.13E"}
{"date":"2010-03-01","average_temperature":"25.393","city":"Matola","latitude":"26.52S","longitude":"32.24E"}
{"date":"2012-01-01","average_temperature":"26.141","city":"Maturín","latitude":"10.45N","longitude":"63.00W"}
{"date":"2013-03-01","average_temperature":"22.48","city":"Mauá","latitude":"23.31S","longitude":"46.31W"}
{"date":"2012-10-01","average_temperature":"24.691999999999997","city":"Mbandaka","latitude":"0.80N","longitude":"18.48E"}
{"date":"2013-09-01","city":"Mecca","latitude":"21.70N","longitude":"40.67E"}
{"date":"2012-08-01","average_temperature":"20.269","city":"Medellín","latitude":"5.63N","longitude":"75.87W"}
{"date":"2011-02-01","average_temperature":"23.436","city":"Mendoza","latitude":"32.95S","longitude":"67.98W"}
{"date":"2011-05-01","average_temperature":"19.56","city":"Mersin","latitude":"36.17N","longitude":"33.81E"}
{"date":"2012-04-01","average_temperature":"18.679","city":"Mexicali","latitude":"32.95N","longitude":"115.85W"}
{"date":"2013-03-01","average_temperature":"15.841","city":"Mianyang","latitude":"31.35N","longitude":"105.55E"}
{"date":"2012-10-01","average_temperature":"17.829","city":"Middelburg","latitude":"26.52S","longitude":"28.66E"}
{"date":"2011-12-01","average_temperature":"19.751","city":"Midrand","latitude":"26.52S","longitude":"28.66E"}
{"date":"2011-07-01","average_temperature":"31.978","city":"Mirpur Khas","latitude":"24.92N","longitude":"69.16E"}
{"date":"2012-08-01","average_temperature":"26.680999999999997","city":"Misato","latitude":"36.17N","longitude":"139.23E"}
{"date":"2010-09-01","average_temperature":"26.816000000000006","city":"Monterrey","latitude":"26.52N","longitude":"100.30W"}
{"date":"2011-01-01","average_temperature":"24.965999999999998","city":"Montevideo","latitude":"34.56S","longitude":"56.43W"}
{"date":"2013-01-01","average_temperature":"19.012999999999998","city":"Monywa","latitude":"21.70N","longitude":"94.33E"}
{"date":"2010-07-01","average_temperature":"19.117","city":"Morelia","latitude":"20.09N","longitude":"100.66W"}
{"date":"2013-05-01","average_temperature":"21.309","city":"Morelia","latitude":"20.09N","longitude":"100.66W"}
{"date":"2012-11-01","average_temperature":"11.014000000000001","city":"Moriguchi","latitude":"34.56N","longitude":"136.22E"}
{"date":"2010-05-01","average_temperature":"16.284000000000002","city":"Moscow","latitude":"55.45N","longitude":"36.85E"}
{"date":"2013-06-01","average_temperature":"28.302","city":"Mossoró","latitude":"5.63S","longitude":"37.13W"}
{"date":"2010-12-01","average_temperature":"-12.683","city":"Murmansk","latitude":"68.31N","longitude":"34.70E"}
{"date":"2013-05-01","average_temperature":"16.296","city":"Murom","latitude":"55.45N","longitude":"42.52E"}
{"date":"2011-05-01","average_temperature":"22.018","city":"Musoma","latitude":"0.80S","longitude":"34.55E"}
{"date":"2010-02-01","average_temperature":"24.066999999999997","city":"Mwanza","latitude":"2.41S","longitude":"32.95E"}
{"date":"2011-12-01","average_temperature":"4.53","city":"Nagaoka","latitude":"37.78N","longitude":"138.31E"}
{"date":"2011-02-01","average_temperature":"3.734","city":"Nagareyama","latitude":"36.17N","longitude":"139.23E"}
{"date":"2011-11-01","average_temperature":"24.11","city":"Naihati","latitude":"23.31N","longitude":"88.25E"}
{"date":"2012-06-01","average_temperature":"15.737","city":"Nairobi","latitude":"0.80S","longitude":"36.16E"}
{"date":"2011-02-01","average_temperature":"27.596999999999998","city":"Nakhon Pathom","latitude":"13.66N","longitude":"99.91E"}
{"date":"2010-07-01","average_temperature":"29.068","city":"Nakhon Ratchasima","latitude":"15.27N","longitude":"102.50E"}
{"date":"2012-12-01","average_temperature":"3.033","city":"Nancy","latitude":"49.03N","longitude":"7.35E"}
{"date":"2012-10-01","average_temperature":"27.67","city":"Nandurbar","latitude":"21.70N","longitude":"73.56E"}
{"date":"2012-01-01","average_temperature":"3.168","city":"Nanjing","latitude":"31.35N","longitude":"118.74E"}
{"date":"2010-04-01","average_temperature":"21.16","city":"Nanning","latitude":"23.31N","longitude":"107.48E"}
{"date":"2010-09-01","average_temperature":"29.212","city":"Narayanganj","latitude":"23.31N","longitude":"90.00E"}
{"date":"2010-07-01","average_temperature":"17.668","city":"Naucalpan","latitude":"20.09N","longitude":"98.96W"}
{"date":"2013-08-01","average_temperature":"27.24","city":"Navoi","latitude":"39.38N","longitude":"64.51E"}
{"date":"2012-01-01","average_temperature":"18.37","city":"Nazret","latitude":"8.84N","longitude":"39.73E"}
{"date":"2010-10-01","average_temperature":"2.418","city":"Nehe","latitude":"49.03N","longitude":"124.90E"}
{"date":"2012-05-01","average_temperature":"8.805","city":"Neuquen","latitude":"39.38S","longitude":"68.67W"}
{"date":"2011-09-01","average_temperature":"15.114","city":"Nevinnomyssk","latitude":"44.20N","longitude":"42.48E"}
{"date":"2013-02-01","average_temperature":"17.823999999999995","city":"New Delhi","latitude":"28.13N","longitude":"77.27E"}
{"date":"2011-03-01","average_temperature":"3.4739999999999998","city":"Newark","latitude":"40.99N","longitude":"74.56W"}
{"date":"2012-08-01","average_temperature":"25.446","city":"Nha Trang","latitude":"12.05N","longitude":"108.49E"}
{"date":"2011-08-01","average_temperature":"19.874000000000002","city":"Nice","latitude":"44.20N","longitude":"6.71E"}
{"date":"2013-06-01","average_temperature":"19.069000000000003","city":"Nis","latitude":"42.59N","longitude":"21.82E"}
{"date":"2011-12-01","average_temperature":"6.476","city":"Nishinomiya","latitude":"34.56N","longitude":"136.22E"}
{"date":"2010-01-01","average_temperature":"27.877","city":"Niterói","latitude":"23.31S","longitude":"42.82W"}
{"date":"2011-08-01","average_temperature":"23.325","city":"Niterói","latitude":"23.31S","longitude":"42.82W"}
{"date":"2012-09-01","average_temperature":"27.585","city":"Nizamabad","latitude":"18.48N","longitude":"77.75E"}
{"date":"2012-01-01","average_temperature":"26.862","city":"Nonthaburi","latitude":"13.66N","longitude":"99.91E"}
{"date":"2013-02-01","average_temperature":"3.087","city":"Northampton","latitude":"52.24N","longitude":"0.00W"}
{"date":"2010-12-01","average_temperature":"-0.024000000000000018","city":"Norwich","latitude":"52.24N","longitude":"0.00W"}
{"date":"2010-01-01","average_temperature":"24.096999999999998","city":"Nouakchott","latitude":"18.48N","longitude":"15.21W"}
{"date":"2010-09-01","average_temperature":"15.893","city":"Novi Sad","latitude":"45.81N","longitude":"19.62E"}
{"date":"2013-03-01","average_temperature":"-4.345","city":"Novotroitsk","latitude":"50.63N","longitude":"59.58E"}
{"date":"2011-01-01","average_temperature":"26.503","city":"Nsukka","latitude":"7.23N","longitude":"7.30E"}
{"date":"2010-06-01","average_temperature":"29.679","city":"Nuevo Laredo","latitude":"28.13N","longitude":"99.09W"}
{"date":"2013-02-01","average_temperature":"29.249000000000002","city":"Obosi","latitude":"5.63N","longitude":"6.46E"}
{"date":"2011-06-01","average_temperature":"26.765","city":"Ocumare Del Tuy","latitude":"10.45N","longitude":"66.27W"}
{"date":"2010-04-01","average_temperature":"12.306","city":"Okazaki","latitude":"34.56N","longitude":"136.22E"}
{"date":"2010-12-01","average_temperature":"7.487","city":"Okazaki","latitude":"34.56N","longitude":"136.22E"}
{"date":"2011-02-01","average_temperature":"3.5420000000000003","city":"Oklahoma City","latitude":"36.17N","longitude":"97.46W"}
{"date":"2010-03-01","average_temperature":"6.564","city":"Olathe","latitude":"39.38N","longitude":"95.72W"}
{"date":"2011-07-01","average_temperature":"18.949","city":"Olsztyn","latitude":"53.84N","longitude":"20.45E"}
{"date":"2013-04-01","average_temperature":"7.99","city":"Omaha","latitude":"40.99N","longitude":"95.86W"}
{"date":"2010-07-01","average_temperature":"26.358","city":"Omuta","latitude":"32.95N","longitude":"131.17E"}
{"date":"2010-01-01","average_temperature":"28.597","city":"Ondo","latitude":"7.23N","longitude":"4.05E"}
{"date":"2013-01-01","average_temperature":"23.485000000000007","city":"Orkney","latitude":"26.52S","longitude":"26.87E"}
{"date":"2012-10-01","average_temperature":"12.907","city":"Orumiyeh","latitude":"37.78N","longitude":"44.75E"}
{"date":"2010-03-01","average_temperature":"3.5989999999999998","city":"Ostrava","latitude":"50.63N","longitude":"19.01E"}
{"date":"2010-04-01","average_temperature":"9.589","city":"Ota","latitude":"36.17N","longitude":"139.23E"}
{"date":"2013-06-01","average_temperature":"30.07","city":"Ouagadougou","latitude":"12.05N","longitude":"1.64W"}
{"date":"2011-12-01","average_temperature":"0.3489999999999993","city":"Oulu","latitude":"65.09N","longitude":"24.89E"}
{"date":"2013-09-01","city":"Owerri","latitude":"5.63N","longitude":"6.46E"}
{"date":"2011-04-01","average_temperature":"12.071","city":"Oxford","latitude":"52.24N","longitude":"0.00W"}
{"date":"2012-03-01","average_temperature":"9.513","city":"Pátrai","latitude":"37.78N","longitude":"22.37E"}
{"date":"2010-07-01","average_temperature":"29.674","city":"Pabna","latitude":"23.31N","longitude":"90.00E"}
{"date":"2012-08-01","average_temperature":"26.486","city":"Palu","latitude":"0.80S","longitude":"119.73E"}
{"date":"2012-03-01","average_temperature":"1.16","city":"Panevezys","latitude":"55.45N","longitude":"25.51E"}
{"date":"2012-02-01","average_temperature":"15.552","city":"Panipat","latitude":"29.74N","longitude":"77.54E"}
{"date":"2011-05-01","average_temperature":"25.201","city":"Pasadena","latitude":"29.74N","longitude":"96.00W"}
{"date":"2012-09-01","average_temperature":"27.662","city":"Pasuruan","latitude":"7.23S","longitude":"112.70E"}
{"date":"2012-02-01","average_temperature":"2.185","city":"Paterson","latitude":"40.99N","longitude":"74.56W"}
{"date":"2012-04-01","average_temperature":"16.629","city":"Pathankot","latitude":"32.95N","longitude":"75.64E"}
{"date":"2010-11-01","average_temperature":"23.295","city":"Patna","latitude":"24.92N","longitude":"85.12E"}
{"date":"2012-06-01","average_temperature":"25.531999999999996","city":"Paulista","latitude":"7.23S","longitude":"34.86W"}
{"date":"2011-11-01","average_temperature":"-8.291","city":"Pavlodar","latitude":"52.24N","longitude":"76.20E"}
{"date":"2011-08-01","average_temperature":"20.589000000000002","city":"Pavlohrad","latitude":"49.03N","longitude":"36.73E"}
{"date":"2013-07-01","average_temperature":"26.785999999999998","city":"Peristérion","latitude":"37.78N","longitude":"24.41E"}
{"date":"2012-03-01","average_temperature":"10.32","city":"Perugia","latitude":"42.59N","longitude":"13.09E"}
{"date":"2010-03-01","average_temperature":"28.807","city":"Petrolina","latitude":"8.84S","longitude":"39.73W"}
{"date":"2013-08-01","average_temperature":"25.965","city":"Petrolina","latitude":"8.84S","longitude":"39.73W"}
{"date":"2012-06-01","average_temperature":"12.103","city":"Petrozavodsk","latitude":"61.88N","longitude":"35.66E"}
{"date":"2010-02-01","average_temperature":"27.753","city":"Phan Thiet","latitude":"10.45N","longitude":"107.18E"}
{"date":"2012-02-01","average_temperature":"27.186","city":"Phan Thiet","latitude":"10.45N","longitude":"107.18E"}
{"date":"2012-10-01","average_temperature":"27.948","city":"Phan Thiet","latitude":"10.45N","longitude":"107.18E"}
{"date":"2012-06-01","average_temperature":"28.372","city":"Phnum Pénh","latitude":"12.05N","longitude":"105.21E"}
{"date":"2012-05-01","average_temperature":"29.636999999999997","city":"Phra Pradaeng","latitude":"13.66N","longitude":"99.91E"}
{"date":"2010-04-01","average_temperature":"22.024","city":"Piedras Negras","latitude":"28.13N","longitude":"100.91W"}
{"date":"2010-02-01","average_temperature":"24.888","city":"Pietersburg","latitude":"23.31S","longitude":"28.83E"}
{"date":"2011-02-01","average_temperature":"23.41","city":"Pinar Del Río","latitude":"21.70N","longitude":"83.94W"}
{"date":"2011-09-01","average_temperature":"28.115","city":"Pinar Del Río","latitude":"21.70N","longitude":"83.94W"}
{"date":"2013-08-01","average_temperature":"27.313","city":"Pinar Del Río","latitude":"21.70N","longitude":"83.94W"}
{"date":"2011-06-01","average_temperature":"28.967","city":"Pindiga","latitude":"10.45N","longitude":"10.64E"}
{"date":"2010-08-01","average_temperature":"25.545","city":"Pingdingshan","latitude":"34.56N","longitude":"112.86E"}
{"date":"2010-02-01","average_temperature":"0.5770000000000001","city":"Plovdiv","latitude":"42.59N","longitude":"24.00E"}
{"date":"2011-10-01","average_temperature":"26.625999999999998","city":"Pontianak","latitude":"0.80S","longitude":"110.09E"}
{"date":"2011-10-01","average_temperature":"26.153","city":"Port Gentil","latitude":"0.80S","longitude":"8.84E"}
{"date":"2011-08-01","average_temperature":"28.643","city":"Portmore","latitude":"18.48N","longitude":"76.06W"}
{"date":"2012-04-01","average_temperature":"25.728","city":"Portmore","latitude":"18.48N","longitude":"76.06W"}
{"date":"2011-09-01","average_temperature":"23.416999999999998","city":"Portoviejo","latitude":"0.80S","longitude":"81.16W"}
{"date":"2011-03-01","average_temperature":"24.624000000000002","city":"Posadas","latitude":"28.13S","longitude":"55.45W"}
{"date":"2013-07-01","average_temperature":"11.508","city":"Potchefstroom","latitude":"26.52S","longitude":"26.87E"}
{"date":"2011-10-01","average_temperature":"20.55","city":"Praia Grande","latitude":"23.31S","longitude":"46.31W"}
{"date":"2012-02-01","average_temperature":"24.334","city":"Pretoria","latitude":"24.92S","longitude":"28.37E"}
{"date":"2012-04-01","average_temperature":"6.17","city":"Prokopyevsk","latitude":"53.84N","longitude":"85.91E"}
{"date":"2012-11-01","average_temperature":"2.449","city":"Pskov","latitude":"57.05N","longitude":"28.03E"}
{"date":"2011-06-01","average_temperature":"28.564","city":"Puerto Vallarta","latitude":"20.09N","longitude":"105.78W"}
{"date":"2011-09-01","average_temperature":"19.402","city":"Pulandian","latitude":"39.38N","longitude":"122.77E"}
{"date":"2012-03-01","average_temperature":"2.03","city":"Pulandian","latitude":"39.38N","longitude":"122.77E"}
{"date":"2013-07-01","average_temperature":"24.644","city":"Pulandian","latitude":"39.38N","longitude":"122.77E"}
{"date":"2010-02-01","average_temperature":"9.911","city":"Punta Arenas","latitude":"52.24S","longitude":"70.95W"}
{"date":"2013-05-01","average_temperature":"31.956999999999997","city":"Puruliya","latitude":"23.31N","longitude":"86.50E"}
{"date":"2011-01-01","average_temperature":"-2.862","city":"Pyatigorsk","latitude":"44.20N","longitude":"42.48E"}
{"date":"2013-03-01","average_temperature":"27.34","city":"Pyay","latitude":"18.48N","longitude":"94.65E"}
{"date":"2010-08-01","average_temperature":"25.693","city":"Qazvin","latitude":"36.17N","longitude":"49.72E"}
{"date":"2012-06-01","average_temperature":"22.674","city":"Qinhuangdao","latitude":"39.38N","longitude":"118.61E"}
{"date":"2010-07-01","average_temperature":"23.769","city":"Qiqihar","latitude":"47.42N","longitude":"124.34E"}
{"date":"2013-01-01","average_temperature":"-20.655","city":"Qitaihe","latitude":"45.81N","longitude":"130.38E"}
{"date":"2012-09-01","average_temperature":"22.297","city":"Quchan","latitude":"37.78N","longitude":"58.98E"}
{"date":"2011-07-01","average_temperature":"23.136","city":"Queimados","latitude":"23.31S","longitude":"42.82W"}
{"date":"2013-09-01","city":"Queimados","latitude":"23.31S","longitude":"42.82W"}
{"date":"2013-05-01","average_temperature":"34.315","city":"Rabak","latitude":"13.66N","longitude":"32.20E"}
{"date":"2011-06-01","average_temperature":"30.298","city":"Raigarh","latitude":"21.70N","longitude":"83.94E"}
{"date":"2012-06-01","average_temperature":"33.652","city":"Raipur","latitude":"21.70N","longitude":"82.21E"}
{"date":"2012-01-01","average_temperature":"19.718","city":"Rajkot","latitude":"21.70N","longitude":"70.10E"}
{"date":"2011-04-01","average_temperature":"8.131","city":"Ramnicu Valcea","latitude":"45.81N","longitude":"24.23E"}
{"date":"2012-04-01","average_temperature":"6.9750000000000005","city":"Ranghulu","latitude":"47.42N","longitude":"124.34E"}
{"date":"2013-04-01","average_temperature":"3.796","city":"Ranghulu","latitude":"47.42N","longitude":"124.34E"}
{"date":"2013-09-01","city":"Ranghulu","latitude":"47.42N","longitude":"124.34E"}
{"date":"2012-11-01","average_temperature":"18.962","city":"Rangpur","latitude":"26.52N","longitude":"89.55E"}
{"date":"2013-06-01","average_temperature":"27.221","city":"Rangpur","latitude":"26.52N","longitude":"89.55E"}
{"date":"2013-08-01","average_temperature":"27.622","city":"Rantauprapat","latitude":"2.41N","longitude":"100.45E"}
{"date":"2012-02-01","average_temperature":"9.703","city":"Reggio Di Calabria","latitude":"37.78N","longitude":"16.27E"}
{"date":"2010-10-01","average_temperature":"9.972000000000001","city":"Reims","latitude":"49.03N","longitude":"4.90E"}
{"date":"2012-06-01","average_temperature":"36.304","city":"Rewa","latitude":"24.92N","longitude":"81.58E"}
{"date":"2012-08-01","average_temperature":"29.833000000000002","city":"Rewari","latitude":"28.13N","longitude":"77.27E"}
{"date":"2010-03-01","average_temperature":"8.963000000000003","city":"Rimini","latitude":"44.20N","longitude":"13.42E"}
{"date":"2010-11-01","average_temperature":"12.864","city":"Rimini","latitude":"44.20N","longitude":"13.42E"}
{"date":"2011-11-01","average_temperature":"11.556","city":"Rimini","latitude":"44.20N","longitude":"13.42E"}
{"date":"2010-11-01","average_temperature":"25.436999999999998","city":"Rishra","latitude":"23.31N","longitude":"88.25E"}
{"date":"2011-07-01","average_temperature":"27.715999999999998","city":"Riverside","latitude":"34.56N","longitude":"116.76W"}
{"date":"2012-01-01","average_temperature":"14.732999999999999","city":"Riyadh","latitude":"24.92N","longitude":"46.11E"}
{"date":"2013-01-01","average_temperature":"4.4860000000000015","city":"Rongcheng","latitude":"29.74N","longitude":"112.62E"}
{"date":"2010-06-01","average_temperature":"11.587","city":"Rosario","latitude":"32.95S","longitude":"60.32W"}
{"date":"2010-07-01","average_temperature":"29.186999999999998","city":"Roxas","latitude":"12.05N","longitude":"123.29E"}
{"date":"2012-08-01","average_temperature":"24.5","city":"Ruse","latitude":"44.20N","longitude":"26.83E"}
{"date":"2010-02-01","average_temperature":"-1.401","city":"Rybnik","latitude":"50.63N","longitude":"19.01E"}
{"date":"2011-02-01","average_temperature":"24.412","city":"São Caetano Do Sul","latitude":"23.31S","longitude":"46.31W"}
{"date":"2011-12-01","average_temperature":"24.903","city":"São José Do Rio Prêto","latitude":"20.09S","longitude":"49.48W"}
{"date":"2011-10-01","average_temperature":"27.488000000000003","city":"São Luís","latitude":"2.41S","longitude":"44.20W"}
{"date":"2012-02-01","average_temperature":"-1.859","city":"Saarbrücken","latitude":"49.03N","longitude":"7.35E"}
{"date":"2011-08-01","average_temperature":"25.326","city":"Sabadell","latitude":"40.99N","longitude":"2.13E"}
{"date":"2010-07-01","average_temperature":"25.558000000000003","city":"Sagamihara","latitude":"36.17N","longitude":"139.23E"}
{"date":"2011-10-01","average_temperature":"22.395","city":"Saint Denis","latitude":"21.70S","longitude":"56.25E"}
{"date":"2012-04-01","average_temperature":"6.796","city":"Saint Helens","latitude":"53.84N","longitude":"4.09W"}
{"date":"2011-01-01","average_temperature":"-0.17800000000000005","city":"Sakata","latitude":"39.38N","longitude":"139.42E"}
{"date":"2011-03-01","average_temperature":"8.337","city":"Salamanca","latitude":"40.99N","longitude":"6.39W"}
{"date":"2013-01-01","average_temperature":"26.154","city":"Salatiga","latitude":"7.23S","longitude":"111.08E"}
{"date":"2012-09-01","average_temperature":"11.16","city":"Salzburg","latitude":"47.42N","longitude":"13.03E"}
{"date":"2012-07-01","average_temperature":"27.976000000000006","city":"San Bernardino","latitude":"34.56N","longitude":"116.76W"}
{"date":"2012-07-01","average_temperature":"26.959","city":"San Fernando","latitude":"15.27N","longitude":"120.83E"}
{"date":"2012-12-01","average_temperature":"13.902","city":"San Luis Potosí","latitude":"21.70N","longitude":"101.25W"}
{"date":"2012-05-01","average_temperature":"27.543000000000003","city":"San Luis Río Colorado","latitude":"32.95N","longitude":"113.94W"}
{"date":"2010-07-01","average_temperature":"7.393","city":"San Martin","latitude":"32.95S","longitude":"67.98W"}
{"date":"2010-07-01","average_temperature":"5.3020000000000005","city":"San Rafael","latitude":"34.56S","longitude":"68.11W"}
{"date":"2013-03-01","average_temperature":"25.964000000000002","city":"San Salvador","latitude":"13.66N","longitude":"90.00W"}
{"date":"2013-03-01","average_temperature":"9.481","city":"Sanmenxia","latitude":"34.56N","longitude":"110.92E"}
{"date":"2013-09-01","city":"Sanming","latitude":"26.52N","longitude":"118.21E"}
{"date":"2013-07-01","average_temperature":"26.509","city":"Santa Ana","latitude":"13.66N","longitude":"90.00W"}
{"date":"2013-03-01","average_temperature":"23.116","city":"Santa Clara","latitude":"21.70N","longitude":"80.48W"}
{"date":"2012-06-01","average_temperature":"12.936","city":"Santa Fe","latitude":"31.35S","longitude":"60.31W"}
{"date":"2010-12-01","average_temperature":"23.813","city":"Santa Luzia","latitude":"20.09S","longitude":"44.36W"}
{"date":"2013-05-01","average_temperature":"28.981","city":"Santa Rosa","latitude":"13.66N","longitude":"121.38E"}
{"date":"2013-01-01","average_temperature":"23.726999999999997","city":"Santiago","latitude":"16.87N","longitude":"122.23E"}
{"date":"2013-06-01","average_temperature":"14.054","city":"Santiago Del Estero","latitude":"28.13S","longitude":"64.55W"}
{"date":"2012-10-01","average_temperature":"20.231","city":"Sapucaia","latitude":"29.74S","longitude":"51.69W"}
{"date":"2012-12-01","average_temperature":"-0.326","city":"Sarajevo","latitude":"44.20N","longitude":"17.89E"}
{"date":"2013-04-01","average_temperature":"27.055999999999997","city":"Sargodha","latitude":"31.35N","longitude":"73.51E"}
{"date":"2013-06-01","average_temperature":"26.729","city":"Sari","latitude":"36.17N","longitude":"53.70E"}
{"date":"2010-11-01","average_temperature":"13.825999999999999","city":"Sasebo","latitude":"32.95N","longitude":"129.26E"}
{"date":"2011-05-01","average_temperature":"10.865","city":"Saskatoon","latitude":"52.24N","longitude":"107.74W"}
{"date":"2013-07-01","average_temperature":"24.954","city":"Sassari","latitude":"40.99N","longitude":"8.52E"}
{"date":"2012-06-01","average_temperature":"31.959","city":"Satkhira","latitude":"23.31N","longitude":"88.25E"}
{"date":"2010-07-01","average_temperature":"31.168000000000003","city":"Sawai Madhopur","latitude":"26.52N","longitude":"77.01E"}
{"date":"2011-07-01","average_temperature":"30.166999999999998","city":"Sawai Madhopur","latitude":"26.52N","longitude":"77.01E"}
{"date":"2010-06-01","average_temperature":"28.024","city":"Sekudai","latitude":"0.80N","longitude":"103.66E"}
{"date":"2012-02-01","average_temperature":"-23.37","city":"Semey","latitude":"50.63N","longitude":"79.86E"}
{"date":"2012-01-01","average_temperature":"-8.29","city":"Sergiyev Posad","latitude":"57.05N","longitude":"36.89E"}
{"date":"2010-10-01","average_temperature":"14.936","city":"Shahe","latitude":"36.17N","longitude":"115.36E"}
{"date":"2011-05-01","average_temperature":"20.927000000000003","city":"Shahe","latitude":"36.17N","longitude":"115.36E"}
{"date":"2011-02-01","average_temperature":"18.342","city":"Shahjahanpur","latitude":"28.13N","longitude":"79.09E"}
{"date":"2013-03-01","average_temperature":"24.027","city":"Shahjahanpur","latitude":"28.13N","longitude":"79.09E"}
{"date":"2010-09-01","average_temperature":"20.523000000000003","city":"Shahr E Kord","latitude":"32.95N","longitude":"50.74E"}
{"date":"2013-08-01","average_temperature":"24.511999999999997","city":"Shahr E Kord","latitude":"32.95N","longitude":"50.74E"}
{"date":"2013-09-01","city":"Shaoxing","latitude":"29.74N","longitude":"120.00E"}
{"date":"2010-06-01","average_temperature":"23.531","city":"Shaoyang","latitude":"26.52N","longitude":"111.04E"}
{"date":"2011-05-01","average_temperature":"21.269000000000002","city":"Shaoyang","latitude":"26.52N","longitude":"111.04E"}
{"date":"2011-02-01","average_temperature":"15.970999999999998","city":"Shekhupura","latitude":"31.35N","longitude":"73.51E"}
{"date":"2012-08-01","average_temperature":"31.9","city":"Shekhupura","latitude":"31.35N","longitude":"73.51E"}
{"date":"2013-02-01","average_temperature":"23.976000000000006","city":"Shinyanga","latitude":"4.02S","longitude":"32.95E"}
{"date":"2010-03-01","average_temperature":"9.527999999999999","city":"Shiyan","latitude":"32.95N","longitude":"110.11E"}
{"date":"2011-03-01","average_temperature":"14.686","city":"Shreveport","latitude":"32.95N","longitude":"92.87W"}
{"date":"2010-03-01","average_temperature":"4.25","city":"Shunyi","latitude":"39.38N","longitude":"116.53E"}
{"date":"2010-09-01","average_temperature":"12.104000000000001","city":"Siauliai","latitude":"55.45N","longitude":"22.68E"}
{"date":"2012-10-01","average_temperature":"27.191999999999997","city":"Singapore","latitude":"0.80N","longitude":"103.66E"}
{"date":"2013-06-01","average_temperature":"29.404","city":"Sirajganj","latitude":"24.92N","longitude":"90.44E"}
{"date":"2010-12-01","average_temperature":"5.715","city":"Sirjan","latitude":"29.74N","longitude":"55.38E"}
{"date":"2010-06-01","average_temperature":"27.188000000000002","city":"Sobral","latitude":"4.02S","longitude":"40.98W"}
{"date":"2010-10-01","average_temperature":"29.046","city":"Sobral","latitude":"4.02S","longitude":"40.98W"}
{"date":"2012-06-01","average_temperature":"27.792","city":"Sobral","latitude":"4.02S","longitude":"40.98W"}
{"date":"2013-02-01","average_temperature":"20.214000000000002","city":"Somerset West","latitude":"34.56S","longitude":"19.46E"}
{"date":"2013-02-01","average_temperature":"25.502","city":"Soreang","latitude":"7.23S","longitude":"107.84E"}
{"date":"2012-11-01","average_temperature":"4.090999999999998","city":"South Bend","latitude":"40.99N","longitude":"85.21W"}
{"date":"2013-02-01","average_temperature":"-2.552","city":"South Bend","latitude":"40.99N","longitude":"85.21W"}
{"date":"2010-07-01","average_temperature":"9.645","city":"Soweto","latitude":"26.52S","longitude":"28.66E"}
{"date":"2011-03-01","average_temperature":"0.8679999999999999","city":"Springfield","latitude":"42.59N","longitude":"72.00W"}
{"date":"2011-05-01","average_temperature":"14.984000000000002","city":"Springfield","latitude":"42.59N","longitude":"72.00W"}
{"date":"2010-12-01","average_temperature":"-3.1179999999999994","city":"Staryy Oskol","latitude":"50.63N","longitude":"36.76E"}
{"date":"2012-01-01","average_temperature":"-4.502","city":"Stavropol","latitude":"44.20N","longitude":"42.48E"}
{"date":"2012-10-01","average_temperature":"6.101","city":"Sterlitamak","latitude":"53.84N","longitude":"55.91E"}
{"date":"2010-06-01","average_temperature":"18.643","city":"Stockton","latitude":"37.78N","longitude":"122.03W"}
{"date":"2011-06-01","average_temperature":"17.577","city":"Stuttgart","latitude":"49.03N","longitude":"9.80E"}
{"date":"2011-04-01","average_temperature":"19.469","city":"Suining","latitude":"29.74N","longitude":"105.23E"}
{"date":"2010-09-01","average_temperature":"25.936","city":"Sukaraja","latitude":"7.23S","longitude":"106.22E"}
{"date":"2013-09-01","city":"Sumaré","latitude":"23.31S","longitude":"48.06W"}
{"date":"2011-05-01","average_temperature":"11.052999999999999","city":"Sunderland","latitude":"55.45N","longitude":"2.83W"}
{"date":"2013-04-01","average_temperature":"28.705","city":"Sungai Petani","latitude":"5.63N","longitude":"100.09E"}
{"date":"2010-08-01","average_temperature":"29.236","city":"Susah","latitude":"36.17N","longitude":"9.94E"}
{"date":"2011-01-01","average_temperature":"3.263","city":"Sutton Coldfield","latitude":"52.24N","longitude":"2.63W"}
{"date":"2012-05-01","average_temperature":"12.009","city":"Sutton Coldfield","latitude":"52.24N","longitude":"2.63W"}
{"date":"2010-05-01","average_temperature":"21.57","city":"Suzhou","latitude":"34.56N","longitude":"116.76E"}
{"date":"2010-06-01","average_temperature":"26.011999999999997","city":"Suzhou","latitude":"34.56N","longitude":"116.76E"}
{"date":"2011-01-01","average_temperature":"3.263","city":"Swindon","latitude":"52.24N","longitude":"2.63W"}
{"date":"2012-08-01","average_temperature":"14.892000000000001","city":"Sydney","latitude":"34.56S","longitude":"151.78E"}
{"date":"2012-06-01","average_temperature":"19.02","city":"Syracuse","latitude":"42.59N","longitude":"76.36W"}
{"date":"2012-02-01","average_temperature":"-2.543","city":"Szczecin","latitude":"53.84N","longitude":"15.00E"}
{"date":"2011-06-01","average_temperature":"19.699","city":"Tacna","latitude":"18.48S","longitude":"70.99W"}
{"date":"2013-04-01","average_temperature":"30.658","city":"Tadepallegudem","latitude":"16.87N","longitude":"82.05E"}
{"date":"2011-05-01","average_temperature":"20.563000000000002","city":"Taian","latitude":"36.17N","longitude":"117.35E"}
{"date":"2011-01-01","average_temperature":"15.018","city":"Tainan","latitude":"23.31N","longitude":"119.71E"}
{"date":"2013-07-01","average_temperature":"26.7","city":"Taitung","latitude":"23.31N","longitude":"121.46E"}
{"date":"2012-06-01","average_temperature":"19.828","city":"Takaoka","latitude":"36.17N","longitude":"137.24E"}
{"date":"2013-01-01","average_temperature":"3.917","city":"Takatsuki","latitude":"34.56N","longitude":"136.22E"}
{"date":"2012-07-01","average_temperature":"28.609","city":"Tali","latitude":"24.92N","longitude":"120.59E"}
{"date":"2011-07-01","average_temperature":"27.22","city":"Talisay","latitude":"10.45N","longitude":"123.55E"}
{"date":"2010-04-01","average_temperature":"20.534000000000002","city":"Talkha","latitude":"31.35N","longitude":"32.04E"}
{"date":"2011-07-01","average_temperature":"23.912","city":"Tambov","latitude":"52.24N","longitude":"42.04E"}
{"date":"2012-07-01","average_temperature":"27.101","city":"Tambun","latitude":"5.63S","longitude":"106.55E"}
{"date":"2013-04-01","average_temperature":"2.095","city":"Tampere","latitude":"61.88N","longitude":"22.08E"}
{"date":"2013-09-01","city":"Tando Adam","latitude":"26.52N","longitude":"68.06E"}
{"date":"2012-12-01","average_temperature":"13.382","city":"Tangier","latitude":"36.17N","longitude":"5.97W"}
{"date":"2013-03-01","average_temperature":"14.627","city":"Tangier","latitude":"36.17N","longitude":"5.97W"}
{"date":"2010-08-01","average_temperature":"28.75","city":"Tanshui","latitude":"24.92N","longitude":"120.59E"}
{"date":"2012-10-01","average_temperature":"23.322","city":"Tanshui","latitude":"24.92N","longitude":"120.59E"}
{"date":"2011-09-01","average_temperature":"16.448","city":"Targu Mures","latitude":"45.81N","longitude":"24.23E"}
{"date":"2013-07-01","average_temperature":"22.471999999999998","city":"Tarsus","latitude":"37.78N","longitude":"34.58E"}
{"date":"2012-06-01","average_temperature":"25.809","city":"Taunggyi","latitude":"20.09N","longitude":"97.25E"}
{"date":"2010-10-01","average_temperature":"18.688","city":"Tembisa","latitude":"26.52S","longitude":"28.66E"}
{"date":"2011-09-01","average_temperature":"29.197000000000006","city":"Tenali","latitude":"16.87N","longitude":"80.37E"}
{"date":"2013-04-01","average_temperature":"31.932","city":"Tenali","latitude":"16.87N","longitude":"80.37E"}
{"date":"2011-11-01","average_temperature":"14.675","city":"Texcoco","latitude":"20.09N","longitude":"98.96W"}
{"date":"2011-04-01","average_temperature":"30.134","city":"Thanjavur","latitude":"10.45N","longitude":"79.36E"}
{"date":"2011-11-01","average_temperature":"25.561999999999998","city":"Tiruvannamalai","latitude":"12.05N","longitude":"78.90E"}
{"date":"2012-05-01","average_temperature":"31.809","city":"Tiruvannamalai","latitude":"12.05N","longitude":"78.90E"}
{"date":"2013-05-01","average_temperature":"30.921","city":"Titagarh","latitude":"23.31N","longitude":"88.25E"}
{"date":"2013-07-01","average_temperature":"23.187","city":"Tlaquepaque","latitude":"20.09N","longitude":"104.08W"}
{"date":"2012-05-01","average_temperature":"21.615","city":"Toamasina","latitude":"18.48S","longitude":"49.01E"}
{"date":"2013-04-01","average_temperature":"12.052","city":"Tokat","latitude":"40.99N","longitude":"36.21E"}
{"date":"2011-05-01","average_temperature":"9.37","city":"Tomakomai","latitude":"42.59N","longitude":"141.82E"}
{"date":"2012-12-01","average_temperature":"4.013","city":"Tongling","latitude":"31.35N","longitude":"118.74E"}
{"date":"2012-06-01","average_temperature":"20.234","city":"Torrejón De Ardoz","latitude":"40.99N","longitude":"4.26W"}
{"date":"2011-01-01","average_temperature":"2.595","city":"Tottori","latitude":"34.56N","longitude":"134.27E"}
{"date":"2010-08-01","average_temperature":"27.059","city":"Toungoo","latitude":"18.48N","longitude":"96.34E"}
{"date":"2010-07-01","average_temperature":"26.26","city":"Toyohashi","latitude":"34.56N","longitude":"138.16E"}
{"date":"2011-07-01","average_temperature":"25.726000000000006","city":"Toyokawa","latitude":"34.56N","longitude":"138.16E"}
{"date":"2013-03-01","average_temperature":"10.33","city":"Toyonaka","latitude":"34.56N","longitude":"136.22E"}
{"date":"2013-01-01","average_temperature":"25.483","city":"Tshikapa","latitude":"5.63S","longitude":"20.99E"}
{"date":"2010-06-01","average_temperature":"21.521","city":"Tsukuba","latitude":"36.17N","longitude":"139.23E"}
{"date":"2013-07-01","average_temperature":"23.2","city":"Tuluá","latitude":"4.02N","longitude":"76.34W"}
{"date":"2013-08-01","average_temperature":"24.493000000000002","city":"Tumkur","latitude":"13.66N","longitude":"76.79E"}
{"date":"2010-10-01","average_temperature":"20.111","city":"Tunja","latitude":"5.63N","longitude":"72.65W"}
{"date":"2012-06-01","average_temperature":"21.259","city":"Turhal","latitude":"40.99N","longitude":"36.21E"}
{"date":"2012-09-01","average_temperature":"23.135","city":"Ube","latitude":"34.56N","longitude":"130.38E"}
{"date":"2011-11-01","average_temperature":"27.396","city":"Ugep","latitude":"5.63N","longitude":"8.07E"}
{"date":"2012-09-01","average_temperature":"15.869000000000002","city":"Uitenhage","latitude":"34.56S","longitude":"25.30E"}
{"date":"2011-02-01","average_temperature":"20.936","city":"Ujjain","latitude":"23.31N","longitude":"76.02E"}
{"date":"2012-06-01","average_temperature":"31.967","city":"Ujjain","latitude":"23.31N","longitude":"76.02E"}
{"date":"2011-04-01","average_temperature":"27.715999999999998","city":"Ulhasnagar","latitude":"18.48N","longitude":"72.68E"}
{"date":"2011-06-01","average_temperature":"28.394","city":"Ulhasnagar","latitude":"18.48N","longitude":"72.68E"}
{"date":"2012-05-01","average_temperature":"20.326","city":"Urfa","latitude":"37.78N","longitude":"38.64E"}
{"date":"2013-06-01","average_temperature":"25.591","city":"Uromi","latitude":"7.23N","longitude":"5.68E"}
{"date":"2010-11-01","average_temperature":"5.385","city":"Utrecht","latitude":"52.24N","longitude":"5.26E"}
{"date":"2013-05-01","average_temperature":"11.464","city":"Utrecht","latitude":"52.24N","longitude":"5.26E"}
{"date":"2010-05-01","average_temperature":"22.195999999999998","city":"Uvira","latitude":"4.02S","longitude":"29.73E"}
{"date":"2012-04-01","average_temperature":"9.938","city":"Uzhhorod","latitude":"49.03N","longitude":"22.04E"}
{"date":"2011-01-01","average_temperature":"19.831","city":"Vadodara","latitude":"21.70N","longitude":"73.56E"}
{"date":"2011-01-01","average_temperature":"16.63","city":"Valdivia","latitude":"39.38S","longitude":"72.83W"}
{"date":"2011-05-01","average_temperature":"14.526","city":"Vallejo","latitude":"37.78N","longitude":"122.03W"}
{"date":"2011-06-01","average_temperature":"12.438","city":"Valparaiso","latitude":"32.95S","longitude":"71.81W"}
{"date":"2011-08-01","average_temperature":"10.824000000000002","city":"Vanderbijlpark","latitude":"26.52S","longitude":"28.66E"}
{"date":"2012-07-01","average_temperature":"30.031","city":"Varanasi","latitude":"24.92N","longitude":"83.35E"}
{"date":"2012-08-01","average_temperature":"29.28","city":"Varanasi","latitude":"24.92N","longitude":"83.35E"}
{"date":"2012-10-01","average_temperature":"24.21","city":"Varginha","latitude":"21.70S","longitude":"45.87W"}
{"date":"2010-10-01","average_temperature":"13.084000000000001","city":"Varna","latitude":"42.59N","longitude":"28.36E"}
{"date":"2011-07-01","average_temperature":"22.955","city":"Varna","latitude":"42.59N","longitude":"28.36E"}
{"date":"2011-09-01","average_temperature":"26.802","city":"Vejalpur","latitude":"23.31N","longitude":"74.27E"}
{"date":"2012-07-01","average_temperature":"28.648000000000003","city":"Vejalpur","latitude":"23.31N","longitude":"74.27E"}
{"date":"2012-02-01","average_temperature":"-12.076999999999998","city":"Velikiy Novgorod","latitude":"58.66N","longitude":"30.77E"}
{"date":"2010-09-01","average_temperature":"17.163","city":"Vereeniging","latitude":"26.52S","longitude":"28.66E"}
{"date":"2010-09-01","average_temperature":"26.961","city":"Vientiane","latitude":"18.48N","longitude":"103.10E"}
{"date":"2010-03-01","average_temperature":"20.111","city":"Villa Canales","latitude":"15.27N","longitude":"90.83W"}
{"date":"2012-02-01","average_temperature":"19.009","city":"Villa Nueva","latitude":"15.27N","longitude":"90.83W"}
{"date":"2011-03-01","average_temperature":"6.392","city":"Villeurbanne","latitude":"45.81N","longitude":"5.77E"}
{"date":"2011-08-01","average_temperature":"18.880000000000006","city":"Vinnitsa","latitude":"49.03N","longitude":"29.39E"}
{"date":"2012-07-01","average_temperature":"22.787000000000006","city":"Vinnitsa","latitude":"49.03N","longitude":"29.39E"}
{"date":"2013-03-01","average_temperature":"-0.995","city":"Vinnitsa","latitude":"49.03N","longitude":"29.39E"}
{"date":"2012-05-01","average_temperature":"17.345","city":"Vinnytsya","latitude":"49.03N","longitude":"29.39E"}
{"date":"2010-03-01","average_temperature":"26.218000000000004","city":"Vitória","latitude":"20.09S","longitude":"40.95W"}
{"date":"2012-01-01","average_temperature":"20.955","city":"Vizianagaram","latitude":"18.48N","longitude":"82.82E"}
{"date":"2013-07-01","average_temperature":"26.139","city":"Vizianagaram","latitude":"18.48N","longitude":"82.82E"}
{"date":"2013-01-01","average_temperature":"-6.032","city":"Volzhskiy","latitude":"49.03N","longitude":"44.08E"}
{"date":"2010-11-01","average_temperature":"19.969","city":"Vryheid","latitude":"28.13S","longitude":"30.00E"}
{"date":"2013-02-01","average_temperature":"28.436999999999998","city":"Wad Madani","latitude":"13.66N","longitude":"33.85E"}
{"date":"2013-04-01","average_temperature":"17.839000000000002","city":"Waitakere","latitude":"36.17S","longitude":"175.03E"}
{"date":"2010-08-01","average_temperature":"25.858","city":"Wanxian","latitude":"31.35N","longitude":"109.32E"}
{"date":"2013-09-01","city":"Warri","latitude":"5.63N","longitude":"6.46E"}
{"date":"2012-08-01","average_temperature":"23.885","city":"Weinan","latitude":"34.56N","longitude":"108.97E"}
{"date":"2011-12-01","average_temperature":"15.355","city":"Wellington","latitude":"40.99S","longitude":"174.67E"}
{"date":"2011-07-01","average_temperature":"15.634","city":"West Bromwich","latitude":"52.24N","longitude":"2.63W"}
{"date":"2011-02-01","average_temperature":"8.759","city":"West Covina","latitude":"34.56N","longitude":"118.70W"}
{"date":"2012-05-01","average_temperature":"18.677","city":"West Covina","latitude":"34.56N","longitude":"118.70W"}
{"date":"2012-06-01","average_temperature":"21.165","city":"West Valley City","latitude":"40.99N","longitude":"112.90W"}
{"date":"2010-01-01","average_temperature":"-2.042","city":"Wichita","latitude":"37.78N","longitude":"97.63W"}
{"date":"2011-01-01","average_temperature":"-19.195","city":"Winnipeg","latitude":"50.63N","longitude":"97.61W"}
{"date":"2013-01-01","average_temperature":"0.459","city":"Wolfsburg","latitude":"52.24N","longitude":"10.51E"}
{"date":"2010-03-01","average_temperature":"11.399","city":"Xiantao","latitude":"29.74N","longitude":"112.62E"}
{"date":"2010-02-01","average_temperature":"6.567","city":"Xuanzhou","latitude":"31.35N","longitude":"118.74E"}
{"date":"2012-02-01","average_temperature":"2.139","city":"Xuzhou","latitude":"34.56N","longitude":"116.76E"}
{"date":"2011-09-01","average_temperature":"8.602","city":"Yakeshi","latitude":"49.03N","longitude":"120.00E"}
{"date":"2010-05-01","average_temperature":"27.67","city":"Yamoussoukro","latitude":"7.23N","longitude":"5.68W"}
{"date":"2010-07-01","average_temperature":"28.175","city":"Yavatmal","latitude":"20.09N","longitude":"78.48E"}
{"date":"2011-07-01","average_temperature":"28.163","city":"Yavatmal","latitude":"20.09N","longitude":"78.48E"}
{"date":"2012-09-01","average_temperature":"19.159000000000002","city":"Yibin","latitude":"28.13N","longitude":"104.55E"}
{"date":"2011-11-01","average_temperature":"12.023","city":"Yichang","latitude":"31.35N","longitude":"111.20E"}
{"date":"2011-02-01","average_temperature":"0.5180000000000001","city":"Yidu","latitude":"36.17N","longitude":"119.34E"}
{"date":"2010-05-01","average_temperature":"15.595999999999998","city":"Yingkou","latitude":"40.99N","longitude":"123.55E"}
{"date":"2012-11-01","average_temperature":"10.885","city":"Yonago","latitude":"36.17N","longitude":"133.26E"}
{"date":"2010-10-01","average_temperature":"18.805","city":"Yongan","latitude":"26.52N","longitude":"118.21E"}
{"date":"2012-10-01","average_temperature":"19.957","city":"Yongan","latitude":"26.52N","longitude":"118.21E"}
{"date":"2010-06-01","average_temperature":"15.26","city":"York","latitude":"53.84N","longitude":"1.36W"}
{"date":"2010-05-01","average_temperature":"14.200999999999999","city":"Yushu","latitude":"44.20N","longitude":"127.45E"}
{"date":"2013-03-01","average_temperature":"14.795","city":"Zacatecas","latitude":"23.31N","longitude":"102.23W"}
{"date":"2010-05-01","average_temperature":"14.547","city":"Zagreb","latitude":"45.81N","longitude":"15.00E"}
{"date":"2012-11-01","average_temperature":"8.718","city":"Zama","latitude":"36.17N","longitude":"139.23E"}
{"date":"2011-01-01","average_temperature":"-12.735","city":"Zelenodolsk","latitude":"55.45N","longitude":"48.19E"}
{"date":"2013-04-01","average_temperature":"23.45","city":"Zhanjiang","latitude":"21.70N","longitude":"109.90E"}
{"date":"2010-05-01","average_temperature":"25.974","city":"Zhuhai","latitude":"21.70N","longitude":"113.37E"}
{"date":"2010-09-01","average_temperature":"24.791","city":"Zhuji","latitude":"29.74N","longitude":"120.00E"}
{"date":"2013-08-01","average_temperature":"29.535999999999998","city":"Zhuji","latitude":"29.74N","longitude":"120.00E"}
{"date":"2011-10-01","average_temperature":"5.926","city":"Zhukovskiy","latitude":"55.45N","longitude":"36.85E"}
{"date":"2011-05-01","average_temperature":"21.7","city":"Zhumadian","latitude":"32.95N","longitude":"113.94E"}
{"date":"2012-09-01","average_temperature":"15.174000000000001","city":"Zhytomyr","latitude":"50.63N","longitude":"29.15E"}
{"date":"2010-11-01","average_temperature":"14.118","city":"Zigong","latitude":"29.74N","longitude":"105.23E"}
{"date":"2012-04-01","average_temperature":"7.013999999999999","city":"Zurich","latitude":"47.42N","longitude":"8.29E"}
{"date":"2012-09-01","average_temperature":"14.333","city":"Zwolle","latitude":"52.24N","longitude":"5.26E"}
