{"date":"2012-11-01","average_temperature":"-3.949","city":"Ürümqi","latitude":"44.20N","longitude":"87.20E"}
{"date":"2013-08-01","average_temperature":"22.974","city":"Ürümqi","latitude":"44.20N","longitude":"87.20E"}
{"date":"2013-08-01","average_temperature":"17.423","city":"Aalborg","latitude":"57.05N","longitude":"10.33E"}
{"date":"2012-10-01","average_temperature":"7.888999999999999","city":"Abbotsford","latitude":"49.03N","longitude":"122.45W"}
{"date":"2011-01-01","average_temperature":"11.493","city":"Abohar","latitude":"29.74N","longitude":"73.85E"}
{"date":"2013-09-01","city":"Abu Dhabi","latitude":"24.92N","longitude":"54.98E"}
{"date":"2010-04-01","average_temperature":"30.642","city":"Abuja","latitude":"8.84N","longitude":"7.30E"}
{"date":"2010-08-01","average_temperature":"26.889","city":"Achalpur","latitude":"21.70N","longitude":"77.02E"}
{"date":"2010-08-01","average_temperature":"14.35","city":"Achinsk","latitude":"57.05N","longitude":"90.00E"}
{"date":"2011-02-01","average_temperature":"2.359","city":"Afyonkarahisar","latitude":"39.38N","longitude":"31.21E"}
{"date":"2013-09-01","city":"Aizawl","latitude":"23.31N","longitude":"93.50E"}
{"date":"2011-01-01","average_temperature":"12.948","city":"Ajdabiya","latitude":"31.35N","longitude":"20.73E"}
{"date":"2010-03-01","average_temperature":"5.372000000000001","city":"Akron","latitude":"40.99N","longitude":"80.95W"}
{"date":"2012-01-01","average_temperature":"27.221","city":"Alagoinhas","latitude":"12.05S","longitude":"37.81W"}
{"date":"2013-07-01","average_temperature":"28.695","city":"Alor Setar","latitude":"5.63N","longitude":"100.09E"}
{"date":"2012-06-01","average_temperature":"26.541999999999998","city":"Amaigbo","latitude":"5.63N","longitude":"8.07E"}
{"date":"2010-05-01","average_temperature":"19.595","city":"Amarillo","latitude":"34.56N","longitude":"101.19W"}
{"date":"2011-05-01","average_temperature":"17.630000000000006","city":"Ambato","latitude":"0.80S","longitude":"77.95W"}
{"date":"2012-10-01","average_temperature":"10.358","city":"Amersfoort","latitude":"52.24N","longitude":"5.26E"}
{"date":"2011-10-01","average_temperature":"28.151999999999997","city":"Anand","latitude":"23.31N","longitude":"72.52E"}
{"date":"2011-01-01","average_temperature":"23.676","city":"Anantapur","latitude":"15.27N","longitude":"77.50E"}
{"date":"2013-04-01","average_temperature":"13.39","city":"Andijon","latitude":"40.99N","longitude":"72.43E"}
{"date":"2012-08-01","average_temperature":"26.531","city":"Angeles","latitude":"15.27N","longitude":"120.83E"}
{"date":"2010-03-01","average_temperature":"4.242","city":"Ann Arbor","latitude":"42.59N","longitude":"82.91W"}
{"date":"2013-01-01","average_temperature":"25.497","city":"Antipolo","latitude":"15.27N","longitude":"120.83E"}
{"date":"2010-03-01","average_temperature":"23.171999999999997","city":"Antsirabe","latitude":"20.09S","longitude":"47.77E"}
{"date":"2010-02-01","average_temperature":"-15.884","city":"Aqtöbe","latitude":"50.63N","longitude":"57.04E"}
{"date":"2012-04-01","average_temperature":"14.244000000000002","city":"Aqtöbe","latitude":"50.63N","longitude":"57.04E"}
{"date":"2013-07-01","average_temperature":"24.5","city":"Aracaju","latitude":"10.45S","longitude":"36.82W"}
{"date":"2011-02-01","average_temperature":"-1.514","city":"Arad","latitude":"45.81N","longitude":"21.92E"}
{"date":"2011-02-01","average_temperature":"25.244","city":"Araraquara","latitude":"21.70S","longitude":"47.60W"}
{"date":"2011-07-01","average_temperature":"25.612","city":"Ardabil","latitude":"37.78N","longitude":"48.81E"}
{"date":"2011-03-01","average_temperature":"-4.322","city":"Arkhangelsk","latitude":"65.09N","longitude":"40.21E"}
{"date":"2011-02-01","average_temperature":"9.034","city":"Arlington","latitude":"32.95N","longitude":"96.70W"}
{"date":"2010-12-01","average_temperature":"-0.7410000000000001","city":"Arlington","latitude":"39.38N","longitude":"76.99W"}
{"date":"2013-05-01","average_temperature":"17.134","city":"Arlington","latitude":"39.38N","longitude":"76.99W"}
{"date":"2012-01-01","average_temperature":"-2.845","city":"Armavir","latitude":"45.81N","longitude":"40.38E"}
{"date":"2011-07-01","average_temperature":"20.125","city":"Arusha","latitude":"4.02S","longitude":"36.16E"}
{"date":"2010-02-01","average_temperature":"3.779","city":"Asgabat","latitude":"37.78N","longitude":"58.98E"}
{"date":"2012-07-01","average_temperature":"30.134","city":"Asgabat","latitude":"37.78N","longitude":"58.98E"}
{"date":"2010-10-01","average_temperature":"25.151","city":"Ashdod","latitude":"31.35N","longitude":"33.93E"}
{"date":"2012-09-01","average_temperature":"28.605","city":"Asyut","latitude":"26.52N","longitude":"30.45E"}
{"date":"2011-04-01","average_temperature":"16.311","city":"Atlanta","latitude":"34.56N","longitude":"83.68W"}
{"date":"2012-12-01","average_temperature":"2.9609999999999994","city":"Atsugi","latitude":"36.17N","longitude":"139.23E"}
{"date":"2010-09-01","average_temperature":"13.96","city":"Auckland","latitude":"36.17S","longitude":"175.03E"}
{"date":"2010-09-01","average_temperature":"27.511","city":"Azare","latitude":"12.05N","longitude":"9.86E"}
{"date":"2013-08-01","average_temperature":"24.296000000000006","city":"Bénin","latitude":"7.23N","longitude":"5.68E"}
{"date":"2011-12-01","average_temperature":"16.427000000000003","city":"Bagaha","latitude":"26.52N","longitude":"84.18E"}
{"date":"2012-08-01","average_temperature":"36.559","city":"Baghdad","latitude":"32.95N","longitude":"45.00E"}
{"date":"2010-01-01","average_temperature":"1.396","city":"Baglan","latitude":"36.17N","longitude":"69.61E"}
{"date":"2011-07-01","average_temperature":"33.302","city":"Bahawalnagar","latitude":"29.74N","longitude":"73.85E"}
{"date":"2010-02-01","average_temperature":"0.807","city":"Baia Mare","latitude":"47.42N","longitude":"22.50E"}
{"date":"2011-04-01","average_temperature":"5.729","city":"Balashikha","latitude":"55.45N","longitude":"36.85E"}
{"date":"2012-12-01","average_temperature":"27.298","city":"Balikpapan","latitude":"0.80S","longitude":"116.52E"}
{"date":"2013-08-01","average_temperature":"27.01","city":"Balikpapan","latitude":"0.80S","longitude":"116.52E"}
{"date":"2010-07-01","average_temperature":"30.013","city":"Balurghat","latitude":"24.92N","longitude":"88.67E"}
{"date":"2011-05-01","average_temperature":"29.268","city":"Balurghat","latitude":"24.92N","longitude":"88.67E"}
{"date":"2012-01-01","average_temperature":"26.862","city":"Bangkok","latitude":"13.66N","longitude":"99.91E"}
{"date":"2010-06-01","average_temperature":"24.089000000000002","city":"Bantou","latitude":"24.92N","longitude":"118.82E"}
{"date":"2012-10-01","average_temperature":"27.166","city":"Banyuwangi","latitude":"8.84S","longitude":"114.32E"}
{"date":"2012-08-01","average_temperature":"29.762","city":"Baranagar","latitude":"23.31N","longitude":"88.25E"}
{"date":"2011-10-01","average_temperature":"28.097","city":"Barasat","latitude":"23.31N","longitude":"88.25E"}
{"date":"2011-07-01","average_temperature":"27.556","city":"Barcelona","latitude":"10.45N","longitude":"64.64W"}
{"date":"2013-08-01","average_temperature":"27.026999999999997","city":"Barranquilla","latitude":"10.45N","longitude":"74.45W"}
{"date":"2010-02-01","average_temperature":"-0.966","city":"Basel","latitude":"47.42N","longitude":"8.29E"}
{"date":"2012-11-01","average_temperature":"20.709","city":"Bat Yam","latitude":"31.35N","longitude":"33.93E"}
{"date":"2010-04-01","average_temperature":"28.113000000000003","city":"Batangas","latitude":"13.66N","longitude":"121.38E"}
{"date":"2013-02-01","average_temperature":"25.308000000000003","city":"Bayamo","latitude":"20.09N","longitude":"76.78W"}
{"date":"2011-05-01","average_temperature":"35.034","city":"Beawar","latitude":"26.52N","longitude":"73.43E"}
{"date":"2013-03-01","average_temperature":"1.257","city":"Beipiao","latitude":"40.99N","longitude":"121.42E"}
{"date":"2010-03-01","average_temperature":"28.456","city":"Belgaum","latitude":"15.27N","longitude":"74.17E"}
{"date":"2012-04-01","average_temperature":"28.97","city":"Belgaum","latitude":"15.27N","longitude":"74.17E"}
{"date":"2012-09-01","average_temperature":"14.241","city":"Bellevue","latitude":"47.42N","longitude":"121.97W"}
{"date":"2011-08-01","average_temperature":"28.79","city":"Benha","latitude":"29.74N","longitude":"31.38E"}
{"date":"2011-08-01","average_temperature":"23.877","city":"Benxi","latitude":"40.99N","longitude":"123.55E"}
{"date":"2011-07-01","average_temperature":"26.578000000000003","city":"Beppu","latitude":"32.95N","longitude":"131.17E"}
{"date":"2010-08-01","average_temperature":"24.226999999999997","city":"Bhadravati","latitude":"13.66N","longitude":"75.14E"}
{"date":"2011-03-01","average_temperature":"28.250999999999998","city":"Bhadravati","latitude":"13.66N","longitude":"75.14E"}
{"date":"2012-10-01","average_temperature":"26.723000000000003","city":"Bhagalpur","latitude":"24.92N","longitude":"86.90E"}
{"date":"2011-07-01","average_temperature":"28.347","city":"Bhairab Bazar","latitude":"24.92N","longitude":"90.44E"}
{"date":"2011-05-01","average_temperature":"32.544000000000004","city":"Bharuch","latitude":"21.70N","longitude":"73.56E"}
{"date":"2010-05-01","average_temperature":"35.677","city":"Bhopal","latitude":"23.31N","longitude":"77.77E"}
{"date":"2012-10-01","average_temperature":"9.95","city":"Bielefeld","latitude":"52.24N","longitude":"7.88E"}
{"date":"2012-11-01","average_temperature":"6.2120000000000015","city":"Bielefeld","latitude":"52.24N","longitude":"7.88E"}
{"date":"2011-01-01","average_temperature":"13.651","city":"Bikaner","latitude":"28.13N","longitude":"73.64E"}
{"date":"2012-07-01","average_temperature":"25.967","city":"Biratnagar","latitude":"26.52N","longitude":"87.76E"}
{"date":"2012-05-01","average_temperature":"12.009","city":"Birmingham","latitude":"52.24N","longitude":"2.63W"}
{"date":"2013-02-01","average_temperature":"4.6610000000000005","city":"Blackpool","latitude":"53.84N","longitude":"4.09W"}
{"date":"2011-02-01","average_temperature":"25.37","city":"Blumenau","latitude":"26.52S","longitude":"48.36W"}
{"date":"2012-04-01","average_temperature":"22.881","city":"Blumenau","latitude":"26.52S","longitude":"48.36W"}
{"date":"2013-07-01","average_temperature":"27.3","city":"Bojnurd","latitude":"37.78N","longitude":"56.95E"}
{"date":"2011-07-01","average_temperature":"7.3450000000000015","city":"Boksburg","latitude":"26.52S","longitude":"28.66E"}
{"date":"2013-04-01","average_temperature":"15.075","city":"Boksburg","latitude":"26.52S","longitude":"28.66E"}
{"date":"2010-08-01","average_temperature":"23.423","city":"Boma","latitude":"5.63S","longitude":"12.91E"}
{"date":"2013-08-01","average_temperature":"22.26","city":"Boma","latitude":"5.63S","longitude":"12.91E"}
{"date":"2012-04-01","average_temperature":"11.943","city":"Botosani","latitude":"47.42N","longitude":"27.24E"}
{"date":"2012-04-01","average_temperature":"12.652999999999999","city":"Botshabelo","latitude":"29.74S","longitude":"27.69E"}
{"date":"2012-06-01","average_temperature":"15.717","city":"Boulogne Billancourt","latitude":"49.03N","longitude":"2.45E"}
{"date":"2010-07-01","average_temperature":"28.480999999999998","city":"Bozhou","latitude":"32.95N","longitude":"115.85E"}
{"date":"2012-05-01","average_temperature":"19.079","city":"Braila","latitude":"45.81N","longitude":"28.85E"}
{"date":"2013-09-01","city":"Brasov","latitude":"45.81N","longitude":"26.54E"}
{"date":"2011-03-01","average_temperature":"1.7280000000000002","city":"Brest","latitude":"52.24N","longitude":"23.65E"}
{"date":"2012-02-01","average_temperature":"-8.494","city":"Brest","latitude":"52.24N","longitude":"23.65E"}
{"date":"2013-08-01","average_temperature":"23.18","city":"Buenaventura","latitude":"4.02N","longitude":"76.34W"}
{"date":"2010-04-01","average_temperature":"15.22","city":"Buhe","latitude":"29.74N","longitude":"112.62E"}
{"date":"2010-01-01","average_temperature":"21.569000000000006","city":"Bujumbura","latitude":"4.02S","longitude":"29.73E"}
{"date":"2010-09-01","average_temperature":"24.572","city":"Bukan","latitude":"36.17N","longitude":"45.75E"}
{"date":"2011-07-01","average_temperature":"28.453000000000003","city":"Bukan","latitude":"36.17N","longitude":"45.75E"}
{"date":"2010-07-01","average_temperature":"23.636","city":"Burbank","latitude":"34.56N","longitude":"118.70W"}
{"date":"2012-02-01","average_temperature":"22.314","city":"Burhanpur","latitude":"21.70N","longitude":"77.02E"}
{"date":"2010-05-01","average_temperature":"18.461","city":"Córdoba","latitude":"37.78N","longitude":"4.07W"}
{"date":"2013-06-01","average_temperature":"21.155","city":"Cagliari","latitude":"39.38N","longitude":"8.32E"}
{"date":"2012-09-01","average_temperature":"26.622","city":"Cagua","latitude":"10.45N","longitude":"67.91W"}
{"date":"2011-02-01","average_temperature":"26.04","city":"Cainta","latitude":"15.27N","longitude":"120.83E"}
{"date":"2010-06-01","average_temperature":"21.714","city":"Cairns","latitude":"16.87S","longitude":"145.67E"}
{"date":"2012-08-01","average_temperature":"29.762","city":"Calcutta","latitude":"23.31N","longitude":"88.25E"}
{"date":"2011-05-01","average_temperature":"25.930999999999997","city":"Camaragibe","latitude":"7.23S","longitude":"34.86W"}
{"date":"2012-12-01","average_temperature":"4.849","city":"Cambridge","latitude":"52.24N","longitude":"0.00W"}
{"date":"2011-02-01","average_temperature":"18.832","city":"Canberra","latitude":"36.17S","longitude":"149.17E"}
{"date":"2013-08-01","average_temperature":"13.071","city":"Canoas","latitude":"29.74S","longitude":"51.69W"}
{"date":"2010-05-01","average_temperature":"27.388","city":"Cap Haïtien","latitude":"20.09N","longitude":"71.66W"}
{"date":"2011-12-01","average_temperature":"25.392","city":"Cap Haïtien","latitude":"20.09N","longitude":"71.66W"}
{"date":"2011-01-01","average_temperature":"27.182","city":"Cape Coast","latitude":"5.63N","longitude":"1.61W"}
{"date":"2011-12-01","average_temperature":"26.967","city":"Cape Coast","latitude":"5.63N","longitude":"1.61W"}
{"date":"2010-09-01","average_temperature":"27.528","city":"Carúpano","latitude":"10.45N","longitude":"63.00W"}
{"date":"2010-02-01","average_temperature":"26.105","city":"Caracas","latitude":"10.45N","longitude":"66.27W"}
{"date":"2011-08-01","average_temperature":"28.761999999999997","city":"Carmen","latitude":"18.48N","longitude":"91.27W"}
{"date":"2010-07-01","average_temperature":"26.229","city":"Cartagena","latitude":"37.78N","longitude":"0.00W"}
{"date":"2013-02-01","average_temperature":"4.7120000000000015","city":"Cary","latitude":"36.17N","longitude":"79.56W"}
{"date":"2010-12-01","average_temperature":"25.617","city":"Catamarca","latitude":"28.13S","longitude":"66.36W"}
{"date":"2011-04-01","average_temperature":"25.631999999999998","city":"Catia La Mar","latitude":"10.45N","longitude":"66.27W"}
{"date":"2011-05-01","average_temperature":"20.561","city":"Chalco","latitude":"20.09N","longitude":"98.96W"}
{"date":"2011-11-01","average_temperature":"22.006","city":"Chandausi","latitude":"28.13N","longitude":"79.09E"}
{"date":"2013-08-01","average_temperature":"18.523","city":"Chandigarh","latitude":"31.35N","longitude":"77.28E"}
{"date":"2013-03-01","average_temperature":"4.333","city":"Changji","latitude":"44.20N","longitude":"87.20E"}
{"date":"2010-09-01","average_temperature":"27.418000000000003","city":"Chaozhou","latitude":"23.31N","longitude":"116.21E"}
{"date":"2010-04-01","average_temperature":"27.218000000000004","city":"Charallave","latitude":"10.45N","longitude":"66.27W"}
{"date":"2012-06-01","average_temperature":"15.364999999999998","city":"Charleroi","latitude":"50.63N","longitude":"3.80E"}
{"date":"2010-10-01","average_temperature":"17.299","city":"Charlotte","latitude":"34.56N","longitude":"81.73W"}
{"date":"2012-12-01","average_temperature":"18.570999999999998","city":"Chas","latitude":"23.31N","longitude":"86.50E"}
{"date":"2012-09-01","average_temperature":"14.752","city":"Chemnitz","latitude":"50.63N","longitude":"13.94E"}
{"date":"2012-04-01","average_temperature":"12.47","city":"Chengdu","latitude":"31.35N","longitude":"103.66E"}
{"date":"2010-09-01","average_temperature":"13.452","city":"Chernivtsi","latitude":"49.03N","longitude":"26.94E"}
{"date":"2013-08-01","average_temperature":"25.93","city":"Chhindwara","latitude":"21.70N","longitude":"78.75E"}
{"date":"2013-07-01","average_temperature":"16.793","city":"Chita","latitude":"52.24N","longitude":"112.99E"}
{"date":"2010-05-01","average_temperature":"28.728","city":"Chitradurga","latitude":"13.66N","longitude":"76.79E"}
{"date":"2013-04-01","average_temperature":"29.956000000000003","city":"Chittaurgarh","latitude":"24.92N","longitude":"74.48E"}
{"date":"2011-06-01","average_temperature":"28.234","city":"Chuncheng","latitude":"21.70N","longitude":"111.63E"}
{"date":"2013-08-01","average_temperature":"25.459000000000003","city":"Cianjur","latitude":"7.23S","longitude":"107.84E"}
{"date":"2013-02-01","average_temperature":"25.502","city":"Cicalengka","latitude":"7.23S","longitude":"107.84E"}
{"date":"2011-03-01","average_temperature":"24.114","city":"Ciego De Ávila","latitude":"21.70N","longitude":"78.75W"}
{"date":"2011-06-01","average_temperature":"27.564","city":"Cienfuegos","latitude":"21.70N","longitude":"80.48W"}
{"date":"2013-01-01","average_temperature":"25.076","city":"Cikampek","latitude":"7.23S","longitude":"107.84E"}
{"date":"2011-03-01","average_temperature":"25.11","city":"Cileunyi","latitude":"7.23S","longitude":"107.84E"}
{"date":"2011-07-01","average_temperature":"24.856","city":"Ciparay","latitude":"7.23S","longitude":"107.84E"}
{"date":"2013-06-01","average_temperature":"27.879","city":"Ciputat","latitude":"5.63S","longitude":"106.55E"}
{"date":"2011-12-01","average_temperature":"4.861000000000001","city":"Clermont Ferrand","latitude":"45.81N","longitude":"3.46E"}
{"date":"2013-08-01","average_temperature":"21.813000000000002","city":"Colorado Springs","latitude":"39.38N","longitude":"104.05W"}
{"date":"2010-08-01","average_temperature":"5.598","city":"Comodoro Rivadavia","latitude":"45.81S","longitude":"68.08W"}
{"date":"2013-03-01","average_temperature":"5.315","city":"Constanta","latitude":"44.20N","longitude":"29.07E"}
{"date":"2010-09-01","average_temperature":"13.462","city":"Copenhagen","latitude":"55.45N","longitude":"11.34E"}
{"date":"2011-11-01","average_temperature":"22.369","city":"Coral Springs","latitude":"26.52N","longitude":"80.60W"}
{"date":"2011-08-01","average_temperature":"14.537","city":"Cork","latitude":"52.24N","longitude":"7.88W"}
{"date":"2010-07-01","average_temperature":"29.401999999999997","city":"Coro","latitude":"12.05N","longitude":"69.04W"}
{"date":"2012-10-01","average_temperature":"9.485","city":"Cottbus","latitude":"52.24N","longitude":"13.14E"}
{"date":"2011-04-01","average_temperature":"24.332","city":"Cuernavaca","latitude":"18.48N","longitude":"99.72W"}
{"date":"2012-08-01","average_temperature":"27.243000000000002","city":"Cumaná","latitude":"10.45N","longitude":"64.64W"}
{"date":"2010-08-01","average_temperature":"16.863999999999994","city":"Düsseldorf","latitude":"50.63N","longitude":"6.34E"}
{"date":"2013-03-01","average_temperature":"-0.56","city":"Dabrowa Gornicza","latitude":"50.63N","longitude":"19.01E"}
{"date":"2013-01-01","average_temperature":"15.564","city":"Dadu","latitude":"26.52N","longitude":"68.06E"}
{"date":"2013-08-01","average_temperature":"33.195","city":"Dahuk","latitude":"36.17N","longitude":"43.76E"}
{"date":"2012-11-01","average_temperature":"18.265","city":"Damascus","latitude":"32.95N","longitude":"35.43E"}
{"date":"2010-06-01","average_temperature":"33.175","city":"Damoh","latitude":"23.31N","longitude":"79.51E"}
{"date":"2010-09-01","average_temperature":"19.664","city":"Dandong","latitude":"39.38N","longitude":"124.86E"}
{"date":"2013-02-01","average_temperature":"29.052","city":"Dar Es Salaam","latitude":"7.23S","longitude":"39.73E"}
{"date":"2012-04-01","average_temperature":"27.809","city":"Dasmariñas","latitude":"13.66N","longitude":"121.38E"}
{"date":"2010-05-01","average_temperature":"18.905","city":"Dayton","latitude":"39.38N","longitude":"83.24W"}
{"date":"2011-11-01","average_temperature":"22.484","city":"Delhi","latitude":"28.13N","longitude":"77.27E"}
{"date":"2012-07-01","average_temperature":"25.894","city":"Depok","latitude":"7.23S","longitude":"109.46E"}
{"date":"2012-08-01","average_temperature":"25.895","city":"Depok","latitude":"7.23S","longitude":"109.46E"}
{"date":"2010-08-01","average_temperature":"27.338","city":"Dharmavaram","latitude":"15.27N","longitude":"77.50E"}
{"date":"2012-05-01","average_temperature":"34.955","city":"Dhaulpur","latitude":"26.52N","longitude":"77.01E"}
{"date":"2012-09-01","average_temperature":"20.464000000000002","city":"Diadema","latitude":"23.31S","longitude":"46.31W"}
{"date":"2012-02-01","average_temperature":"-6.472","city":"Dingzhou","latitude":"39.38N","longitude":"114.45E"}
{"date":"2012-04-01","average_temperature":"9.632","city":"Dongling","latitude":"40.99N","longitude":"123.55E"}
{"date":"2012-09-01","average_temperature":"24.916","city":"Dourados","latitude":"21.70S","longitude":"54.52W"}
{"date":"2013-08-01","average_temperature":"29.539","city":"Dum Dum","latitude":"23.31N","longitude":"88.25E"}
{"date":"2010-03-01","average_temperature":"27.396","city":"Duque De Caxias","latitude":"23.31S","longitude":"42.82W"}
{"date":"2010-10-01","average_temperature":"25.99","city":"Durg","latitude":"21.70N","longitude":"80.48E"}
{"date":"2012-04-01","average_temperature":"30.581","city":"Durgapur","latitude":"23.31N","longitude":"86.50E"}
{"date":"2011-07-01","average_temperature":"24.754","city":"Durrës","latitude":"40.99N","longitude":"19.17E"}
{"date":"2012-05-01","average_temperature":"19.717","city":"Ecatepec","latitude":"20.09N","longitude":"98.96W"}
{"date":"2012-10-01","average_temperature":"16.844","city":"Ecatepec","latitude":"20.09N","longitude":"98.96W"}
{"date":"2013-01-01","average_temperature":"28.136","city":"Ede","latitude":"7.23N","longitude":"4.05E"}
{"date":"2010-11-01","average_temperature":"23.321","city":"Ejido","latitude":"8.84N","longitude":"70.54W"}
{"date":"2010-06-01","average_temperature":"20.775","city":"Ekibastuz","latitude":"52.24N","longitude":"76.20E"}
{"date":"2010-07-01","average_temperature":"24.789","city":"Elizabeth","latitude":"40.99N","longitude":"74.56W"}
{"date":"2011-12-01","average_temperature":"16.093","city":"Encheng","latitude":"21.70N","longitude":"111.63E"}
{"date":"2011-02-01","average_temperature":"24.676","city":"Esmeraldas","latitude":"20.09S","longitude":"44.36W"}
{"date":"2011-01-01","average_temperature":"13.636","city":"Etah","latitude":"28.13N","longitude":"79.09E"}
{"date":"2012-02-01","average_temperature":"17.867","city":"Etawah","latitude":"26.52N","longitude":"78.81E"}
{"date":"2011-10-01","average_temperature":"28.154","city":"Faridpur","latitude":"23.31N","longitude":"90.00E"}
{"date":"2010-09-01","average_temperature":"23.951","city":"Fez","latitude":"34.56N","longitude":"5.84W"}
{"date":"2012-06-01","average_temperature":"23.654","city":"Fez","latitude":"34.56N","longitude":"5.84W"}
{"date":"2012-08-01","average_temperature":"26.581999999999997","city":"Fez","latitude":"34.56N","longitude":"5.84W"}
{"date":"2013-05-01","average_temperature":"20.137","city":"Fianarantsoa","latitude":"21.70S","longitude":"47.60E"}
{"date":"2012-12-01","average_temperature":"7.8519999999999985","city":"Fontana","latitude":"34.56N","longitude":"116.76W"}
{"date":"2012-05-01","average_temperature":"14.042","city":"Fort Collins","latitude":"40.99N","longitude":"104.38W"}
{"date":"2010-02-01","average_temperature":"28.531999999999996","city":"Fortaleza","latitude":"4.02S","longitude":"40.98W"}
{"date":"2010-10-01","average_temperature":"23.156","city":"Foshan","latitude":"23.31N","longitude":"112.72E"}
{"date":"2012-01-01","average_temperature":"26.923000000000002","city":"Freetown","latitude":"8.84N","longitude":"13.78W"}
{"date":"2010-06-01","average_temperature":"18.203","city":"Fuenlabrada","latitude":"40.99N","longitude":"4.26W"}
{"date":"2010-02-01","average_temperature":"3.306","city":"Fujisawa","latitude":"36.17N","longitude":"139.23E"}
{"date":"2011-08-01","average_temperature":"25.201999999999998","city":"Fukaya","latitude":"36.17N","longitude":"139.23E"}
{"date":"2011-02-01","average_temperature":"5.939","city":"Fukuyama","latitude":"34.56N","longitude":"134.27E"}
{"date":"2010-08-01","average_temperature":"16.269000000000002","city":"Göteborg","latitude":"58.66N","longitude":"12.31E"}
{"date":"2011-10-01","average_temperature":"25.91","city":"Gadag","latitude":"15.27N","longitude":"75.83E"}
{"date":"2013-01-01","average_temperature":"24.761999999999997","city":"Gandajika","latitude":"7.23S","longitude":"23.51E"}
{"date":"2013-07-01","average_temperature":"28.49","city":"Garland","latitude":"32.95N","longitude":"96.70W"}
{"date":"2010-05-01","average_temperature":"18.874000000000002","city":"Gaziantep","latitude":"37.78N","longitude":"36.61E"}
{"date":"2012-01-01","average_temperature":"18.549","city":"Gazipur","latitude":"23.31N","longitude":"90.00E"}
{"date":"2010-11-01","average_temperature":"5.5619999999999985","city":"Gazni","latitude":"32.95N","longitude":"67.98E"}
{"date":"2010-06-01","average_temperature":"8.767999999999999","city":"Geelong","latitude":"37.78S","longitude":"144.41E"}
{"date":"2011-11-01","average_temperature":"17.179000000000002","city":"Geelong","latitude":"37.78S","longitude":"144.41E"}
{"date":"2010-12-01","average_temperature":"-0.778","city":"Gent","latitude":"50.63N","longitude":"3.80E"}
{"date":"2010-05-01","average_temperature":"17.887999999999995","city":"George","latitude":"34.56S","longitude":"23.35E"}
{"date":"2012-10-01","average_temperature":"14.592","city":"George","latitude":"34.56S","longitude":"23.35E"}
{"date":"2012-10-01","average_temperature":"3.47","city":"Glazov","latitude":"58.66N","longitude":"52.31E"}
{"date":"2011-10-01","average_temperature":"23.299","city":"Glendale","latitude":"32.95N","longitude":"112.02W"}
{"date":"2013-04-01","average_temperature":"27.055999999999997","city":"Gojra","latitude":"31.35N","longitude":"73.51E"}
{"date":"2010-01-01","average_temperature":"24.502","city":"Gold Coast","latitude":"28.13S","longitude":"153.64E"}
{"date":"2012-07-01","average_temperature":"19.692999999999998","city":"Goma","latitude":"2.41S","longitude":"29.73E"}
{"date":"2012-05-01","average_temperature":"16.562","city":"Gomel","latitude":"52.24N","longitude":"31.53E"}
{"date":"2010-08-01","average_temperature":"17.719","city":"Gondar","latitude":"12.05N","longitude":"37.81E"}
{"date":"2011-10-01","average_temperature":"16.878","city":"Gorgan","latitude":"36.17N","longitude":"53.70E"}
{"date":"2013-02-01","average_temperature":"1.722","city":"Groningen","latitude":"53.84N","longitude":"6.82E"}
{"date":"2010-09-01","average_temperature":"26.944000000000003","city":"Guacara","latitude":"10.45N","longitude":"67.91W"}
{"date":"2012-05-01","average_temperature":"26.934","city":"Guacara","latitude":"10.45N","longitude":"67.91W"}
{"date":"2011-07-01","average_temperature":"28.902","city":"Guangzhou","latitude":"23.31N","longitude":"112.72E"}
{"date":"2011-06-01","average_temperature":"21.175","city":"Guatemala City","latitude":"15.27N","longitude":"90.83W"}
{"date":"2013-09-01","average_temperature":"30.885","city":"Guaymas","latitude":"28.13N","longitude":"110.00W"}
{"date":"2013-06-01","average_temperature":"32.814","city":"Gujranwala","latitude":"32.95N","longitude":"73.72E"}
{"date":"2010-04-01","average_temperature":"25.946","city":"Gulu","latitude":"2.41N","longitude":"32.95E"}
{"date":"2011-02-01","average_temperature":"27.319000000000003","city":"Gulu","latitude":"2.41N","longitude":"32.95E"}
{"date":"2013-09-01","city":"Gulu","latitude":"2.41N","longitude":"32.95E"}
{"date":"2010-08-01","average_temperature":"30.031","city":"Gurgaon","latitude":"28.13N","longitude":"77.27E"}
{"date":"2013-04-01","average_temperature":"29.304000000000002","city":"Gurgaon","latitude":"28.13N","longitude":"77.27E"}
{"date":"2013-05-01","average_temperature":"16.237000000000002","city":"Gyor","latitude":"47.42N","longitude":"17.76E"}
{"date":"2010-02-01","average_temperature":"18.625","city":"Ha Noi","latitude":"21.70N","longitude":"106.44E"}
{"date":"2010-10-01","average_temperature":"13.745999999999999","city":"Hachinohe","latitude":"40.99N","longitude":"140.59E"}
{"date":"2013-07-01","average_temperature":"21.673","city":"Hachinohe","latitude":"40.99N","longitude":"140.59E"}
{"date":"2011-11-01","average_temperature":"21.799","city":"Hafizabad","latitude":"31.35N","longitude":"73.51E"}
{"date":"2011-04-01","average_temperature":"12.511","city":"Hagen","latitude":"52.24N","longitude":"7.88E"}
{"date":"2010-03-01","average_temperature":"0.08499999999999996","city":"Hami","latitude":"42.59N","longitude":"93.82E"}
{"date":"2012-01-01","average_temperature":"-14.39","city":"Hami","latitude":"42.59N","longitude":"93.82E"}
{"date":"2011-04-01","average_temperature":"16.875999999999998","city":"Hampton","latitude":"36.17N","longitude":"75.58W"}
{"date":"2013-01-01","average_temperature":"4.079","city":"Hangzhou","latitude":"29.74N","longitude":"120.00E"}
{"date":"2012-12-01","average_temperature":"14.65","city":"Hanumangarh","latitude":"29.74N","longitude":"73.85E"}
{"date":"2013-03-01","average_temperature":"21.868000000000002","city":"Hanumangarh","latitude":"29.74N","longitude":"73.85E"}
{"date":"2011-12-01","average_temperature":"22.857","city":"Harare","latitude":"18.48S","longitude":"30.42E"}
{"date":"2013-06-01","average_temperature":"22.536","city":"Hebi","latitude":"36.17N","longitude":"113.37E"}
{"date":"2011-02-01","average_temperature":"5.75","city":"Hefei","latitude":"31.35N","longitude":"116.86E"}
{"date":"2011-09-01","average_temperature":"24.993","city":"Hindupur","latitude":"13.66N","longitude":"76.79E"}
{"date":"2012-12-01","average_temperature":"5.5","city":"Hiroshima","latitude":"34.56N","longitude":"132.32E"}
{"date":"2011-09-01","average_temperature":"27.995","city":"Ho Chi Minh City","latitude":"10.45N","longitude":"107.18E"}
{"date":"2012-12-01","average_temperature":"14.398","city":"Hobart","latitude":"42.59S","longitude":"148.36E"}
{"date":"2010-01-01","average_temperature":"-18.555","city":"Honggang","latitude":"45.81N","longitude":"125.77E"}
{"date":"2010-01-01","average_temperature":"5.421","city":"Honghu","latitude":"29.74N","longitude":"112.62E"}
{"date":"2010-01-01","average_temperature":"24.112","city":"Hortolândia","latitude":"23.31S","longitude":"48.06W"}
{"date":"2012-10-01","average_temperature":"7.154","city":"Hrodna","latitude":"53.84N","longitude":"23.18E"}
{"date":"2012-04-01","average_temperature":"21.638","city":"Hsinchu","latitude":"24.92N","longitude":"120.59E"}
{"date":"2011-03-01","average_temperature":"16.698","city":"Hsintien","latitude":"24.92N","longitude":"122.36E"}
{"date":"2013-06-01","average_temperature":"27.351","city":"Hsintien","latitude":"24.92N","longitude":"122.36E"}
{"date":"2010-09-01","average_temperature":"15.073","city":"Huadian","latitude":"42.59N","longitude":"126.55E"}
{"date":"2013-07-01","average_temperature":"29.445","city":"Huaibei","latitude":"34.56N","longitude":"116.76E"}
{"date":"2010-07-01","average_temperature":"17.668","city":"Huixquilucan","latitude":"20.09N","longitude":"98.96W"}
{"date":"2013-08-01","average_temperature":"28.498","city":"Huizhou","latitude":"23.31N","longitude":"114.47E"}
{"date":"2011-02-01","average_temperature":"28.828000000000003","city":"Ibadan","latitude":"7.23N","longitude":"4.05E"}
{"date":"2011-01-01","average_temperature":"20.599","city":"Ibagué","latitude":"4.02N","longitude":"74.73W"}
{"date":"2011-05-01","average_temperature":"18.11","city":"Ibaraki","latitude":"34.56N","longitude":"136.22E"}
{"date":"2010-12-01","average_temperature":"23.813","city":"Ibirité","latitude":"20.09S","longitude":"44.36W"}
{"date":"2011-12-01","average_temperature":"3.25","city":"Ichikawa","latitude":"36.17N","longitude":"139.23E"}
{"date":"2011-03-01","average_temperature":"30.609","city":"Igboho","latitude":"8.84N","longitude":"4.05E"}
{"date":"2010-03-01","average_temperature":"26.659000000000002","city":"Ilhéus","latitude":"15.27S","longitude":"39.17W"}
{"date":"2011-05-01","average_temperature":"23.739","city":"Ilhéus","latitude":"15.27S","longitude":"39.17W"}
{"date":"2010-03-01","average_temperature":"29.925","city":"Ilobu","latitude":"7.23N","longitude":"4.05E"}
{"date":"2010-12-01","average_temperature":"27.316999999999997","city":"Iloilo","latitude":"10.45N","longitude":"121.91E"}
{"date":"2011-03-01","average_temperature":"7.286","city":"Imabari","latitude":"34.56N","longitude":"132.32E"}
{"date":"2011-09-01","average_temperature":"29.666999999999998","city":"Imperatriz","latitude":"5.63S","longitude":"46.82W"}
{"date":"2012-06-01","average_temperature":"27.523000000000003","city":"Indramayu","latitude":"5.63S","longitude":"108.16E"}
{"date":"2013-05-01","average_temperature":"13.231","city":"Ishinomaki","latitude":"39.38N","longitude":"141.50E"}
{"date":"2013-08-01","average_temperature":"23.141","city":"Isiro","latitude":"2.41N","longitude":"28.13E"}
{"date":"2010-07-01","average_temperature":"27.773000000000003","city":"Iskenderun","latitude":"36.17N","longitude":"35.80E"}
{"date":"2012-06-01","average_temperature":"21.989","city":"Itaguaí","latitude":"23.31S","longitude":"44.56W"}
{"date":"2013-04-01","average_temperature":"20.48","city":"Itapevi","latitude":"23.31S","longitude":"46.31W"}
{"date":"2010-08-01","average_temperature":"17.996","city":"Ixtapaluca","latitude":"20.09N","longitude":"98.96W"}
{"date":"2011-03-01","average_temperature":"27.675","city":"Jaboatão","latitude":"8.84S","longitude":"34.86W"}
{"date":"2012-11-01","average_temperature":"22.115","city":"Jamalpur","latitude":"24.92N","longitude":"86.90E"}
{"date":"2012-10-01","average_temperature":"23.186999999999998","city":"Jaramana","latitude":"32.95N","longitude":"35.43E"}
{"date":"2011-04-01","average_temperature":"26.235","city":"Jaranwala","latitude":"31.35N","longitude":"73.51E"}
{"date":"2012-05-01","average_temperature":"22.691","city":"Jequié","latitude":"13.66S","longitude":"40.46W"}
{"date":"2012-07-01","average_temperature":"24.479","city":"Jersey City","latitude":"40.99N","longitude":"74.56W"}
{"date":"2010-11-01","average_temperature":"20.653000000000002","city":"Jerusalem","latitude":"31.35N","longitude":"35.81E"}
{"date":"2013-07-01","average_temperature":"27.848000000000006","city":"Jhansi","latitude":"24.92N","longitude":"78.03E"}
{"date":"2011-05-01","average_temperature":"32.27","city":"Jhelum","latitude":"32.95N","longitude":"73.72E"}
{"date":"2012-03-01","average_temperature":"23.653000000000002","city":"Jhunjhunun","latitude":"28.13N","longitude":"75.45E"}
{"date":"2010-04-01","average_temperature":"19.663","city":"Jiangmen","latitude":"23.31N","longitude":"112.72E"}
{"date":"2013-03-01","average_temperature":"19.945999999999998","city":"Jiangmen","latitude":"23.31N","longitude":"112.72E"}
{"date":"2010-01-01","average_temperature":"8.116999999999999","city":"Jiaojiang","latitude":"28.13N","longitude":"120.91E"}
{"date":"2010-11-01","average_temperature":"12.895999999999999","city":"Jishou","latitude":"28.13N","longitude":"110.00E"}
{"date":"2011-08-01","average_temperature":"23.243000000000002","city":"Jiutai","latitude":"44.20N","longitude":"125.22E"}
{"date":"2010-10-01","average_temperature":"27.388","city":"Jolo","latitude":"5.63N","longitude":"119.46E"}
{"date":"2010-01-01","average_temperature":"24.066","city":"Jos","latitude":"10.45N","longitude":"9.00E"}
{"date":"2013-01-01","average_temperature":"28.105999999999998","city":"Juba","latitude":"4.02N","longitude":"31.34E"}
{"date":"2010-02-01","average_temperature":"8.235","city":"Kaili","latitude":"26.52N","longitude":"107.46E"}
{"date":"2012-02-01","average_temperature":"11.960999999999999","city":"Kaiyuan","latitude":"23.31N","longitude":"103.98E"}
{"date":"2012-03-01","average_temperature":"7.7829999999999995","city":"Kakogawa","latitude":"34.56N","longitude":"134.27E"}
{"date":"2012-07-01","average_temperature":"21.414","city":"Kalemie","latitude":"5.63S","longitude":"29.06E"}
{"date":"2011-12-01","average_temperature":"6.303999999999999","city":"Kaliningrad","latitude":"55.45N","longitude":"19.84E"}
{"date":"2011-05-01","average_temperature":"18.884","city":"Kallithéa","latitude":"37.78N","longitude":"24.41E"}
{"date":"2013-06-01","average_temperature":"28.048000000000002","city":"Kaohsiung","latitude":"23.31N","longitude":"119.71E"}
{"date":"2013-02-01","average_temperature":"27.804000000000002","city":"Kaolack","latitude":"13.66N","longitude":"15.69W"}
{"date":"2010-08-01","average_temperature":"30.043000000000003","city":"Karachi","latitude":"24.92N","longitude":"67.39E"}
{"date":"2012-11-01","average_temperature":"11.261","city":"Karaj","latitude":"36.17N","longitude":"51.71E"}
{"date":"2012-03-01","average_temperature":"26.842","city":"Karang Tengah","latitude":"7.23S","longitude":"106.22E"}
{"date":"2013-02-01","average_temperature":"-0.2230000000000001","city":"Karlsruhe","latitude":"49.03N","longitude":"7.35E"}
{"date":"2012-09-01","average_temperature":"24.428","city":"Kashan","latitude":"34.56N","longitude":"50.59E"}
{"date":"2012-12-01","average_temperature":"24.081999999999997","city":"Katsina","latitude":"13.66N","longitude":"7.43E"}
{"date":"2012-02-01","average_temperature":"4.3420000000000005","city":"Kawanishi","latitude":"34.56N","longitude":"136.22E"}
{"date":"2010-03-01","average_temperature":"6.374","city":"Kayseri","latitude":"39.38N","longitude":"35.38E"}
{"date":"2011-03-01","average_temperature":"16.698","city":"Keelung","latitude":"24.92N","longitude":"122.36E"}
{"date":"2012-02-01","average_temperature":"-4.0120000000000005","city":"Kelowna","latitude":"49.03N","longitude":"120.00W"}
{"date":"2010-10-01","average_temperature":"25.881","city":"Kemang","latitude":"7.23S","longitude":"106.22E"}
{"date":"2012-12-01","average_temperature":"12.005999999999998","city":"Kenitra","latitude":"34.56N","longitude":"5.84W"}
{"date":"2011-01-01","average_temperature":"0.202","city":"Kerch","latitude":"45.81N","longitude":"35.77E"}
{"date":"2010-10-01","average_temperature":"7.166","city":"Kherson","latitude":"47.42N","longitude":"31.97E"}
{"date":"2010-12-01","average_temperature":"-0.8759999999999999","city":"Kherson","latitude":"47.42N","longitude":"31.97E"}
{"date":"2012-12-01","average_temperature":"-2.847","city":"Kherson","latitude":"47.42N","longitude":"31.97E"}
{"date":"2011-01-01","average_temperature":"13.600999999999999","city":"Khorramshahr","latitude":"29.74N","longitude":"48.00E"}
{"date":"2013-07-01","average_temperature":"24.465","city":"Khujand","latitude":"40.99N","longitude":"70.30E"}
{"date":"2010-05-01","average_temperature":"29.816","city":"Khulna","latitude":"23.31N","longitude":"90.00E"}
{"date":"2011-05-01","average_temperature":"28.569000000000003","city":"Khulna","latitude":"23.31N","longitude":"90.00E"}
{"date":"2011-09-01","average_temperature":"15.489","city":"Kielce","latitude":"50.63N","longitude":"21.55E"}
{"date":"2012-02-01","average_temperature":"20.003","city":"Kigali","latitude":"2.41S","longitude":"29.73E"}
{"date":"2013-08-01","average_temperature":"29.33","city":"Killeen","latitude":"31.35N","longitude":"98.01W"}
{"date":"2013-05-01","average_temperature":"14.369000000000002","city":"Kimberley","latitude":"28.13S","longitude":"24.55E"}
{"date":"2011-01-01","average_temperature":"23.142","city":"Kindu","latitude":"2.41S","longitude":"26.52E"}
{"date":"2010-09-01","average_temperature":"13.618","city":"Kingston Upon Hull","latitude":"53.84N","longitude":"1.36W"}
{"date":"2012-08-01","average_temperature":"21.084","city":"Kirovohrad","latitude":"49.03N","longitude":"31.84E"}
{"date":"2012-07-01","average_temperature":"20.680999999999997","city":"Kislovodsk","latitude":"44.20N","longitude":"42.48E"}
{"date":"2010-09-01","average_temperature":"26.837","city":"Kluang","latitude":"2.41N","longitude":"103.66E"}
{"date":"2010-07-01","average_temperature":"24.816999999999997","city":"Koidu","latitude":"8.84N","longitude":"10.54W"}
{"date":"2011-06-01","average_temperature":"22.819000000000003","city":"Komaki","latitude":"34.56N","longitude":"136.22E"}
{"date":"2013-07-01","average_temperature":"20.023","city":"Komsomolsk Na Amure","latitude":"50.63N","longitude":"138.17E"}
{"date":"2010-10-01","average_temperature":"26.164","city":"Korba","latitude":"21.70N","longitude":"82.21E"}
{"date":"2011-12-01","average_temperature":"3.25","city":"Koshigaya","latitude":"36.17N","longitude":"139.23E"}
{"date":"2012-08-01","average_temperature":"27.648000000000003","city":"Kota","latitude":"24.92N","longitude":"76.26E"}
{"date":"2011-09-01","average_temperature":"19.963","city":"Kragujevac","latitude":"44.20N","longitude":"20.12E"}
{"date":"2013-05-01","average_temperature":"20.589000000000002","city":"Krasnodar","latitude":"45.81N","longitude":"38.08E"}
{"date":"2013-05-01","average_temperature":"6.011","city":"Krasnoyarsk","latitude":"55.45N","longitude":"93.54E"}
{"date":"2011-07-01","average_temperature":"24.315","city":"Kryvyy Rih","latitude":"47.42N","longitude":"34.34E"}
{"date":"2011-07-01","average_temperature":"28.721999999999998","city":"Kulti","latitude":"23.31N","longitude":"86.50E"}
{"date":"2010-03-01","average_temperature":"30.033","city":"Kumbakonam","latitude":"10.45N","longitude":"79.36E"}
{"date":"2013-01-01","average_temperature":"3.227","city":"Kurume","latitude":"32.95N","longitude":"131.17E"}
{"date":"2013-05-01","average_temperature":"14.02","city":"Kuytun","latitude":"44.20N","longitude":"84.97E"}
{"date":"2011-08-01","average_temperature":"30.096","city":"Lafayette","latitude":"29.74N","longitude":"92.31W"}
{"date":"2013-03-01","average_temperature":"2.4019999999999997","city":"Lakewood","latitude":"39.38N","longitude":"104.05W"}
{"date":"2013-02-01","average_temperature":"19.228","city":"Lalitpur","latitude":"24.92N","longitude":"78.03E"}
{"date":"2013-03-01","average_temperature":"28.986","city":"Latur","latitude":"18.48N","longitude":"76.06E"}
{"date":"2012-04-01","average_temperature":"8.583","city":"Lausanne","latitude":"45.81N","longitude":"5.77E"}
{"date":"2011-09-01","average_temperature":"18.494","city":"León","latitude":"42.59N","longitude":"6.55W"}
{"date":"2012-10-01","average_temperature":"12.316999999999998","city":"León","latitude":"42.59N","longitude":"6.55W"}
{"date":"2010-04-01","average_temperature":"2.039","city":"Leninsk Kuznetskiy","latitude":"53.84N","longitude":"85.91E"}
{"date":"2011-07-01","average_temperature":"26.088","city":"Leuwiliang","latitude":"7.23S","longitude":"106.22E"}
{"date":"2012-01-01","average_temperature":"11.938","city":"Liancheng","latitude":"21.70N","longitude":"109.90E"}
{"date":"2012-03-01","average_temperature":"24.462","city":"Limeira","latitude":"21.70S","longitude":"47.60W"}
{"date":"2011-09-01","average_temperature":"17.621000000000006","city":"Limoges","latitude":"45.81N","longitude":"1.15E"}
{"date":"2013-04-01","average_temperature":"9.687000000000001","city":"Limoges","latitude":"45.81N","longitude":"1.15E"}
{"date":"2013-04-01","average_temperature":"17.261000000000006","city":"Linchuan","latitude":"28.13N","longitude":"115.45E"}
{"date":"2010-03-01","average_temperature":"11.472000000000001","city":"Linhai","latitude":"28.13N","longitude":"120.91E"}
{"date":"2010-04-01","average_temperature":"28.113000000000003","city":"Lipa","latitude":"13.66N","longitude":"121.38E"}
{"date":"2012-12-01","average_temperature":"-7.667999999999999","city":"Lipetsk","latitude":"52.24N","longitude":"39.42E"}
{"date":"2011-09-01","average_temperature":"22.269000000000002","city":"Little Rock","latitude":"34.56N","longitude":"91.46W"}
{"date":"2013-03-01","average_temperature":"19.302","city":"Liusha","latitude":"23.31N","longitude":"116.21E"}
{"date":"2012-10-01","average_temperature":"10.302","city":"Liverpool","latitude":"53.84N","longitude":"4.09W"}
{"date":"2011-05-01","average_temperature":"20.602","city":"Livingstone","latitude":"18.48S","longitude":"25.35E"}
{"date":"2011-08-01","average_temperature":"21.78","city":"Ljubljana","latitude":"45.81N","longitude":"15.00E"}
{"date":"2010-07-01","average_temperature":"22.221999999999998","city":"London","latitude":"42.59N","longitude":"80.73W"}
{"date":"2010-11-01","average_temperature":"5.4","city":"London","latitude":"42.59N","longitude":"80.73W"}
{"date":"2011-01-01","average_temperature":"-22.029","city":"Longfeng","latitude":"45.81N","longitude":"125.77E"}
{"date":"2011-07-01","average_temperature":"28.056","city":"Longyan","latitude":"24.92N","longitude":"117.04E"}
{"date":"2010-04-01","average_temperature":"12.283","city":"Los Angeles","latitude":"34.56N","longitude":"118.70W"}
{"date":"2013-02-01","average_temperature":"7.7589999999999995","city":"Loudi","latitude":"28.13N","longitude":"111.82E"}
{"date":"2011-01-01","average_temperature":"0.06400000000000006","city":"Luan","latitude":"31.35N","longitude":"116.86E"}
{"date":"2012-06-01","average_temperature":"24.526","city":"Luancheng","latitude":"37.78N","longitude":"113.90E"}
{"date":"2013-09-01","city":"Luancheng","latitude":"37.78N","longitude":"113.90E"}
{"date":"2013-04-01","average_temperature":"9.181","city":"Lublin","latitude":"50.63N","longitude":"21.55E"}
{"date":"2010-08-01","average_temperature":"27.627","city":"Lucena","latitude":"13.66N","longitude":"121.38E"}
{"date":"2011-01-01","average_temperature":"12.314","city":"Luchou","latitude":"24.92N","longitude":"120.59E"}
{"date":"2011-12-01","average_temperature":"13.511","city":"Luoyang","latitude":"23.31N","longitude":"114.47E"}
{"date":"2011-07-01","average_temperature":"27.458000000000002","city":"Luoyang","latitude":"34.56N","longitude":"112.86E"}
{"date":"2011-12-01","average_temperature":"14.395999999999999","city":"Luxor","latitude":"26.52N","longitude":"32.24E"}
{"date":"2012-01-01","average_temperature":"3.466","city":"Mönchengladbach","latitude":"50.63N","longitude":"6.34E"}
{"date":"2013-06-01","average_temperature":"15.589","city":"Mülheim","latitude":"50.63N","longitude":"6.34E"}
{"date":"2011-11-01","average_temperature":"27.973000000000006","city":"Mahajanga","latitude":"15.27S","longitude":"45.83E"}
{"date":"2010-10-01","average_temperature":"28.961","city":"Mahesana","latitude":"23.31N","longitude":"72.52E"}
{"date":"2011-09-01","average_temperature":"27.599","city":"Mahesana","latitude":"23.31N","longitude":"72.52E"}
{"date":"2012-06-01","average_temperature":"15.261","city":"Mainz","latitude":"50.63N","longitude":"8.87E"}
{"date":"2012-04-01","average_temperature":"27.166999999999998","city":"Makasar","latitude":"5.63S","longitude":"119.46E"}
{"date":"2011-02-01","average_temperature":"-0.523","city":"Makhachkala","latitude":"42.59N","longitude":"48.00E"}
{"date":"2013-09-01","city":"Makhachkala","latitude":"42.59N","longitude":"48.00E"}
{"date":"2010-02-01","average_temperature":"27.783","city":"Malabo","latitude":"4.02N","longitude":"8.84E"}
{"date":"2010-10-01","average_temperature":"9.546","city":"Manchester","latitude":"53.84N","longitude":"1.36W"}
{"date":"2012-03-01","average_temperature":"24.941","city":"Mandsaur","latitude":"24.92N","longitude":"74.48E"}
{"date":"2011-05-01","average_temperature":"28.025","city":"Mandya","latitude":"12.05N","longitude":"77.26E"}
{"date":"2011-08-01","average_temperature":"26.794","city":"Manila","latitude":"15.27N","longitude":"120.83E"}
{"date":"2012-12-01","average_temperature":"17.805999999999997","city":"Maoming","latitude":"21.70N","longitude":"111.63E"}
{"date":"2010-02-01","average_temperature":"28.973000000000006","city":"Maracaibo","latitude":"10.45N","longitude":"71.18W"}
{"date":"2013-04-01","average_temperature":"26.825","city":"Maracay","latitude":"10.45N","longitude":"67.91W"}
{"date":"2010-06-01","average_temperature":"22.678","city":"Marand","latitude":"39.38N","longitude":"45.78E"}
{"date":"2011-03-01","average_temperature":"25.68","city":"Mariara","latitude":"10.45N","longitude":"67.91W"}
{"date":"2012-03-01","average_temperature":"30.791","city":"Maroua","latitude":"10.45N","longitude":"13.91E"}
{"date":"2012-02-01","average_temperature":"26.434","city":"Masaya","latitude":"12.05N","longitude":"85.48W"}
{"date":"2010-07-01","average_temperature":"22.840999999999998","city":"Matadi","latitude":"5.63S","longitude":"12.91E"}
{"date":"2011-01-01","average_temperature":"25.464000000000002","city":"Matadi","latitude":"5.63S","longitude":"12.91E"}
{"date":"2013-05-01","average_temperature":"27.775","city":"Maturín","latitude":"10.45N","longitude":"63.00W"}
{"date":"2010-04-01","average_temperature":"25.929","city":"Mbouda","latitude":"5.63N","longitude":"9.69E"}
{"date":"2013-09-01","city":"Mendoza","latitude":"32.95S","longitude":"67.98W"}
{"date":"2013-01-01","average_temperature":"10.537999999999998","city":"Mersin","latitude":"36.17N","longitude":"33.81E"}
{"date":"2013-03-01","average_temperature":"17.808","city":"Mexicali","latitude":"32.95N","longitude":"115.85W"}
{"date":"2010-01-01","average_temperature":"11.607000000000001","city":"Mexico","latitude":"20.09N","longitude":"98.96W"}
{"date":"2010-01-01","average_temperature":"4.925999999999998","city":"Miandoab","latitude":"36.17N","longitude":"45.75E"}
{"date":"2011-12-01","average_temperature":"19.751","city":"Middelburg","latitude":"26.52S","longitude":"28.66E"}
{"date":"2011-09-01","average_temperature":"14.505","city":"Middlesbrough","latitude":"53.84N","longitude":"1.36W"}
{"date":"2013-09-01","city":"Minsk","latitude":"53.84N","longitude":"28.64E"}
{"date":"2010-02-01","average_temperature":"6.559000000000001","city":"Mobile","latitude":"31.35N","longitude":"88.59W"}
{"date":"2012-05-01","average_temperature":"27.061999999999998","city":"Modakeke","latitude":"7.23N","longitude":"4.05E"}
{"date":"2012-06-01","average_temperature":"27.958","city":"Mokolo","latitude":"10.45N","longitude":"13.91E"}
{"date":"2013-01-01","average_temperature":"24.388","city":"Montes Claros","latitude":"16.87S","longitude":"43.53W"}
{"date":"2011-12-01","average_temperature":"21.397","city":"Montevideo","latitude":"34.56S","longitude":"56.43W"}
{"date":"2010-10-01","average_temperature":"18.328","city":"Montgomery","latitude":"32.95N","longitude":"87.13W"}
{"date":"2013-02-01","average_temperature":"-7.957999999999999","city":"Montreal","latitude":"45.81N","longitude":"72.69W"}
{"date":"2010-09-01","average_temperature":"26.796999999999997","city":"Monywa","latitude":"21.70N","longitude":"94.33E"}
{"date":"2010-01-01","average_temperature":"-2.072","city":"Monza","latitude":"45.81N","longitude":"10.38E"}
{"date":"2010-10-01","average_temperature":"25.971","city":"Mormugao","latitude":"15.27N","longitude":"74.17E"}
{"date":"2010-08-01","average_temperature":"26.974","city":"Murwara","latitude":"23.31N","longitude":"81.26E"}
{"date":"2013-06-01","average_temperature":"18.258","city":"Nîmes","latitude":"44.20N","longitude":"4.47E"}
{"date":"2010-07-01","average_temperature":"29.428","city":"Nadiad","latitude":"23.31N","longitude":"72.52E"}
{"date":"2010-04-01","average_temperature":"28.624000000000002","city":"Naga","latitude":"13.66N","longitude":"123.03E"}
{"date":"2013-07-01","average_temperature":"27.965999999999998","city":"Naga","latitude":"13.66N","longitude":"123.03E"}
{"date":"2010-05-01","average_temperature":"35.86400000000001","city":"Nagpur","latitude":"21.70N","longitude":"78.75E"}
{"date":"2010-09-01","average_temperature":"29.776","city":"Najran","latitude":"16.87N","longitude":"43.53E"}
{"date":"2012-06-01","average_temperature":"29.14","city":"Nakhon Ratchasima","latitude":"15.27N","longitude":"102.50E"}
{"date":"2010-02-01","average_temperature":"27.951","city":"Nakhon Si Thammarat","latitude":"8.84N","longitude":"99.73E"}
{"date":"2011-09-01","average_temperature":"27.583","city":"Nakhon Si Thammarat","latitude":"8.84N","longitude":"99.73E"}
{"date":"2012-06-01","average_temperature":"15.737","city":"Nakuru","latitude":"0.80S","longitude":"36.16E"}
{"date":"2011-04-01","average_temperature":"30.539","city":"Nalgonda","latitude":"16.87N","longitude":"78.70E"}
{"date":"2010-04-01","average_temperature":"26.129","city":"Nampula","latitude":"15.27S","longitude":"39.17E"}
{"date":"2011-07-01","average_temperature":"30.22","city":"Nanchang","latitude":"28.13N","longitude":"115.45E"}
{"date":"2010-12-01","average_temperature":"1.6660000000000004","city":"Nantes","latitude":"47.42N","longitude":"1.18W"}
{"date":"2010-03-01","average_temperature":"9.237","city":"Nantong","latitude":"31.35N","longitude":"120.63E"}
{"date":"2011-05-01","average_temperature":"23.451","city":"Nantou","latitude":"23.31N","longitude":"121.46E"}
{"date":"2012-05-01","average_temperature":"16.669999999999998","city":"Narashino","latitude":"36.17N","longitude":"139.23E"}
{"date":"2010-07-01","average_temperature":"15.684","city":"Nefteyugansk","latitude":"61.88N","longitude":"73.02E"}
{"date":"2011-12-01","average_temperature":"4.686","city":"Neuss","latitude":"50.63N","longitude":"6.34E"}
{"date":"2010-04-01","average_temperature":"11.837","city":"Niihama","latitude":"34.56N","longitude":"134.27E"}
{"date":"2011-04-01","average_temperature":"12.548","city":"Nishio","latitude":"34.56N","longitude":"136.22E"}
{"date":"2012-11-01","average_temperature":"11.014000000000001","city":"Nishio","latitude":"34.56N","longitude":"136.22E"}
{"date":"2011-02-01","average_temperature":"6.561","city":"Nobeoka","latitude":"32.95N","longitude":"131.17E"}
{"date":"2011-05-01","average_temperature":"13.29","city":"Northampton","latitude":"52.24N","longitude":"0.00W"}
{"date":"2010-12-01","average_temperature":"24.13","city":"Nouakchott","latitude":"18.48N","longitude":"15.21W"}
{"date":"2012-02-01","average_temperature":"-9.427","city":"Novocherkassk","latitude":"47.42N","longitude":"39.08E"}
{"date":"2012-08-01","average_temperature":"24.793000000000003","city":"Novorossiysk","latitude":"44.20N","longitude":"38.01E"}
{"date":"2010-06-01","average_temperature":"24.076","city":"Novotroitsk","latitude":"50.63N","longitude":"59.58E"}
{"date":"2011-09-01","average_temperature":"26.72","city":"Nsukka","latitude":"7.23N","longitude":"7.30E"}
{"date":"2012-08-01","average_temperature":"26.465999999999998","city":"Nueva San Salvador","latitude":"13.66N","longitude":"90.00W"}
{"date":"2013-02-01","average_temperature":"1.207","city":"Nukus","latitude":"42.59N","longitude":"58.91E"}
{"date":"2012-05-01","average_temperature":"14.975","city":"Nuremberg","latitude":"49.03N","longitude":"12.24E"}
{"date":"2010-01-01","average_temperature":"-2.615","city":"Nyíregyháza","latitude":"47.42N","longitude":"22.50E"}
{"date":"2012-08-01","average_temperature":"17.395","city":"Obninsk","latitude":"55.45N","longitude":"36.85E"}
{"date":"2011-05-01","average_temperature":"28.305999999999997","city":"Obosi","latitude":"5.63N","longitude":"6.46E"}
{"date":"2012-08-01","average_temperature":"25.689","city":"Obosi","latitude":"5.63N","longitude":"6.46E"}
{"date":"2012-01-01","average_temperature":"24.46","city":"Ocumare Del Tuy","latitude":"10.45N","longitude":"66.27W"}
{"date":"2011-07-01","average_temperature":"25.288","city":"Odawara","latitude":"36.17N","longitude":"139.23E"}
{"date":"2011-08-01","average_temperature":"26.422","city":"Okrika","latitude":"4.02N","longitude":"7.23E"}
{"date":"2011-10-01","average_temperature":"26.813","city":"Olongapo","latitude":"15.27N","longitude":"120.83E"}
{"date":"2012-12-01","average_temperature":"27.011999999999997","city":"Opobo","latitude":"4.02N","longitude":"7.23E"}
{"date":"2010-08-01","average_temperature":"24.665","city":"Ordu","latitude":"40.99N","longitude":"38.34E"}
{"date":"2010-01-01","average_temperature":"-16.204","city":"Orekhovo Zuevo","latitude":"55.45N","longitude":"39.69E"}
{"date":"2010-06-01","average_temperature":"9.744","city":"Orkney","latitude":"26.52S","longitude":"26.87E"}
{"date":"2010-06-01","average_temperature":"16.759999999999998","city":"Osasco","latitude":"23.31S","longitude":"46.31W"}
{"date":"2011-07-01","average_temperature":"26.41","city":"Osmaniye","latitude":"37.78N","longitude":"36.61E"}
{"date":"2013-03-01","average_temperature":"1.056","city":"Osnabrück","latitude":"52.24N","longitude":"7.88E"}
{"date":"2012-06-01","average_temperature":"4.479","city":"Osorno","latitude":"40.99S","longitude":"72.43W"}
{"date":"2012-02-01","average_temperature":"-5.932","city":"Ostrava","latitude":"50.63N","longitude":"19.01E"}
{"date":"2012-09-01","average_temperature":"26.288","city":"Otukpo","latitude":"7.23N","longitude":"8.92E"}
{"date":"2012-09-01","average_temperature":"26.916","city":"Ouagadougou","latitude":"12.05N","longitude":"1.64W"}
{"date":"2011-07-01","average_temperature":"19.488","city":"Oviedo","latitude":"42.59N","longitude":"6.55W"}
{"date":"2010-08-01","average_temperature":"26.837","city":"Pátrai","latitude":"37.78N","longitude":"22.37E"}
{"date":"2012-05-01","average_temperature":"26.206999999999997","city":"Pôrto Velho","latitude":"8.84S","longitude":"64.05W"}
{"date":"2012-09-01","average_temperature":"13.699000000000002","city":"Paarl","latitude":"34.56S","longitude":"19.46E"}
{"date":"2011-09-01","average_temperature":"17.301","city":"Pachuca","latitude":"20.09N","longitude":"98.96W"}
{"date":"2013-02-01","average_temperature":"15.979000000000001","city":"Pachuca","latitude":"20.09N","longitude":"98.96W"}
{"date":"2010-01-01","average_temperature":"25.504","city":"Padang","latitude":"0.80S","longitude":"100.45E"}
{"date":"2013-04-01","average_temperature":"29.284000000000002","city":"Pakokku","latitude":"21.70N","longitude":"94.33E"}
{"date":"2011-03-01","average_temperature":"10.059","city":"Palermo","latitude":"37.78N","longitude":"14.24E"}
{"date":"2011-03-01","average_temperature":"28.311","city":"Pallavaram","latitude":"13.66N","longitude":"80.09E"}
{"date":"2011-05-01","average_temperature":"27.417","city":"Palma Soriano","latitude":"20.09N","longitude":"76.78W"}
{"date":"2011-07-01","average_temperature":"22.804000000000002","city":"Palmira","latitude":"4.02N","longitude":"76.34W"}
{"date":"2012-08-01","average_temperature":"28.035","city":"Panchiao","latitude":"24.92N","longitude":"122.36E"}
{"date":"2013-09-01","city":"Panchiao","latitude":"24.92N","longitude":"122.36E"}
{"date":"2013-08-01","average_temperature":"28.831","city":"Paradise","latitude":"36.17N","longitude":"115.36W"}
{"date":"2012-09-01","average_temperature":"27.471999999999998","city":"Parbhani","latitude":"20.09N","longitude":"76.78E"}
{"date":"2011-12-01","average_temperature":"2.407","city":"Parsabad","latitude":"39.38N","longitude":"47.86E"}
{"date":"2010-03-01","average_temperature":"18.696","city":"Pasto","latitude":"0.80N","longitude":"77.95W"}
{"date":"2010-07-01","average_temperature":"29.428","city":"Patan","latitude":"23.31N","longitude":"72.52E"}
{"date":"2013-03-01","average_temperature":"2.5180000000000002","city":"Paterson","latitude":"40.99N","longitude":"74.56W"}
{"date":"2010-09-01","average_temperature":"25.223000000000006","city":"Paulista","latitude":"7.23S","longitude":"34.86W"}
{"date":"2013-06-01","average_temperature":"20.36","city":"Pereira","latitude":"5.63N","longitude":"75.87W"}
{"date":"2011-05-01","average_temperature":"18.884","city":"Peristérion","latitude":"37.78N","longitude":"24.41E"}
{"date":"2012-05-01","average_temperature":"26.382","city":"Petare","latitude":"10.45N","longitude":"66.27W"}
{"date":"2010-05-01","average_temperature":"30.702","city":"Phan Thiet","latitude":"10.45N","longitude":"107.18E"}
{"date":"2012-03-01","average_temperature":"28.338","city":"Phan Thiet","latitude":"10.45N","longitude":"107.18E"}
{"date":"2011-05-01","average_temperature":"33.172999999999995","city":"Pilibhit","latitude":"28.13N","longitude":"79.09E"}
{"date":"2013-03-01","average_temperature":"23.503","city":"Pinar Del Río","latitude":"21.70N","longitude":"83.94W"}
{"date":"2010-07-01","average_temperature":"25.267","city":"Plumbon","latitude":"7.23S","longitude":"107.84E"}
{"date":"2013-02-01","average_temperature":"25.502","city":"Plumbon","latitude":"7.23S","longitude":"107.84E"}
{"date":"2010-12-01","average_temperature":"23.216","city":"Poá","latitude":"23.31S","longitude":"46.31W"}
{"date":"2013-09-01","city":"Poá","latitude":"23.31S","longitude":"46.31W"}
{"date":"2012-07-01","average_temperature":"24.41","city":"Poltava","latitude":"49.03N","longitude":"34.29E"}
{"date":"2010-10-01","average_temperature":"27.018","city":"Pontianak","latitude":"0.80S","longitude":"110.09E"}
{"date":"2013-08-01","average_temperature":"27.314","city":"Pontianak","latitude":"0.80S","longitude":"110.09E"}
{"date":"2010-06-01","average_temperature":"28.71","city":"Port Au Prince","latitude":"18.48N","longitude":"72.68W"}
{"date":"2012-02-01","average_temperature":"14.315999999999999","city":"Port Said","latitude":"31.35N","longitude":"32.04E"}
{"date":"2011-04-01","average_temperature":"25.772","city":"Portmore","latitude":"18.48N","longitude":"76.06W"}
{"date":"2010-02-01","average_temperature":"4.683","city":"Portsmouth","latitude":"50.63N","longitude":"1.27W"}
{"date":"2010-05-01","average_temperature":"18.352","city":"Potgietersrus","latitude":"23.31S","longitude":"28.83E"}
{"date":"2012-05-01","average_temperature":"18.31","city":"Potgietersrus","latitude":"23.31S","longitude":"28.83E"}
{"date":"2012-07-01","average_temperature":"15.168","city":"Preston","latitude":"53.84N","longitude":"1.36W"}
{"date":"2011-03-01","average_temperature":"5.401","city":"Pristina","latitude":"42.59N","longitude":"21.82E"}
{"date":"2011-09-01","average_temperature":"19.664","city":"Pristina","latitude":"42.59N","longitude":"21.82E"}
{"date":"2013-09-01","city":"Proddatur","latitude":"15.27N","longitude":"79.17E"}
{"date":"2012-05-01","average_temperature":"15.946000000000002","city":"Providence","latitude":"42.59N","longitude":"72.00W"}
{"date":"2013-08-01","average_temperature":"17.142","city":"Pskov","latitude":"57.05N","longitude":"28.03E"}
{"date":"2013-03-01","average_temperature":"5.141","city":"Pueblo","latitude":"37.78N","longitude":"103.73W"}
{"date":"2011-02-01","average_temperature":"25.416999999999998","city":"Puerto Cabello","latitude":"10.45N","longitude":"67.91W"}
{"date":"2012-05-01","average_temperature":"7.188","city":"Puerto Montt","latitude":"40.99S","longitude":"72.43W"}
{"date":"2012-05-01","average_temperature":"29.434","city":"Punto Fijo","latitude":"12.05N","longitude":"70.68W"}
{"date":"2011-06-01","average_temperature":"31.008000000000003","city":"Qena","latitude":"26.52N","longitude":"32.24E"}
{"date":"2011-07-01","average_temperature":"18.97","city":"Querétaro","latitude":"20.09N","longitude":"100.66W"}
{"date":"2012-12-01","average_temperature":"26.441999999999997","city":"Qui Nhon","latitude":"13.66N","longitude":"109.82E"}
{"date":"2013-08-01","average_temperature":"26.636","city":"Rabat","latitude":"34.56N","longitude":"5.84W"}
{"date":"2012-02-01","average_temperature":"5.4140000000000015","city":"Rafsanjan","latitude":"29.74N","longitude":"55.38E"}
{"date":"2013-08-01","average_temperature":"27.297","city":"Rafsanjan","latitude":"29.74N","longitude":"55.38E"}
{"date":"2012-12-01","average_temperature":"20.544","city":"Raipur","latitude":"21.70N","longitude":"82.21E"}
{"date":"2013-07-01","average_temperature":"27.296999999999997","city":"Raipur","latitude":"21.70N","longitude":"82.21E"}
{"date":"2012-04-01","average_temperature":"29.326","city":"Rampur","latitude":"28.13N","longitude":"79.09E"}
{"date":"2011-08-01","average_temperature":"0.831","city":"Rancagua","latitude":"34.56S","longitude":"70.05W"}
{"date":"2013-06-01","average_temperature":"29.58","city":"Ranchi","latitude":"23.31N","longitude":"84.76E"}
{"date":"2010-03-01","average_temperature":"29.03","city":"Raniganj","latitude":"23.31N","longitude":"86.50E"}
{"date":"2012-02-01","average_temperature":"27.261999999999997","city":"Rantauprapat","latitude":"2.41N","longitude":"100.45E"}
{"date":"2010-07-01","average_temperature":"20.516","city":"Ratisbon","latitude":"49.03N","longitude":"12.24E"}
{"date":"2010-04-01","average_temperature":"32.6","city":"Raurkela","latitude":"21.70N","longitude":"85.67E"}
{"date":"2012-05-01","average_temperature":"26.406","city":"Recife","latitude":"8.84S","longitude":"34.86W"}
{"date":"2010-04-01","average_temperature":"6.638","city":"Regina","latitude":"50.63N","longitude":"105.21W"}
{"date":"2011-11-01","average_temperature":"6.881","city":"Remscheid","latitude":"50.63N","longitude":"6.34E"}
{"date":"2013-05-01","average_temperature":"12.345","city":"Rennes","latitude":"47.42N","longitude":"1.18W"}
{"date":"2011-06-01","average_temperature":"16.412999999999997","city":"Resende","latitude":"21.70S","longitude":"44.13W"}
{"date":"2011-09-01","average_temperature":"6.315","city":"Reykjavík","latitude":"65.09N","longitude":"21.06W"}
{"date":"2013-05-01","average_temperature":"26.549","city":"Reynosa","latitude":"26.52N","longitude":"98.51W"}
{"date":"2013-09-01","average_temperature":"25.185","city":"Rialto","latitude":"34.56N","longitude":"116.76W"}
{"date":"2011-07-01","average_temperature":"20.180999999999997","city":"Ribeirão Prêto","latitude":"21.70S","longitude":"47.60W"}
{"date":"2013-09-01","city":"Rio Claro","latitude":"21.70S","longitude":"47.60W"}
{"date":"2010-07-01","average_temperature":"28.956","city":"Riverside","latitude":"34.56N","longitude":"116.76W"}
{"date":"2010-04-01","average_temperature":"10.335","city":"Rizhao","latitude":"36.17N","longitude":"119.34E"}
{"date":"2012-12-01","average_temperature":"-21.435","city":"Rubtsovsk","latitude":"52.24N","longitude":"81.46E"}
{"date":"2013-05-01","average_temperature":"10.943","city":"Rubtsovsk","latitude":"52.24N","longitude":"81.46E"}
{"date":"2013-07-01","average_temperature":"11.508","city":"Rustenburg","latitude":"26.52S","longitude":"26.87E"}
{"date":"2012-10-01","average_temperature":"7.341","city":"Ryazan","latitude":"53.84N","longitude":"39.55E"}
{"date":"2013-08-01","average_temperature":"16.798","city":"Rybinsk","latitude":"58.66N","longitude":"40.00E"}
{"date":"2011-07-01","average_temperature":"18.065","city":"São José","latitude":"28.13S","longitude":"48.18W"}
{"date":"2011-09-01","average_temperature":"16.644000000000002","city":"Saarbrücken","latitude":"49.03N","longitude":"7.35E"}
{"date":"2011-01-01","average_temperature":"3.824","city":"Sabzevar","latitude":"36.17N","longitude":"57.68E"}
{"date":"2011-12-01","average_temperature":"16.317","city":"Sadiqabad","latitude":"28.13N","longitude":"70.00E"}
{"date":"2012-02-01","average_temperature":"14.18","city":"Sahiwal","latitude":"31.35N","longitude":"73.51E"}
{"date":"2010-04-01","average_temperature":"27.035","city":"Salatiga","latitude":"7.23S","longitude":"111.08E"}
{"date":"2011-10-01","average_temperature":"10.857999999999999","city":"Salem","latitude":"44.20N","longitude":"122.98W"}
{"date":"2010-01-01","average_temperature":"9.508","city":"Saltillo","latitude":"24.92N","longitude":"101.08W"}
{"date":"2011-03-01","average_temperature":"17.989","city":"Saltillo","latitude":"24.92N","longitude":"101.08W"}
{"date":"2011-03-01","average_temperature":"24.021","city":"Sambhal","latitude":"28.13N","longitude":"79.09E"}
{"date":"2012-02-01","average_temperature":"13.28","city":"San Bernardo","latitude":"32.95S","longitude":"69.89W"}
{"date":"2011-02-01","average_temperature":"25.388","city":"San Cristóbal","latitude":"18.48N","longitude":"69.30W"}
{"date":"2013-07-01","average_temperature":"19.929","city":"San Diego","latitude":"32.95N","longitude":"117.77W"}
{"date":"2011-10-01","average_temperature":"26.813","city":"San Fernando","latitude":"15.27N","longitude":"120.83E"}
{"date":"2010-10-01","average_temperature":"16.937","city":"San Juan Del Río","latitude":"20.09N","longitude":"100.66W"}
{"date":"2013-04-01","average_temperature":"21.015","city":"San Juan Del Río","latitude":"20.09N","longitude":"100.66W"}
{"date":"2010-04-01","average_temperature":"23.561","city":"San Lorenzo","latitude":"24.92S","longitude":"56.75W"}
{"date":"2010-12-01","average_temperature":"24.797","city":"San Martin","latitude":"32.95S","longitude":"67.98W"}
{"date":"2012-02-01","average_temperature":"15.929","city":"San Nicolás De Los Garza","latitude":"26.52N","longitude":"100.30W"}
{"date":"2011-02-01","average_temperature":"23.425","city":"San Nicolas","latitude":"32.95S","longitude":"60.32W"}
{"date":"2011-03-01","average_temperature":"25.691999999999997","city":"San Pedro De Macorís","latitude":"18.48N","longitude":"69.30W"}
{"date":"2010-11-01","average_temperature":"26.942","city":"Sandakan","latitude":"5.63N","longitude":"117.85E"}
{"date":"2012-05-01","average_temperature":"26.131999999999998","city":"Santa Clara","latitude":"21.70N","longitude":"80.48W"}
{"date":"2012-06-01","average_temperature":"21.066","city":"Santa Clarita","latitude":"34.56N","longitude":"118.70W"}
{"date":"2010-08-01","average_temperature":"26.868000000000002","city":"Santa Marta","latitude":"10.45N","longitude":"74.45W"}
{"date":"2013-09-01","city":"Santa Rita","latitude":"7.23S","longitude":"34.86W"}
{"date":"2013-08-01","average_temperature":"18.215","city":"Santos","latitude":"23.31S","longitude":"46.31W"}
{"date":"2010-10-01","average_temperature":"26.686","city":"Sapele","latitude":"5.63N","longitude":"6.46E"}
{"date":"2010-09-01","average_temperature":"13.619000000000002","city":"Saransk","latitude":"53.84N","longitude":"45.00E"}
{"date":"2010-11-01","average_temperature":"-6.43","city":"Saskatoon","latitude":"52.24N","longitude":"107.74W"}
{"date":"2013-02-01","average_temperature":"2.046","city":"Sayama","latitude":"36.17N","longitude":"139.23E"}
{"date":"2012-02-01","average_temperature":"-2.707","city":"Seoul","latitude":"37.78N","longitude":"126.10E"}
{"date":"2010-12-01","average_temperature":"26.601999999999997","city":"Serang","latitude":"5.63S","longitude":"106.55E"}
{"date":"2013-07-01","average_temperature":"28.834","city":"Serekunda","latitude":"13.66N","longitude":"17.34W"}
{"date":"2010-11-01","average_temperature":"12.041","city":"Setúbal","latitude":"39.38N","longitude":"8.32W"}
{"date":"2012-01-01","average_temperature":"22.278000000000002","city":"Sete Lagoas","latitude":"20.09S","longitude":"44.36W"}
{"date":"2011-10-01","average_temperature":"5.475","city":"Seversk","latitude":"57.05N","longitude":"84.10E"}
{"date":"2010-11-01","average_temperature":"7.977","city":"Shahreza","latitude":"31.35N","longitude":"52.77E"}
{"date":"2010-04-01","average_temperature":"12.86","city":"Shanghai","latitude":"31.35N","longitude":"120.63E"}
{"date":"2013-04-01","average_temperature":"17.198","city":"Shangrao","latitude":"28.13N","longitude":"117.27E"}
{"date":"2011-12-01","average_temperature":"5.824","city":"Shaoxing","latitude":"29.74N","longitude":"120.00E"}
{"date":"2011-12-01","average_temperature":"4.819","city":"Sheffield","latitude":"53.84N","longitude":"1.36W"}
{"date":"2013-08-01","average_temperature":"16.473","city":"Sheffield","latitude":"53.84N","longitude":"1.36W"}
{"date":"2012-01-01","average_temperature":"17.252","city":"Sherpur","latitude":"24.92N","longitude":"90.44E"}
{"date":"2010-08-01","average_temperature":"27.002","city":"Shiliguri","latitude":"26.52N","longitude":"87.76E"}
{"date":"2010-06-01","average_temperature":"24.661","city":"Shiyan","latitude":"32.95N","longitude":"110.11E"}
{"date":"2011-04-01","average_temperature":"11.735999999999999","city":"Shizuishan","latitude":"39.38N","longitude":"106.13E"}
{"date":"2013-05-01","average_temperature":"33.985","city":"Sholapur","latitude":"18.48N","longitude":"76.06E"}
{"date":"2011-07-01","average_temperature":"26.738000000000003","city":"Sidoarjo","latitude":"7.23S","longitude":"112.70E"}
{"date":"2012-07-01","average_temperature":"25.404","city":"Singaraja","latitude":"8.84S","longitude":"114.32E"}
{"date":"2010-10-01","average_temperature":"18.86","city":"Sirjan","latitude":"29.74N","longitude":"55.38E"}
{"date":"2012-01-01","average_temperature":"4.806","city":"Sirjan","latitude":"29.74N","longitude":"55.38E"}
{"date":"2012-01-01","average_temperature":"5.3130000000000015","city":"Slough","latitude":"52.24N","longitude":"0.00W"}
{"date":"2010-02-01","average_temperature":"28.531999999999996","city":"Sobral","latitude":"4.02S","longitude":"40.98W"}
{"date":"2010-11-01","average_temperature":"25.198","city":"Songea","latitude":"10.45S","longitude":"35.18E"}
{"date":"2010-09-01","average_temperature":"25.302","city":"Soubré","latitude":"5.63N","longitude":"6.46W"}
{"date":"2012-12-01","average_temperature":"2.569","city":"South Bend","latitude":"40.99N","longitude":"85.21W"}
{"date":"2012-12-01","average_temperature":"4.849","city":"Southend On Sea","latitude":"52.24N","longitude":"0.00W"}
{"date":"2012-11-01","average_temperature":"25.883000000000003","city":"Spanish Town","latitude":"18.48N","longitude":"77.75W"}
{"date":"2010-12-01","average_temperature":"8.099","city":"Spring Valley","latitude":"36.17N","longitude":"115.36W"}
{"date":"2010-04-01","average_temperature":"5.7829999999999995","city":"Sterlitamak","latitude":"53.84N","longitude":"55.91E"}
{"date":"2012-10-01","average_temperature":"9.614","city":"Strasbourg","latitude":"49.03N","longitude":"7.35E"}
{"date":"2011-04-01","average_temperature":"3.077","city":"Sudbury","latitude":"45.81N","longitude":"81.92W"}
{"date":"2011-03-01","average_temperature":"11.857999999999999","city":"Suining","latitude":"29.74N","longitude":"105.23E"}
{"date":"2010-08-01","average_temperature":"23.23","city":"Sujiatun","latitude":"40.99N","longitude":"123.55E"}
{"date":"2010-07-01","average_temperature":"25.198","city":"Suleja","latitude":"8.84N","longitude":"7.30E"}
{"date":"2011-09-01","average_temperature":"26.007","city":"Suleja","latitude":"8.84N","longitude":"7.30E"}
{"date":"2013-03-01","average_temperature":"24.678","city":"Sultanpur","latitude":"26.52N","longitude":"82.39E"}
{"date":"2013-09-01","average_temperature":"25.709","city":"Sunrise Manor","latitude":"36.17N","longitude":"115.36W"}
{"date":"2012-10-01","average_temperature":"23.186999999999998","city":"Sur","latitude":"32.95N","longitude":"35.43E"}
{"date":"2013-05-01","average_temperature":"33.856","city":"Surendranagar","latitude":"23.31N","longitude":"72.52E"}
{"date":"2010-05-01","average_temperature":"3.613","city":"Surgut","latitude":"61.88N","longitude":"73.02E"}
{"date":"2012-10-01","average_temperature":"22.308000000000003","city":"Susah","latitude":"36.17N","longitude":"9.94E"}
{"date":"2011-01-01","average_temperature":"0.7000000000000002","city":"Suzhou","latitude":"31.35N","longitude":"120.63E"}
{"date":"2011-12-01","average_temperature":"5.606","city":"Suzhou","latitude":"31.35N","longitude":"120.63E"}
{"date":"2013-06-01","average_temperature":"15.911","city":"Sydney","latitude":"34.56S","longitude":"151.78E"}
{"date":"2011-05-01","average_temperature":"14.49","city":"Syzran","latitude":"53.84N","longitude":"47.73E"}
{"date":"2011-10-01","average_temperature":"20.55","city":"Taboão Da Serra","latitude":"23.31S","longitude":"46.31W"}
{"date":"2013-09-01","city":"Taboão Da Serra","latitude":"23.31S","longitude":"46.31W"}
{"date":"2010-07-01","average_temperature":"28.336","city":"Tadepallegudem","latitude":"16.87N","longitude":"82.05E"}
{"date":"2010-05-01","average_temperature":"25.974","city":"Taicheng","latitude":"21.70N","longitude":"113.37E"}
{"date":"2011-02-01","average_temperature":"17.485","city":"Taipei","latitude":"24.92N","longitude":"122.36E"}
{"date":"2013-01-01","average_temperature":"16.904","city":"Taitung","latitude":"23.31N","longitude":"121.46E"}
{"date":"2010-08-01","average_temperature":"28.959","city":"Taizhou","latitude":"32.95N","longitude":"119.68E"}
{"date":"2013-03-01","average_temperature":"26.319000000000003","city":"Talara","latitude":"4.02S","longitude":"81.16W"}
{"date":"2011-10-01","average_temperature":"12.008","city":"Talcahuano","latitude":"36.17S","longitude":"73.59W"}
{"date":"2010-03-01","average_temperature":"17.894000000000002","city":"Tali","latitude":"24.92N","longitude":"120.59E"}
{"date":"2013-01-01","average_temperature":"16.233","city":"Tallahassee","latitude":"29.74N","longitude":"84.92W"}
{"date":"2012-07-01","average_temperature":"19.082","city":"Tallinn","latitude":"58.66N","longitude":"24.62E"}
{"date":"2012-11-01","average_temperature":"2.136","city":"Tampere","latitude":"61.88N","longitude":"22.08E"}
{"date":"2011-07-01","average_temperature":"28.261","city":"Tanjung Morawa","latitude":"4.02N","longitude":"98.84E"}
{"date":"2012-11-01","average_temperature":"-6.069","city":"Taonan","latitude":"45.81N","longitude":"123.46E"}
{"date":"2012-08-01","average_temperature":"27.898000000000003","city":"Taoyüan","latitude":"24.92N","longitude":"120.59E"}
{"date":"2012-11-01","average_temperature":"24.500999999999998","city":"Tapachula","latitude":"15.27N","longitude":"92.50W"}
{"date":"2012-04-01","average_temperature":"9.703","city":"Targu Mures","latitude":"45.81N","longitude":"24.23E"}
{"date":"2012-05-01","average_temperature":"29.139","city":"Tarlac","latitude":"15.27N","longitude":"120.83E"}
{"date":"2012-05-01","average_temperature":"15.287","city":"Tarnow","latitude":"50.63N","longitude":"21.55E"}
{"date":"2013-08-01","average_temperature":"18.215","city":"Taubaté","latitude":"23.31S","longitude":"46.31W"}
{"date":"2011-09-01","average_temperature":"27.046","city":"Tawau","latitude":"4.02N","longitude":"118.13E"}
{"date":"2011-11-01","average_temperature":"26.628","city":"Tawau","latitude":"4.02N","longitude":"118.13E"}
{"date":"2010-07-01","average_temperature":"26.701","city":"Tegal","latitude":"7.23S","longitude":"109.46E"}
{"date":"2010-06-01","average_temperature":"25.171","city":"Tegucigalpa","latitude":"13.66N","longitude":"86.70W"}
{"date":"2011-12-01","average_temperature":"27.246","city":"Teluknaga","latitude":"5.63S","longitude":"106.55E"}
{"date":"2013-07-01","average_temperature":"19.312","city":"Temirtau","latitude":"50.63N","longitude":"72.25E"}
{"date":"2011-01-01","average_temperature":"23.151","city":"Tenali","latitude":"16.87N","longitude":"80.37E"}
{"date":"2012-03-01","average_temperature":"29.593000000000004","city":"Tenali","latitude":"16.87N","longitude":"80.37E"}
{"date":"2012-08-01","average_temperature":"26.715","city":"Tengzhou","latitude":"34.56N","longitude":"116.76E"}
{"date":"2011-03-01","average_temperature":"21.702","city":"Tepic","latitude":"21.70N","longitude":"104.71W"}
{"date":"2011-10-01","average_temperature":"20.005","city":"Terrassa","latitude":"40.99N","longitude":"2.13E"}
{"date":"2013-06-01","average_temperature":"21.229","city":"Tete","latitude":"16.87S","longitude":"33.49E"}
{"date":"2010-03-01","average_temperature":"16.090999999999998","city":"Texcoco","latitude":"20.09N","longitude":"98.96W"}
{"date":"2012-04-01","average_temperature":"24.553","city":"Thái Nguyên","latitude":"21.70N","longitude":"106.44E"}
{"date":"2010-12-01","average_temperature":"0.518","city":"Thornton","latitude":"39.38N","longitude":"104.05W"}
{"date":"2012-03-01","average_temperature":"26.471","city":"Timon","latitude":"5.63S","longitude":"43.59W"}
{"date":"2010-08-01","average_temperature":"25.831999999999997","city":"Tirana","latitude":"40.99N","longitude":"19.17E"}
{"date":"2010-10-01","average_temperature":"15.869000000000002","city":"Tirana","latitude":"40.99N","longitude":"19.17E"}
{"date":"2011-12-01","average_temperature":"19.767000000000003","city":"Titagarh","latitude":"23.31N","longitude":"88.25E"}
{"date":"2010-01-01","average_temperature":"11.607000000000001","city":"Tlalnepantla","latitude":"20.09N","longitude":"98.96W"}
{"date":"2013-06-01","average_temperature":"18.924","city":"Tlalnepantla","latitude":"20.09N","longitude":"98.96W"}
{"date":"2012-12-01","average_temperature":"24.768","city":"Toamasina","latitude":"18.48S","longitude":"49.01E"}
{"date":"2010-10-01","average_temperature":"14.376","city":"Toms River","latitude":"39.38N","longitude":"74.91W"}
{"date":"2013-07-01","average_temperature":"23.187","city":"Tonalá","latitude":"20.09N","longitude":"104.08W"}
{"date":"2012-04-01","average_temperature":"13.708","city":"Tondabayashi","latitude":"34.56N","longitude":"136.22E"}
{"date":"2010-11-01","average_temperature":"6.742000000000001","city":"Tongchuan","latitude":"34.56N","longitude":"108.97E"}
{"date":"2010-02-01","average_temperature":"20.405","city":"Tonk","latitude":"26.52N","longitude":"75.22E"}
{"date":"2012-08-01","average_temperature":"25.572","city":"Torreón","latitude":"24.92N","longitude":"102.86W"}
{"date":"2013-01-01","average_temperature":"-3.233","city":"Torun","latitude":"52.24N","longitude":"18.39E"}
{"date":"2012-06-01","average_temperature":"27.184","city":"Touliu","latitude":"23.31N","longitude":"119.71E"}
{"date":"2013-03-01","average_temperature":"10.33","city":"Toyota","latitude":"34.56N","longitude":"136.22E"}
{"date":"2011-09-01","average_temperature":"21.031","city":"Trieste","latitude":"45.81N","longitude":"12.69E"}
{"date":"2013-06-01","average_temperature":"19.982000000000006","city":"Trieste","latitude":"45.81N","longitude":"12.69E"}
{"date":"2011-10-01","average_temperature":"21.709","city":"Tripoli","latitude":"32.95N","longitude":"12.45E"}
{"date":"2012-03-01","average_temperature":"17.029","city":"Tucheng","latitude":"24.92N","longitude":"120.59E"}
{"date":"2011-10-01","average_temperature":"20.65","city":"Tumbes","latitude":"4.02S","longitude":"81.16W"}
{"date":"2012-07-01","average_temperature":"28.708000000000002","city":"Turgutlu","latitude":"37.78N","longitude":"28.47E"}
{"date":"2013-08-01","average_temperature":"17.223","city":"Turin","latitude":"45.81N","longitude":"8.08E"}
{"date":"2011-12-01","average_temperature":"22.476999999999997","city":"Tuxtla Gutiérrez","latitude":"16.87N","longitude":"93.77W"}
{"date":"2010-06-01","average_temperature":"21.521","city":"Ueda","latitude":"36.17N","longitude":"139.23E"}
{"date":"2010-02-01","average_temperature":"19.845","city":"Uitenhage","latitude":"34.56S","longitude":"25.30E"}
{"date":"2013-06-01","average_temperature":"29.087000000000003","city":"Ujjain","latitude":"23.31N","longitude":"76.02E"}
{"date":"2010-03-01","average_temperature":"-14.515","city":"Ulaanbaatar","latitude":"47.42N","longitude":"107.76E"}
{"date":"2013-07-01","average_temperature":"16.531","city":"Ulaanbaatar","latitude":"47.42N","longitude":"107.76E"}
{"date":"2011-01-01","average_temperature":"0.8660000000000001","city":"Ulm","latitude":"49.03N","longitude":"9.80E"}
{"date":"2012-10-01","average_temperature":"27.427","city":"Ulubaria","latitude":"23.31N","longitude":"88.25E"}
{"date":"2010-03-01","average_temperature":"-4.935","city":"Ulyanovsk","latitude":"53.84N","longitude":"47.73E"}
{"date":"2011-04-01","average_temperature":"32.223","city":"Umm Durman","latitude":"15.27N","longitude":"32.50E"}
{"date":"2012-02-01","average_temperature":"26.764","city":"Urdaneta","latitude":"15.27N","longitude":"120.83E"}
{"date":"2010-05-01","average_temperature":"27.765","city":"Uromi","latitude":"7.23N","longitude":"5.68E"}
{"date":"2012-09-01","average_temperature":"20.201","city":"Uruapan","latitude":"20.09N","longitude":"102.37W"}
{"date":"2012-12-01","average_temperature":"16.262999999999998","city":"Uruapan","latitude":"20.09N","longitude":"102.37W"}
{"date":"2011-01-01","average_temperature":"27.647","city":"Uruguaiana","latitude":"29.74S","longitude":"57.23W"}
{"date":"2013-05-01","average_temperature":"24.809","city":"Várzea Grande","latitude":"15.27S","longitude":"55.83W"}
{"date":"2010-09-01","average_temperature":"9.136000000000001","city":"Valdivia","latitude":"39.38S","longitude":"72.83W"}
{"date":"2012-10-01","average_temperature":"17.294999999999998","city":"Vallejo","latitude":"37.78N","longitude":"122.03W"}
{"date":"2012-06-01","average_temperature":"13.271","city":"Valparaiso","latitude":"32.95S","longitude":"71.81W"}
{"date":"2011-10-01","average_temperature":"17.85","city":"Vanderbijlpark","latitude":"26.52S","longitude":"28.66E"}
{"date":"2011-01-01","average_temperature":"17.833000000000006","city":"Vejalpur","latitude":"23.31N","longitude":"74.27E"}
{"date":"2012-06-01","average_temperature":"26.62","city":"Veracruz","latitude":"18.48N","longitude":"96.34W"}
{"date":"2013-03-01","average_temperature":"26.028000000000002","city":"Vidisha","latitude":"23.31N","longitude":"77.77E"}
{"date":"2013-07-01","average_temperature":"20.653","city":"Villa Nueva","latitude":"15.27N","longitude":"90.83W"}
{"date":"2012-10-01","average_temperature":"13.328","city":"Vitoria","latitude":"42.59N","longitude":"2.18W"}
{"date":"2010-07-01","average_temperature":"28.452","city":"Waco","latitude":"31.35N","longitude":"98.01W"}
{"date":"2011-01-01","average_temperature":"23.509","city":"Wad Madani","latitude":"13.66N","longitude":"33.85E"}
{"date":"2011-10-01","average_temperature":"29.456999999999997","city":"Wad Madani","latitude":"13.66N","longitude":"33.85E"}
{"date":"2010-10-01","average_temperature":"15.395","city":"Wanxian","latitude":"31.35N","longitude":"109.32E"}
{"date":"2011-09-01","average_temperature":"28.136","city":"Warangal","latitude":"18.48N","longitude":"79.44E"}
{"date":"2011-07-01","average_temperature":"28.351","city":"Wenzhou","latitude":"28.13N","longitude":"120.91E"}
{"date":"2010-02-01","average_temperature":"10.353","city":"West Covina","latitude":"34.56N","longitude":"118.70W"}
{"date":"2010-04-01","average_temperature":"9.183","city":"Wiesbaden","latitude":"50.63N","longitude":"8.87E"}
{"date":"2013-08-01","average_temperature":"23.851999999999997","city":"Winston Salem","latitude":"36.17N","longitude":"79.56W"}
{"date":"2011-08-01","average_temperature":"10.824000000000002","city":"Witbank","latitude":"26.52S","longitude":"28.66E"}
{"date":"2011-06-01","average_temperature":"18.926","city":"Wloclawek","latitude":"52.24N","longitude":"18.39E"}
{"date":"2013-01-01","average_temperature":"-4.14","city":"Worcester","latitude":"42.59N","longitude":"72.00W"}
{"date":"2012-10-01","average_temperature":"8.104","city":"Wroclaw","latitude":"50.63N","longitude":"16.48E"}
{"date":"2012-04-01","average_temperature":"18.778","city":"Wuhan","latitude":"29.74N","longitude":"114.46E"}
{"date":"2011-09-01","average_temperature":"23.147","city":"Wuhu","latitude":"31.35N","longitude":"118.74E"}
{"date":"2010-09-01","average_temperature":"13.204","city":"Wuppertal","latitude":"50.63N","longitude":"6.34E"}
{"date":"2012-05-01","average_temperature":"26.991999999999997","city":"Wuzhou","latitude":"23.31N","longitude":"110.97E"}
{"date":"2011-10-01","average_temperature":"23.638","city":"Xai Xai","latitude":"24.92S","longitude":"33.69E"}
{"date":"2012-11-01","average_temperature":"19.647000000000002","city":"Xiaolan","latitude":"23.31N","longitude":"112.72E"}
{"date":"2012-10-01","average_temperature":"11.918","city":"Xinxiang","latitude":"36.17N","longitude":"113.37E"}
{"date":"2011-01-01","average_temperature":"-10.732000000000001","city":"Xinzhou","latitude":"37.78N","longitude":"111.86E"}
{"date":"2011-01-01","average_temperature":"0.8170000000000001","city":"Yachiyo","latitude":"36.17N","longitude":"139.23E"}
{"date":"2011-09-01","average_temperature":"14.49","city":"Yanan","latitude":"36.17N","longitude":"109.39E"}
{"date":"2011-12-01","average_temperature":"24.417","city":"Yaoundé","latitude":"4.02N","longitude":"12.05E"}
{"date":"2013-03-01","average_temperature":"14.034","city":"Yazd","latitude":"31.35N","longitude":"54.66E"}
{"date":"2011-01-01","average_temperature":"-0.06800000000000006","city":"Yichang","latitude":"31.35N","longitude":"111.20E"}
{"date":"2010-02-01","average_temperature":"4.919","city":"Yizheng","latitude":"32.95N","longitude":"119.68E"}
{"date":"2012-11-01","average_temperature":"-0.16100000000000006","city":"Yuci","latitude":"37.78N","longitude":"111.86E"}
{"date":"2012-05-01","average_temperature":"24.33","city":"Yungkang","latitude":"23.31N","longitude":"121.46E"}
{"date":"2010-11-01","average_temperature":"7.3900000000000015","city":"Zagreb","latitude":"45.81N","longitude":"15.00E"}
{"date":"2011-04-01","average_temperature":"10.13","city":"Zanjan","latitude":"36.17N","longitude":"47.73E"}
{"date":"2012-01-01","average_temperature":"2.688","city":"Zhicheng","latitude":"29.74N","longitude":"110.77E"}
{"date":"2010-08-01","average_temperature":"25.564","city":"Zhoucun","latitude":"36.17N","longitude":"117.35E"}
{"date":"2012-02-01","average_temperature":"15.242","city":"Zhuhai","latitude":"21.70N","longitude":"113.37E"}
{"date":"2012-11-01","average_temperature":"8.655","city":"Zhumadian","latitude":"32.95N","longitude":"113.94E"}
{"date":"2013-02-01","average_temperature":"-0.18299999999999994","city":"Zielona Gora","latitude":"52.24N","longitude":"15.77E"}
