{"date":"2010-08-01","average_temperature":"16.881","city":"Öskemen","latitude":"50.63N","longitude":"82.39E"}
{"date":"2010-09-01","average_temperature":"18.41","city":"A Coruña","latitude":"42.59N","longitude":"8.73W"}
{"date":"2010-10-01","average_temperature":"9.193999999999999","city":"Aachen","latitude":"50.63N","longitude":"6.34E"}
{"date":"2010-12-01","average_temperature":"-2.423","city":"Aachen","latitude":"50.63N","longitude":"6.34E"}
{"date":"2010-08-01","average_temperature":"16.898","city":"Aalborg","latitude":"57.05N","longitude":"10.33E"}
{"date":"2012-12-01","average_temperature":"-0.9209999999999998","city":"Aalborg","latitude":"57.05N","longitude":"10.33E"}
{"date":"2010-10-01","average_temperature":"29.619","city":"Abadan","latitude":"29.74N","longitude":"48.00E"}
{"date":"2010-03-01","average_temperature":"29.596","city":"Abidjan","latitude":"5.63N","longitude":"3.23W"}
{"date":"2011-10-01","average_temperature":"26.787","city":"Abomey Calavi","latitude":"7.23N","longitude":"2.43E"}
{"date":"2010-11-01","average_temperature":"25.477","city":"Abu Dhabi","latitude":"24.92N","longitude":"54.98E"}
{"date":"2011-09-01","average_temperature":"27.844","city":"Acarigua","latitude":"8.84N","longitude":"68.92W"}
{"date":"2011-10-01","average_temperature":"26.401","city":"Achalpur","latitude":"21.70N","longitude":"77.02E"}
{"date":"2011-12-01","average_temperature":"17.486","city":"Addis Abeba","latitude":"8.84N","longitude":"38.11E"}
{"date":"2010-07-01","average_temperature":"28.479","city":"Aden","latitude":"13.66N","longitude":"45.41E"}
{"date":"2012-03-01","average_temperature":"29.036","city":"Adilabad","latitude":"20.09N","longitude":"78.48E"}
{"date":"2010-09-01","average_temperature":"27.245","city":"Adoni","latitude":"15.27N","longitude":"77.50E"}
{"date":"2012-03-01","average_temperature":"24.296999999999997","city":"Agra","latitude":"26.52N","longitude":"78.81E"}
{"date":"2011-05-01","average_temperature":"28.368000000000002","city":"Alappuzha","latitude":"8.84N","longitude":"77.03E"}
{"date":"2011-02-01","average_temperature":"5.803999999999999","city":"Alcalá De Henares","latitude":"40.99N","longitude":"4.26W"}
{"date":"2013-08-01","average_temperature":"29.9","city":"Aligarh","latitude":"28.13N","longitude":"77.27E"}
{"date":"2013-02-01","average_temperature":"-17.861","city":"Altay","latitude":"47.42N","longitude":"88.82E"}
{"date":"2010-03-01","average_temperature":"29.773000000000003","city":"Amaigbo","latitude":"5.63N","longitude":"8.07E"}
{"date":"2010-07-01","average_temperature":"17.237000000000002","city":"Ambato","latitude":"0.80S","longitude":"77.95W"}
{"date":"2013-07-01","average_temperature":"31.599","city":"Amritsar","latitude":"31.35N","longitude":"75.39E"}
{"date":"2012-12-01","average_temperature":"26.590999999999998","city":"Anaco","latitude":"8.84N","longitude":"64.05W"}
{"date":"2013-06-01","average_temperature":"20.026","city":"Ann Arbor","latitude":"42.59N","longitude":"82.91W"}
{"date":"2013-08-01","average_temperature":"20.787","city":"Araraquara","latitude":"21.70S","longitude":"47.60W"}
{"date":"2010-07-01","average_temperature":"19.619","city":"Arequipa","latitude":"16.87S","longitude":"72.00W"}
{"date":"2013-02-01","average_temperature":"-5.178999999999999","city":"Arkhangelsk","latitude":"65.09N","longitude":"40.21E"}
{"date":"2013-04-01","average_temperature":"22.972","city":"Armenia","latitude":"4.02N","longitude":"76.34W"}
{"date":"2011-01-01","average_temperature":"-7.645","city":"Arvada","latitude":"39.38N","longitude":"106.13W"}
{"date":"2010-03-01","average_temperature":"15.115","city":"Aryanah","latitude":"36.17N","longitude":"9.94E"}
{"date":"2011-07-01","average_temperature":"17.597","city":"Atibaia","latitude":"23.31S","longitude":"46.31W"}
{"date":"2010-10-01","average_temperature":"15.880999999999998","city":"Atsugi","latitude":"36.17N","longitude":"139.23E"}
{"date":"2010-05-01","average_temperature":"8.214","city":"Augsburg","latitude":"47.42N","longitude":"10.66E"}
{"date":"2012-09-01","average_temperature":"10.977","city":"Augsburg","latitude":"47.42N","longitude":"10.66E"}
{"date":"2011-02-01","average_temperature":"-2.821","city":"Aurora","latitude":"39.38N","longitude":"104.05W"}
{"date":"2012-09-01","average_temperature":"17.357","city":"Aurora","latitude":"39.38N","longitude":"104.05W"}
{"date":"2013-05-01","average_temperature":"16.141000000000002","city":"Badalona","latitude":"40.99N","longitude":"2.13E"}
{"date":"2012-07-01","average_temperature":"22.380000000000006","city":"Badaojiang","latitude":"42.59N","longitude":"126.55E"}
{"date":"2010-05-01","average_temperature":"25.066000000000006","city":"Bafoussam","latitude":"5.63N","longitude":"9.69E"}
{"date":"2011-10-01","average_temperature":"27.809","city":"Bago","latitude":"16.87N","longitude":"97.12E"}
{"date":"2010-02-01","average_temperature":"21.031","city":"Bahia Blanca","latitude":"39.38S","longitude":"62.43W"}
{"date":"2013-08-01","average_temperature":"23.151999999999997","city":"Baku","latitude":"40.99N","longitude":"48.99E"}
{"date":"2010-12-01","average_temperature":"26.795","city":"Balikpapan","latitude":"0.80S","longitude":"116.52E"}
{"date":"2010-04-01","average_temperature":"10.255999999999998","city":"Balti","latitude":"47.42N","longitude":"27.24E"}
{"date":"2011-11-01","average_temperature":"26.967","city":"Bamako","latitude":"12.05N","longitude":"8.22W"}
{"date":"2013-02-01","average_temperature":"26.993000000000002","city":"Banda Aceh","latitude":"5.63N","longitude":"95.25E"}
{"date":"2010-01-01","average_temperature":"27.366","city":"Bandar Maharani","latitude":"2.41N","longitude":"102.05E"}
{"date":"2013-07-01","average_temperature":"27.584","city":"Bandar Maharani","latitude":"2.41N","longitude":"102.05E"}
{"date":"2012-06-01","average_temperature":"32.79","city":"Bankura","latitude":"23.31N","longitude":"86.50E"}
{"date":"2013-09-01","city":"Bantou","latitude":"24.92N","longitude":"118.82E"}
{"date":"2011-07-01","average_temperature":"25.529","city":"Banyuwangi","latitude":"8.84S","longitude":"114.32E"}
{"date":"2011-03-01","average_temperature":"27.394","city":"Baranagar","latitude":"23.31N","longitude":"88.25E"}
{"date":"2011-06-01","average_temperature":"29.873","city":"Barddhaman","latitude":"23.31N","longitude":"88.25E"}
{"date":"2012-03-01","average_temperature":"23.663","city":"Bareli","latitude":"28.13N","longitude":"79.09E"}
{"date":"2011-11-01","average_temperature":"23.626","city":"Barinas","latitude":"8.84N","longitude":"70.54W"}
{"date":"2013-08-01","average_temperature":"30.708","city":"Barnala","latitude":"29.74N","longitude":"75.69E"}
{"date":"2013-05-01","average_temperature":"26.031999999999996","city":"Barrancabermeja","latitude":"7.23N","longitude":"73.78W"}
{"date":"2012-12-01","average_temperature":"27.426","city":"Barranquilla","latitude":"10.45N","longitude":"74.45W"}
{"date":"2011-06-01","average_temperature":"17.215999999999998","city":"Barrie","latitude":"44.20N","longitude":"80.50W"}
{"date":"2010-01-01","average_temperature":"-5.8389999999999995","city":"Bataysk","latitude":"47.42N","longitude":"39.08E"}
{"date":"2012-04-01","average_temperature":"23.958000000000002","city":"Bauru","latitude":"21.70S","longitude":"49.33W"}
{"date":"2011-11-01","average_temperature":"15.653","city":"Beirut","latitude":"34.56N","longitude":"35.03E"}
{"date":"2011-07-01","average_temperature":"27.035","city":"Belém","latitude":"0.80S","longitude":"49.02W"}
{"date":"2011-11-01","average_temperature":"26.826999999999998","city":"Belawan","latitude":"4.02N","longitude":"98.84E"}
{"date":"2012-08-01","average_temperature":"25.64","city":"Belgaum","latitude":"15.27N","longitude":"74.17E"}
{"date":"2012-06-01","average_temperature":"21.758000000000003","city":"Belgrade","latitude":"44.20N","longitude":"20.12E"}
{"date":"2011-11-01","average_temperature":"25.351999999999997","city":"Bellary","latitude":"15.27N","longitude":"77.50E"}
{"date":"2010-11-01","average_temperature":"3.0540000000000003","city":"Bellevue","latitude":"47.42N","longitude":"121.97W"}
{"date":"2011-11-01","average_temperature":"-7.1190000000000015","city":"Berezniki","latitude":"58.66N","longitude":"55.38E"}
{"date":"2012-08-01","average_temperature":"21.865","city":"Bergamo","latitude":"45.81N","longitude":"10.38E"}
{"date":"2013-07-01","average_temperature":"22.135","city":"Bergamo","latitude":"45.81N","longitude":"10.38E"}
{"date":"2010-10-01","average_temperature":"27.59","city":"Bhimavaram","latitude":"16.87N","longitude":"82.05E"}
{"date":"2011-09-01","average_temperature":"26.609","city":"Bhopal","latitude":"23.31N","longitude":"77.77E"}
{"date":"2012-01-01","average_temperature":"17.000999999999998","city":"Bhopal","latitude":"23.31N","longitude":"77.77E"}
{"date":"2013-01-01","average_temperature":"-2.557","city":"Bielsko Biala","latitude":"50.63N","longitude":"19.01E"}
{"date":"2012-02-01","average_temperature":"26.756","city":"Binjai","latitude":"4.02N","longitude":"98.84E"}
{"date":"2011-01-01","average_temperature":"26.068","city":"Bintulu","latitude":"2.41N","longitude":"113.30E"}
{"date":"2011-11-01","average_temperature":"25.671999999999997","city":"Blitar","latitude":"8.84S","longitude":"112.70E"}
{"date":"2012-11-01","average_temperature":"26.467","city":"Blitar","latitude":"8.84S","longitude":"112.70E"}
{"date":"2010-02-01","average_temperature":"26.143","city":"Blumenau","latitude":"26.52S","longitude":"48.36W"}
{"date":"2012-03-01","average_temperature":"30.073","city":"Bobo Dioulasso","latitude":"10.45N","longitude":"4.09W"}
{"date":"2013-01-01","average_temperature":"-0.2769999999999997","city":"Borujerd","latitude":"34.56N","longitude":"48.65E"}
{"date":"2011-07-01","average_temperature":"18.435","city":"Botucatu","latitude":"23.31S","longitude":"48.06W"}
{"date":"2013-03-01","average_temperature":"2.478","city":"Bradford","latitude":"53.84N","longitude":"1.36W"}
{"date":"2010-09-01","average_temperature":"19.36","city":"Braga","latitude":"40.99N","longitude":"8.52W"}
{"date":"2010-06-01","average_temperature":"21.663","city":"Braila","latitude":"45.81N","longitude":"28.85E"}
{"date":"2013-08-01","average_temperature":"20.189","city":"Brasov","latitude":"45.81N","longitude":"26.54E"}
{"date":"2012-05-01","average_temperature":"13.858999999999998","city":"Bremerhaven","latitude":"53.84N","longitude":"9.55E"}
{"date":"2012-12-01","average_temperature":"24.17","city":"Brikama","latitude":"13.66N","longitude":"17.34W"}
{"date":"2010-03-01","average_temperature":"5.744999999999999","city":"Bucharest","latitude":"44.20N","longitude":"26.83E"}
{"date":"2010-05-01","average_temperature":"22.195999999999998","city":"Bujumbura","latitude":"4.02S","longitude":"29.73E"}
{"date":"2010-01-01","average_temperature":"25.454","city":"Bulaon","latitude":"15.27N","longitude":"120.83E"}
{"date":"2013-02-01","average_temperature":"9.804","city":"Burbank","latitude":"34.56N","longitude":"118.70W"}
{"date":"2011-02-01","average_temperature":"10.145","city":"Bushehr","latitude":"29.74N","longitude":"51.69E"}
{"date":"2010-02-01","average_temperature":"28.973000000000006","city":"Cabimas","latitude":"10.45N","longitude":"71.18W"}
{"date":"2010-07-01","average_temperature":"28.338","city":"Cagayan De Oro","latitude":"8.84N","longitude":"124.05E"}
{"date":"2013-05-01","average_temperature":"22.697","city":"Cairns","latitude":"16.87S","longitude":"145.67E"}
{"date":"2010-08-01","average_temperature":"27.048000000000002","city":"Calabozo","latitude":"8.84N","longitude":"67.30W"}
{"date":"2013-04-01","average_temperature":"26.320999999999998","city":"Camagüey","latitude":"21.70N","longitude":"78.75W"}
{"date":"2013-03-01","average_temperature":"27.2","city":"Campina Grande","latitude":"7.23S","longitude":"36.49W"}
{"date":"2012-08-01","average_temperature":"28.569000000000003","city":"Can Tho","latitude":"10.45N","longitude":"105.55E"}
{"date":"2012-11-01","average_temperature":"18.453","city":"Cape Town","latitude":"32.95S","longitude":"18.19E"}
{"date":"2010-02-01","average_temperature":"23.453000000000003","city":"Carmen","latitude":"18.48N","longitude":"91.27W"}
{"date":"2011-06-01","average_temperature":"27.638","city":"Carolina","latitude":"18.48N","longitude":"65.92W"}
{"date":"2010-09-01","average_temperature":"24.078000000000003","city":"Cartagena","latitude":"37.78N","longitude":"0.00W"}
{"date":"2011-05-01","average_temperature":"20.776999999999997","city":"Cartagena","latitude":"37.78N","longitude":"0.00W"}
{"date":"2013-09-01","city":"Caruaru","latitude":"8.84S","longitude":"36.49W"}
{"date":"2010-12-01","average_temperature":"19.727999999999998","city":"Chandpur","latitude":"23.31N","longitude":"90.00E"}
{"date":"2012-10-01","average_temperature":"6.974","city":"Changchun","latitude":"44.20N","longitude":"125.22E"}
{"date":"2013-02-01","average_temperature":"-6.227","city":"Chaoyang","latitude":"40.99N","longitude":"121.42E"}
{"date":"2013-04-01","average_temperature":"16.262","city":"Charlotte","latitude":"34.56N","longitude":"81.73W"}
{"date":"2013-03-01","average_temperature":"-7.906000000000001","city":"Chelyabinsk","latitude":"55.45N","longitude":"62.36E"}
{"date":"2011-02-01","average_temperature":"-4.66","city":"Chengde","latitude":"40.99N","longitude":"117.16E"}
{"date":"2013-08-01","average_temperature":"18.901","city":"Chernihiv","latitude":"52.24N","longitude":"31.53E"}
{"date":"2011-07-01","average_temperature":"27.313000000000002","city":"Chiang Mai","latitude":"18.48N","longitude":"99.72E"}
{"date":"2012-02-01","average_temperature":"-9.175","city":"Chifeng","latitude":"42.59N","longitude":"120.00E"}
{"date":"2013-06-01","average_temperature":"20.927","city":"Chigasaki","latitude":"36.17N","longitude":"139.23E"}
{"date":"2010-03-01","average_temperature":"23.201","city":"Chincha Alta","latitude":"13.66S","longitude":"76.79W"}
{"date":"2010-07-01","average_temperature":"32.444","city":"Chiniot","latitude":"31.35N","longitude":"73.51E"}
{"date":"2013-04-01","average_temperature":"28.404","city":"Chishtian Mandi","latitude":"29.74N","longitude":"72.00E"}
{"date":"2011-02-01","average_temperature":"16.184","city":"Chuncheng","latitude":"21.70N","longitude":"111.63E"}
{"date":"2012-09-01","average_temperature":"26.205","city":"Chungho","latitude":"24.92N","longitude":"120.59E"}
{"date":"2011-09-01","average_temperature":"27.209","city":"Cibinong","latitude":"5.63S","longitude":"106.55E"}
{"date":"2011-06-01","average_temperature":"25.349","city":"Cicalengka","latitude":"7.23S","longitude":"107.84E"}
{"date":"2012-07-01","average_temperature":"27.383000000000003","city":"Cincinnati","latitude":"39.38N","longitude":"85.32W"}
{"date":"2013-06-01","average_temperature":"15.042","city":"Clermont Ferrand","latitude":"45.81N","longitude":"3.46E"}
{"date":"2010-04-01","average_temperature":"12.232","city":"Cleveland","latitude":"40.99N","longitude":"80.95W"}
{"date":"2010-08-01","average_temperature":"23.502","city":"Cleveland","latitude":"40.99N","longitude":"80.95W"}
{"date":"2011-05-01","average_temperature":"15.449000000000002","city":"Colombo","latitude":"24.92S","longitude":"49.66W"}
{"date":"2011-08-01","average_temperature":"15.574000000000002","city":"Colombo","latitude":"24.92S","longitude":"49.66W"}
{"date":"2010-05-01","average_temperature":"11.898","city":"Colorado Springs","latitude":"39.38N","longitude":"104.05W"}
{"date":"2013-02-01","average_temperature":"8.572999999999999","city":"Columbus","latitude":"32.95N","longitude":"85.21W"}
{"date":"2013-03-01","average_temperature":"13.505999999999998","city":"Concord","latitude":"37.78N","longitude":"122.03W"}
{"date":"2013-07-01","average_temperature":"22.705","city":"Constanta","latitude":"44.20N","longitude":"29.07E"}
{"date":"2011-02-01","average_temperature":"7.1739999999999995","city":"Constantine","latitude":"36.17N","longitude":"5.97E"}
{"date":"2011-11-01","average_temperature":"9.322","city":"Coventry","latitude":"52.24N","longitude":"2.63W"}
{"date":"2012-01-01","average_temperature":"-1.516","city":"Craiova","latitude":"44.20N","longitude":"24.60E"}
{"date":"2011-05-01","average_temperature":"12.398","city":"Crawley","latitude":"50.63N","longitude":"1.27W"}
{"date":"2011-01-01","average_temperature":"24.393","city":"Criciúma","latitude":"28.13S","longitude":"50.00W"}
{"date":"2011-01-01","average_temperature":"19.715","city":"Culiacán","latitude":"24.92N","longitude":"108.18W"}
{"date":"2010-05-01","average_temperature":"28.49","city":"Curug","latitude":"5.63S","longitude":"106.55E"}
{"date":"2010-05-01","average_temperature":"36.363","city":"Dadu","latitude":"26.52N","longitude":"68.06E"}
{"date":"2010-09-01","average_temperature":"30.903000000000002","city":"Dahuk","latitude":"36.17N","longitude":"43.76E"}
{"date":"2011-04-01","average_temperature":"27.851999999999997","city":"Daloa","latitude":"7.23N","longitude":"5.68W"}
{"date":"2012-04-01","average_temperature":"9.422","city":"Dandong","latitude":"39.38N","longitude":"124.86E"}
{"date":"2013-01-01","average_temperature":"-6.034","city":"Dandong","latitude":"39.38N","longitude":"124.86E"}
{"date":"2010-09-01","average_temperature":"12.522","city":"Darmstadt","latitude":"50.63N","longitude":"8.87E"}
{"date":"2011-10-01","average_temperature":"24.624","city":"Daska","latitude":"32.95N","longitude":"73.72E"}
{"date":"2012-05-01","average_temperature":"27.491","city":"Dawei","latitude":"13.66N","longitude":"98.26E"}
{"date":"2012-09-01","average_temperature":"29.759","city":"Delhi","latitude":"28.13N","longitude":"77.27E"}
{"date":"2013-01-01","average_temperature":"14.277","city":"Deoria","latitude":"26.52N","longitude":"84.18E"}
{"date":"2012-12-01","average_temperature":"1.319","city":"Detroit","latitude":"42.59N","longitude":"82.91W"}
{"date":"2010-11-01","average_temperature":"12.398","city":"Dezful","latitude":"32.95N","longitude":"48.83E"}
{"date":"2010-09-01","average_temperature":"29.212","city":"Dhaka","latitude":"23.31N","longitude":"90.00E"}
{"date":"2012-03-01","average_temperature":"26.984","city":"Dhanbad","latitude":"23.31N","longitude":"86.50E"}
{"date":"2012-05-01","average_temperature":"33.048","city":"Dhanbad","latitude":"23.31N","longitude":"86.50E"}
{"date":"2012-12-01","average_temperature":"18.570999999999998","city":"Dhanbad","latitude":"23.31N","longitude":"86.50E"}
{"date":"2013-04-01","average_temperature":"29.989","city":"Dhaulpur","latitude":"26.52N","longitude":"77.01E"}
{"date":"2012-03-01","average_temperature":"22.706999999999997","city":"Diadema","latitude":"23.31S","longitude":"46.31W"}
{"date":"2011-09-01","average_temperature":"25.026","city":"Dibrugarh","latitude":"28.13N","longitude":"95.45E"}
{"date":"2012-02-01","average_temperature":"-2.25","city":"Dijon","latitude":"47.42N","longitude":"5.92E"}
{"date":"2011-05-01","average_temperature":"30.774","city":"Dire Dawa","latitude":"10.45N","longitude":"41.73E"}
{"date":"2011-10-01","average_temperature":"26.451999999999998","city":"Divo","latitude":"5.63N","longitude":"4.84W"}
{"date":"2013-05-01","average_temperature":"20.951999999999998","city":"Do Rud","latitude":"32.95N","longitude":"48.83E"}
{"date":"2010-01-01","average_temperature":"-11.584000000000001","city":"Dongling","latitude":"40.99N","longitude":"123.55E"}
{"date":"2013-07-01","average_temperature":"27.972","city":"Dongying","latitude":"37.78N","longitude":"117.97E"}
{"date":"2011-04-01","average_temperature":"27.42","city":"Dumai","latitude":"2.41N","longitude":"102.05E"}
{"date":"2010-02-01","average_temperature":"14.067","city":"Dunedin","latitude":"45.81S","longitude":"169.62E"}
{"date":"2010-02-01","average_temperature":"-11.001","city":"Dzerzhinsk","latitude":"57.05N","longitude":"42.79E"}
{"date":"2013-05-01","average_temperature":"9.36","city":"Ebetsu","latitude":"42.59N","longitude":"141.82E"}
{"date":"2011-08-01","average_temperature":"15.64","city":"Edmonton","latitude":"53.84N","longitude":"113.18W"}
{"date":"2013-03-01","average_temperature":"2.253","city":"Eindhoven","latitude":"52.24N","longitude":"5.26E"}
{"date":"2010-04-01","average_temperature":"29.387","city":"Ejigbo","latitude":"7.23N","longitude":"4.05E"}
{"date":"2011-06-01","average_temperature":"27.659000000000002","city":"El Faiyûm","latitude":"29.74N","longitude":"31.38E"}
{"date":"2013-02-01","average_temperature":"15.931","city":"El Faiyûm","latitude":"29.74N","longitude":"31.38E"}
{"date":"2013-08-01","average_temperature":"27.963","city":"El Mahalla El Kubra","latitude":"31.35N","longitude":"32.04E"}
{"date":"2011-10-01","average_temperature":"16.255000000000006","city":"Elbasan","latitude":"40.99N","longitude":"19.17E"}
{"date":"2011-04-01","average_temperature":"22.326","city":"Eldoret","latitude":"0.80N","longitude":"34.55E"}
{"date":"2013-04-01","average_temperature":"9.722999999999999","city":"Elizabeth","latitude":"40.99N","longitude":"74.56W"}
{"date":"2011-11-01","average_temperature":"22.715","city":"Encheng","latitude":"21.70N","longitude":"111.63E"}
{"date":"2010-10-01","average_temperature":"17.986","city":"Ensenada","latitude":"31.35N","longitude":"116.86W"}
{"date":"2013-04-01","average_temperature":"28.82","city":"Enugu","latitude":"7.23N","longitude":"7.30E"}
{"date":"2011-05-01","average_temperature":"12.871","city":"Erzincan","latitude":"39.38N","longitude":"39.54E"}
{"date":"2010-05-01","average_temperature":"20.459","city":"Esmeraldas","latitude":"20.09S","longitude":"44.36W"}
{"date":"2013-09-01","city":"Essen","latitude":"50.63N","longitude":"6.34E"}
{"date":"2013-07-01","average_temperature":"30.191999999999997","city":"Etawah","latitude":"26.52N","longitude":"78.81E"}
{"date":"2010-05-01","average_temperature":"12.727","city":"Exeter","latitude":"50.63N","longitude":"3.80W"}
{"date":"2010-01-01","average_temperature":"-11.584000000000001","city":"Fengcheng","latitude":"40.99N","longitude":"123.55E"}
{"date":"2010-07-01","average_temperature":"24.309","city":"Flint","latitude":"42.59N","longitude":"82.91W"}
{"date":"2012-02-01","average_temperature":"-0.03300000000000036","city":"Flint","latitude":"42.59N","longitude":"82.91W"}
{"date":"2012-05-01","average_temperature":"19.307000000000002","city":"Florencia","latitude":"2.41N","longitude":"76.34W"}
{"date":"2010-11-01","average_temperature":"8.224","city":"Focsani","latitude":"45.81N","longitude":"26.54E"}
{"date":"2010-02-01","average_temperature":"9.522","city":"Fontana","latitude":"34.56N","longitude":"116.76W"}
{"date":"2011-03-01","average_temperature":"15.534","city":"Fort Worth","latitude":"32.95N","longitude":"96.70W"}
{"date":"2010-03-01","average_temperature":"28.474","city":"Freetown","latitude":"8.84N","longitude":"13.78W"}
{"date":"2012-07-01","average_temperature":"26.706999999999997","city":"Freetown","latitude":"8.84N","longitude":"13.78W"}
{"date":"2011-08-01","average_temperature":"17.57","city":"Freiburg","latitude":"47.42N","longitude":"8.29E"}
{"date":"2010-02-01","average_temperature":"9.418","city":"Fresno","latitude":"36.17N","longitude":"119.34W"}
{"date":"2010-09-01","average_temperature":"26.269000000000002","city":"Funtua","latitude":"12.05N","longitude":"6.58E"}
{"date":"2012-07-01","average_temperature":"29.549","city":"Fuyang","latitude":"32.95N","longitude":"115.85E"}
{"date":"2012-12-01","average_temperature":"-20.079","city":"Fuyu","latitude":"45.81N","longitude":"125.77E"}
{"date":"2012-03-01","average_temperature":"12.692","city":"Fuzhou","latitude":"26.52N","longitude":"120.00E"}
{"date":"2012-01-01","average_temperature":"14.544","city":"Gómez Palacio","latitude":"24.92N","longitude":"102.86W"}
{"date":"2010-08-01","average_temperature":"28.436999999999998","city":"Gandhidham","latitude":"23.31N","longitude":"70.78E"}
{"date":"2011-10-01","average_temperature":"28.877","city":"Gandhidham","latitude":"23.31N","longitude":"70.78E"}
{"date":"2011-08-01","average_temperature":"29.198","city":"Gangapur","latitude":"26.52N","longitude":"77.01E"}
{"date":"2010-01-01","average_temperature":"-2.765","city":"Gaomi","latitude":"36.17N","longitude":"119.34E"}
{"date":"2010-05-01","average_temperature":"19.19","city":"Gaomi","latitude":"36.17N","longitude":"119.34E"}
{"date":"2012-01-01","average_temperature":"15.113","city":"Garden Grove","latitude":"32.95N","longitude":"117.77W"}
{"date":"2010-06-01","average_temperature":"21.048000000000002","city":"Gazni","latitude":"32.95N","longitude":"67.98E"}
{"date":"2010-08-01","average_temperature":"25.32","city":"Gemena","latitude":"4.02N","longitude":"20.09E"}
{"date":"2011-12-01","average_temperature":"16.203","city":"Ghaziabad","latitude":"28.13N","longitude":"77.27E"}
{"date":"2010-10-01","average_temperature":"15.017000000000001","city":"Giugliano In Campania","latitude":"40.99N","longitude":"14.91E"}
{"date":"2012-07-01","average_temperature":"30.263","city":"Gizeh","latitude":"29.74N","longitude":"31.38E"}
{"date":"2011-07-01","average_temperature":"14.293","city":"Glasgow","latitude":"55.45N","longitude":"2.83W"}
{"date":"2011-02-01","average_temperature":"15.970999999999998","city":"Gojra","latitude":"31.35N","longitude":"73.51E"}
{"date":"2012-12-01","average_temperature":"6.795000000000001","city":"Gonbad E Qabus","latitude":"37.78N","longitude":"54.92E"}
{"date":"2010-07-01","average_temperature":"30.293000000000006","city":"Gorakhpur","latitude":"26.52N","longitude":"84.18E"}
{"date":"2011-04-01","average_temperature":"28.406999999999996","city":"Gorakhpur","latitude":"26.52N","longitude":"84.18E"}
{"date":"2013-07-01","average_temperature":"21.356","city":"Governador Valadares","latitude":"18.48S","longitude":"42.25W"}
{"date":"2013-08-01","average_temperature":"21.685","city":"Governador Valadares","latitude":"18.48S","longitude":"42.25W"}
{"date":"2010-09-01","average_temperature":"23.612","city":"Granada","latitude":"37.78N","longitude":"4.07W"}
{"date":"2012-07-01","average_temperature":"27.656","city":"Greensboro","latitude":"36.17N","longitude":"79.56W"}
{"date":"2012-09-01","average_temperature":"21.137","city":"Greensboro","latitude":"36.17N","longitude":"79.56W"}
{"date":"2012-02-01","average_temperature":"25.033","city":"Guarenas","latitude":"10.45N","longitude":"66.27W"}
{"date":"2011-08-01","average_temperature":"21.153000000000002","city":"Guatemala City","latitude":"15.27N","longitude":"90.83W"}
{"date":"2012-09-01","average_temperature":"31.241999999999997","city":"Gudalur","latitude":"12.05N","longitude":"80.55E"}
{"date":"2011-07-01","average_temperature":"25.221","city":"Guiyang","latitude":"26.52N","longitude":"107.46E"}
{"date":"2013-09-01","city":"Guiyang","latitude":"26.52N","longitude":"107.46E"}
{"date":"2013-07-01","average_temperature":"28.044","city":"Guwahati","latitude":"26.52N","longitude":"91.34E"}
{"date":"2011-01-01","average_temperature":"21.765","city":"Hadejia","latitude":"12.05N","longitude":"9.86E"}
{"date":"2012-07-01","average_temperature":"27.309","city":"Hadejia","latitude":"12.05N","longitude":"9.86E"}
{"date":"2011-04-01","average_temperature":"26.235","city":"Hafizabad","latitude":"31.35N","longitude":"73.51E"}
{"date":"2012-03-01","average_temperature":"27.883000000000003","city":"Hagonoy","latitude":"15.27N","longitude":"120.83E"}
{"date":"2010-12-01","average_temperature":"-5.002","city":"Halle","latitude":"50.63N","longitude":"11.41E"}
{"date":"2010-05-01","average_temperature":"16.598","city":"Hami","latitude":"42.59N","longitude":"93.82E"}
{"date":"2011-04-01","average_temperature":"15.144","city":"Hamilton","latitude":"37.78S","longitude":"174.92E"}
{"date":"2011-10-01","average_temperature":"15.417","city":"Handan","latitude":"36.17N","longitude":"115.36E"}
{"date":"2013-01-01","average_temperature":"0.939","city":"Hartford","latitude":"40.99N","longitude":"72.43W"}
{"date":"2010-01-01","average_temperature":"9.599","city":"Hayward","latitude":"37.78N","longitude":"122.03W"}
{"date":"2012-01-01","average_temperature":"1.951","city":"Heidelberg","latitude":"49.03N","longitude":"9.80E"}
{"date":"2011-04-01","average_temperature":"12.511","city":"Herne","latitude":"52.24N","longitude":"7.88E"}
{"date":"2010-07-01","average_temperature":"29.344","city":"Hialeah","latitude":"26.52N","longitude":"80.60W"}
{"date":"2011-10-01","average_temperature":"24.298000000000002","city":"Hialeah","latitude":"26.52N","longitude":"80.60W"}
{"date":"2012-06-01","average_temperature":"19.359","city":"Hiratsuka","latitude":"36.17N","longitude":"139.23E"}
{"date":"2010-11-01","average_temperature":"24.021","city":"Hosur","latitude":"12.05N","longitude":"77.26E"}
{"date":"2012-11-01","average_temperature":"21.322000000000006","city":"Hsintien","latitude":"24.92N","longitude":"122.36E"}
{"date":"2011-09-01","average_temperature":"22.455","city":"Huaiyin","latitude":"32.95N","longitude":"119.68E"}
{"date":"2011-07-01","average_temperature":"28.902","city":"Huangpu","latitude":"23.31N","longitude":"112.72E"}
{"date":"2013-02-01","average_temperature":"17.122","city":"Huangpu","latitude":"23.31N","longitude":"112.72E"}
{"date":"2011-07-01","average_temperature":"17.445999999999998","city":"Huixquilucan","latitude":"20.09N","longitude":"98.96W"}
{"date":"2011-03-01","average_temperature":"16.051","city":"Huizhou","latitude":"23.31N","longitude":"114.47E"}
{"date":"2011-11-01","average_temperature":"21.02","city":"Humen","latitude":"23.31N","longitude":"114.47E"}
{"date":"2013-05-01","average_temperature":"25.896","city":"Humen","latitude":"23.31N","longitude":"114.47E"}
{"date":"2011-09-01","average_temperature":"23.781999999999996","city":"Huzhou","latitude":"31.35N","longitude":"120.63E"}
{"date":"2011-05-01","average_temperature":"33.142","city":"Hyderabad","latitude":"16.87N","longitude":"78.70E"}
{"date":"2012-05-01","average_temperature":"17.551","city":"Iasi","latitude":"47.42N","longitude":"27.24E"}
{"date":"2012-02-01","average_temperature":"24.301","city":"Ibb","latitude":"13.66N","longitude":"43.76E"}
{"date":"2011-03-01","average_temperature":"22.723000000000003","city":"Ibirité","latitude":"20.09S","longitude":"44.36W"}
{"date":"2011-11-01","average_temperature":"12.422","city":"Ica","latitude":"13.66S","longitude":"75.14W"}
{"date":"2011-12-01","average_temperature":"24.663","city":"Ichalkaranji","latitude":"16.87N","longitude":"73.67E"}
{"date":"2012-04-01","average_temperature":"29.009","city":"Ichalkaranji","latitude":"16.87N","longitude":"73.67E"}
{"date":"2012-10-01","average_temperature":"20.395","city":"Ichihara","latitude":"34.56N","longitude":"140.11E"}
{"date":"2011-07-01","average_temperature":"26.44","city":"Ichinomiya","latitude":"34.56N","longitude":"136.22E"}
{"date":"2010-06-01","average_temperature":"26.611","city":"Ife","latitude":"7.23N","longitude":"4.05E"}
{"date":"2011-03-01","average_temperature":"29.609","city":"Ikirun","latitude":"7.23N","longitude":"4.05E"}
{"date":"2010-07-01","average_temperature":"25.302","city":"Ikole","latitude":"7.23N","longitude":"5.68E"}
{"date":"2012-04-01","average_temperature":"28.200000000000006","city":"Ikole","latitude":"7.23N","longitude":"5.68E"}
{"date":"2013-08-01","average_temperature":"28.180999999999997","city":"Ikoma","latitude":"34.56N","longitude":"136.22E"}
{"date":"2013-07-01","average_temperature":"35.703","city":"Ilam","latitude":"32.95N","longitude":"46.91E"}
{"date":"2013-01-01","average_temperature":"27.351","city":"Ilawe","latitude":"7.23N","longitude":"5.68E"}
{"date":"2011-09-01","average_temperature":"25.842","city":"Ilesha","latitude":"8.84N","longitude":"4.05E"}
{"date":"2010-01-01","average_temperature":"27.265","city":"Ilhéus","latitude":"15.27S","longitude":"39.17W"}
{"date":"2013-01-01","average_temperature":"26.697","city":"Ilhéus","latitude":"15.27S","longitude":"39.17W"}
{"date":"2012-09-01","average_temperature":"29.621","city":"Imperatriz","latitude":"5.63S","longitude":"46.82W"}
{"date":"2010-07-01","average_temperature":"25.631","city":"Imphal","latitude":"24.92N","longitude":"93.99E"}
{"date":"2013-09-01","city":"Inisa","latitude":"7.23N","longitude":"4.05E"}
{"date":"2010-10-01","average_temperature":"23.869","city":"Irbid","latitude":"32.95N","longitude":"35.43E"}
{"date":"2012-05-01","average_temperature":"22.13","city":"Iringa","latitude":"7.23S","longitude":"36.49E"}
{"date":"2012-12-01","average_temperature":"-22.063","city":"Irkutsk","latitude":"52.24N","longitude":"105.11E"}
{"date":"2011-11-01","average_temperature":"18.944000000000003","city":"Ismailia","latitude":"31.35N","longitude":"32.04E"}
{"date":"2012-02-01","average_temperature":"24.468","city":"Itapevi","latitude":"23.31S","longitude":"46.31W"}
{"date":"2012-07-01","average_temperature":"23.981","city":"Iwaki","latitude":"37.78N","longitude":"140.34E"}
{"date":"2010-09-01","average_temperature":"24.213","city":"Izmir","latitude":"37.78N","longitude":"26.44E"}
{"date":"2013-02-01","average_temperature":"9.005","city":"Jaén","latitude":"37.78N","longitude":"4.07W"}
{"date":"2013-07-01","average_temperature":"29.39","city":"Jagadhri","latitude":"29.74N","longitude":"77.54E"}
{"date":"2010-06-01","average_temperature":"33.151","city":"Jahrom","latitude":"28.13N","longitude":"53.64E"}
{"date":"2011-02-01","average_temperature":"15.962","city":"Jalandhar","latitude":"31.35N","longitude":"75.39E"}
{"date":"2010-05-01","average_temperature":"19.06","city":"Jerez","latitude":"36.17N","longitude":"5.97W"}
{"date":"2010-04-01","average_temperature":"32.947","city":"Jhansi","latitude":"24.92N","longitude":"78.03E"}
{"date":"2010-07-01","average_temperature":"27.184","city":"Jiaozhou","latitude":"36.17N","longitude":"119.34E"}
{"date":"2012-03-01","average_temperature":"8.048","city":"Jiaozuo","latitude":"34.56N","longitude":"112.86E"}
{"date":"2010-05-01","average_temperature":"24.947","city":"Jieshi","latitude":"23.31N","longitude":"116.21E"}
{"date":"2012-02-01","average_temperature":"15.401000000000002","city":"Jind","latitude":"29.74N","longitude":"75.69E"}
{"date":"2011-06-01","average_temperature":"24.741999999999997","city":"Jingdezhen","latitude":"29.74N","longitude":"116.31E"}
{"date":"2010-12-01","average_temperature":"-5.87","city":"Jinxi","latitude":"40.99N","longitude":"121.42E"}
{"date":"2011-01-01","average_temperature":"12.634","city":"Jiroft","latitude":"28.13N","longitude":"57.27E"}
{"date":"2013-05-01","average_temperature":"29.848000000000003","city":"Jiroft","latitude":"28.13N","longitude":"57.27E"}
{"date":"2012-07-01","average_temperature":"21.983","city":"Jishu","latitude":"44.20N","longitude":"127.45E"}
{"date":"2013-03-01","average_temperature":"6.239","city":"Joetsu","latitude":"37.78N","longitude":"138.31E"}
{"date":"2011-05-01","average_temperature":"10.433","city":"Jujuy","latitude":"24.92S","longitude":"65.62W"}
{"date":"2013-02-01","average_temperature":"18.317","city":"Jujuy","latitude":"24.92S","longitude":"65.62W"}
{"date":"2013-06-01","average_temperature":"22.49","city":"Kadoma","latitude":"34.56N","longitude":"136.22E"}
{"date":"2013-04-01","average_temperature":"14.129","city":"Kahramanmaras","latitude":"37.78N","longitude":"36.61E"}
{"date":"2010-06-01","average_temperature":"12.862","city":"Kaliningrad","latitude":"55.45N","longitude":"19.84E"}
{"date":"2011-02-01","average_temperature":"26.064","city":"Kalmunai","latitude":"7.23N","longitude":"81.89E"}
{"date":"2011-09-01","average_temperature":"27.079","city":"Kandy","latitude":"7.23N","longitude":"80.27E"}
{"date":"2013-07-01","average_temperature":"16.016000000000002","city":"Kansk","latitude":"55.45N","longitude":"96.38E"}
{"date":"2012-04-01","average_temperature":"24.321","city":"Kaohsiung","latitude":"23.31N","longitude":"119.71E"}
{"date":"2010-06-01","average_temperature":"31.721999999999998","city":"Katihar","latitude":"24.92N","longitude":"86.90E"}
{"date":"2010-03-01","average_temperature":"15.437000000000001","city":"Kenitra","latitude":"34.56N","longitude":"5.84W"}
{"date":"2011-10-01","average_temperature":"4.949","city":"Khabarovsk","latitude":"49.03N","longitude":"134.69E"}
{"date":"2013-02-01","average_temperature":"2.3209999999999997","city":"Khomeynishahr","latitude":"32.95N","longitude":"50.74E"}
{"date":"2012-04-01","average_temperature":"15.746","city":"Khujand","latitude":"40.99N","longitude":"70.30E"}
{"date":"2012-12-01","average_temperature":"-3.6660000000000004","city":"Kielce","latitude":"50.63N","longitude":"21.55E"}
{"date":"2011-10-01","average_temperature":"19.202","city":"Kimberley","latitude":"28.13S","longitude":"24.55E"}
{"date":"2011-07-01","average_temperature":"24.209000000000003","city":"Kindia","latitude":"10.45N","longitude":"12.27W"}
{"date":"2010-12-01","average_temperature":"24.818","city":"Kisangani","latitude":"0.80N","longitude":"24.91E"}
{"date":"2010-08-01","average_temperature":"21.769000000000002","city":"Kisumu","latitude":"0.80S","longitude":"34.55E"}
{"date":"2012-09-01","average_temperature":"22.101999999999997","city":"Kisumu","latitude":"0.80S","longitude":"34.55E"}
{"date":"2010-04-01","average_temperature":"3.193","city":"Kitami","latitude":"44.20N","longitude":"143.11E"}
{"date":"2011-06-01","average_temperature":"14.394","city":"Kitami","latitude":"44.20N","longitude":"143.11E"}
{"date":"2013-02-01","average_temperature":"22.879","city":"Kitwe","latitude":"12.05S","longitude":"27.95E"}
{"date":"2011-01-01","average_temperature":"21.096999999999998","city":"Klerksdorp","latitude":"26.52S","longitude":"26.87E"}
{"date":"2012-08-01","average_temperature":"23.076","city":"Knoxville","latitude":"36.17N","longitude":"83.54W"}
{"date":"2013-04-01","average_temperature":"8.374","city":"Koblenz","latitude":"50.63N","longitude":"6.34E"}
{"date":"2012-11-01","average_temperature":"8.718","city":"Kokubunji","latitude":"36.17N","longitude":"139.23E"}
{"date":"2010-12-01","average_temperature":"25.96","city":"Kollam","latitude":"8.84N","longitude":"77.03E"}
{"date":"2010-09-01","average_temperature":"11.821","city":"Kovrov","latitude":"57.05N","longitude":"42.79E"}
{"date":"2010-05-01","average_temperature":"13.311","city":"Krugersdorp","latitude":"26.52S","longitude":"28.66E"}
{"date":"2011-11-01","average_temperature":"19.573","city":"Krugersdorp","latitude":"26.52S","longitude":"28.66E"}
{"date":"2011-11-01","average_temperature":"26.658","city":"Kuching","latitude":"0.80N","longitude":"110.09E"}
{"date":"2013-08-01","average_temperature":"27.001","city":"Kuching","latitude":"0.80N","longitude":"110.09E"}
{"date":"2011-03-01","average_temperature":"27.165","city":"Kulti","latitude":"23.31N","longitude":"86.50E"}
{"date":"2010-08-01","average_temperature":"26.15","city":"Kumasi","latitude":"7.23N","longitude":"0.81W"}
{"date":"2011-01-01","average_temperature":"26.648000000000003","city":"Kupang","latitude":"10.45S","longitude":"123.55E"}
{"date":"2010-09-01","average_temperature":"25.246","city":"Kurashiki","latitude":"34.56N","longitude":"134.27E"}
{"date":"2011-09-01","average_temperature":"23.788","city":"Kure","latitude":"34.56N","longitude":"132.32E"}
{"date":"2012-05-01","average_temperature":"14.335","city":"Kurgan","latitude":"55.45N","longitude":"65.20E"}
{"date":"2010-07-01","average_temperature":"29.627","city":"Kusti","latitude":"13.66N","longitude":"32.20E"}
{"date":"2010-11-01","average_temperature":"11.601","city":"Kuwana","latitude":"34.56N","longitude":"136.22E"}
{"date":"2010-06-01","average_temperature":"15.911","city":"Lübeck","latitude":"53.84N","longitude":"9.55E"}
{"date":"2012-10-01","average_temperature":"10.95","city":"La Paz","latitude":"16.87S","longitude":"68.65W"}
{"date":"2011-08-01","average_temperature":"13.675","city":"La Serena","latitude":"29.74S","longitude":"72.00W"}
{"date":"2010-03-01","average_temperature":"14.037","city":"Lafayette","latitude":"29.74N","longitude":"92.31W"}
{"date":"2011-04-01","average_temperature":"19.524","city":"Lages","latitude":"28.13S","longitude":"50.00W"}
{"date":"2013-07-01","average_temperature":"27.055999999999997","city":"Langfang","latitude":"39.38N","longitude":"116.53E"}
{"date":"2010-05-01","average_temperature":"20.763","city":"Las Palmas","latitude":"28.13N","longitude":"15.45W"}
{"date":"2010-03-01","average_temperature":"6.085","city":"Leiden","latitude":"52.24N","longitude":"5.26E"}
{"date":"2012-08-01","average_temperature":"28.001","city":"Leiyang","latitude":"26.52N","longitude":"112.84E"}
{"date":"2012-11-01","average_temperature":"12.342","city":"Leiyang","latitude":"26.52N","longitude":"112.84E"}
{"date":"2012-11-01","average_temperature":"6.291","city":"Liaocheng","latitude":"36.17N","longitude":"115.36E"}
{"date":"2010-09-01","average_temperature":"23.019000000000002","city":"Lichinga","latitude":"13.66S","longitude":"35.50E"}
{"date":"2010-09-01","average_temperature":"14.128","city":"Lima","latitude":"12.05S","longitude":"77.26W"}
{"date":"2013-01-01","average_temperature":"-5.82","city":"Linxi","latitude":"39.38N","longitude":"118.61E"}
{"date":"2010-12-01","average_temperature":"-7.596999999999999","city":"Linxia","latitude":"36.17N","longitude":"103.43E"}
{"date":"2012-10-01","average_temperature":"4.997","city":"Longjing","latitude":"42.59N","longitude":"128.73E"}
{"date":"2013-02-01","average_temperature":"14.833","city":"Longyan","latitude":"24.92N","longitude":"117.04E"}
{"date":"2010-06-01","average_temperature":"25.159000000000002","city":"Luancheng","latitude":"37.78N","longitude":"113.90E"}
{"date":"2013-04-01","average_temperature":"26.233","city":"Luanda","latitude":"8.84S","longitude":"13.78E"}
{"date":"2010-05-01","average_temperature":"29.434","city":"Lucena","latitude":"13.66N","longitude":"121.38E"}
{"date":"2010-05-01","average_temperature":"21.284000000000002","city":"Luohe","latitude":"32.95N","longitude":"113.94E"}
{"date":"2011-11-01","average_temperature":"22.904","city":"Luziânia","latitude":"16.87S","longitude":"48.56W"}
{"date":"2011-04-01","average_temperature":"17.495","city":"Málaga","latitude":"36.17N","longitude":"3.98W"}
{"date":"2013-05-01","average_temperature":"17.518","city":"Málaga","latitude":"36.17N","longitude":"3.98W"}
{"date":"2013-05-01","average_temperature":"24.083","city":"Maba","latitude":"24.92N","longitude":"113.50E"}
{"date":"2010-10-01","average_temperature":"28.934","city":"Macapá","latitude":"0.80N","longitude":"50.63W"}
{"date":"2010-05-01","average_temperature":"26.67","city":"Maceió","latitude":"10.45S","longitude":"35.18W"}
{"date":"2012-05-01","average_temperature":"21.203000000000003","city":"Machala","latitude":"4.02S","longitude":"79.55W"}
{"date":"2012-03-01","average_temperature":"5.617000000000001","city":"Machida","latitude":"36.17N","longitude":"139.23E"}
{"date":"2012-04-01","average_temperature":"29.409000000000002","city":"Machilipatnam","latitude":"15.27N","longitude":"80.83E"}
{"date":"2012-05-01","average_temperature":"13.427","city":"Magnitogorsk","latitude":"53.84N","longitude":"58.64E"}
{"date":"2013-06-01","average_temperature":"27.694000000000003","city":"Makasar","latitude":"5.63S","longitude":"119.46E"}
{"date":"2013-09-01","city":"Man","latitude":"7.23N","longitude":"7.30W"}
{"date":"2013-04-01","average_temperature":"26.5","city":"Manado","latitude":"0.80N","longitude":"124.55E"}
{"date":"2012-09-01","average_temperature":"12.663","city":"Manchester","latitude":"53.84N","longitude":"1.36W"}
{"date":"2012-02-01","average_temperature":"25.164","city":"Mandalay","latitude":"21.70N","longitude":"96.06E"}
{"date":"2013-08-01","average_temperature":"26.79","city":"Mandsaur","latitude":"24.92N","longitude":"74.48E"}
{"date":"2010-12-01","average_temperature":"26.008000000000003","city":"Manzanillo","latitude":"18.48N","longitude":"104.79W"}
{"date":"2011-05-01","average_temperature":"14.13","city":"Mar Del Plata","latitude":"37.78S","longitude":"56.95W"}
{"date":"2011-03-01","average_temperature":"31.534000000000002","city":"Maradi","latitude":"13.66N","longitude":"7.43E"}
{"date":"2012-08-01","average_temperature":"27.618000000000002","city":"Marawi","latitude":"7.23N","longitude":"124.05E"}
{"date":"2010-03-01","average_temperature":"13.981","city":"Marbella","latitude":"36.17N","longitude":"3.98W"}
{"date":"2012-09-01","average_temperature":"24.543000000000003","city":"Mardan","latitude":"34.56N","longitude":"72.00E"}
{"date":"2010-11-01","average_temperature":"25.605","city":"Mariara","latitude":"10.45N","longitude":"67.91W"}
{"date":"2011-03-01","average_temperature":"12.811","city":"Mataró","latitude":"40.99N","longitude":"2.13E"}
{"date":"2010-01-01","average_temperature":"14.014000000000001","city":"Mathura","latitude":"28.13N","longitude":"77.27E"}
{"date":"2010-09-01","average_temperature":"21.862","city":"Matola","latitude":"26.52S","longitude":"32.24E"}
{"date":"2010-07-01","average_temperature":"25.558000000000003","city":"Matsudo","latitude":"36.17N","longitude":"139.23E"}
{"date":"2010-07-01","average_temperature":"26.604000000000006","city":"Matsusaka","latitude":"34.56N","longitude":"136.22E"}
{"date":"2010-09-01","average_temperature":"27.528","city":"Maturín","latitude":"10.45N","longitude":"63.00W"}
{"date":"2012-07-01","average_temperature":"17.577","city":"Mauá","latitude":"23.31S","longitude":"46.31W"}
{"date":"2013-02-01","average_temperature":"26.583000000000002","city":"Mbandaka","latitude":"0.80N","longitude":"18.48E"}
{"date":"2011-06-01","average_temperature":"9.511000000000001","city":"Melbourne","latitude":"37.78S","longitude":"144.41E"}
{"date":"2011-08-01","average_temperature":"26.665","city":"Mergui","latitude":"12.05N","longitude":"98.63E"}
{"date":"2010-05-01","average_temperature":"23.269","city":"Mesa","latitude":"32.95N","longitude":"112.02W"}
{"date":"2011-02-01","average_temperature":"9.034","city":"Mesquite","latitude":"32.95N","longitude":"96.70W"}
{"date":"2011-12-01","average_temperature":"7.461","city":"Mianyang","latitude":"31.35N","longitude":"105.55E"}
{"date":"2012-09-01","average_temperature":"10.508","city":"Miass","latitude":"55.45N","longitude":"59.53E"}
{"date":"2013-04-01","average_temperature":"15.075","city":"Midrand","latitude":"26.52S","longitude":"28.66E"}
{"date":"2010-05-01","average_temperature":"23.055","city":"Milagro","latitude":"2.41S","longitude":"79.55W"}
{"date":"2013-03-01","average_temperature":"13.323","city":"Mingaora","latitude":"34.56N","longitude":"72.00E"}
{"date":"2012-06-01","average_temperature":"28.053","city":"Miri","latitude":"4.02N","longitude":"113.30E"}
{"date":"2011-12-01","average_temperature":"19.379","city":"Mirpur Khas","latitude":"24.92N","longitude":"69.16E"}
{"date":"2013-07-01","average_temperature":"30.281","city":"Mirzapur","latitude":"24.92N","longitude":"83.35E"}
{"date":"2012-04-01","average_temperature":"11.355","city":"Mitaka","latitude":"36.17N","longitude":"139.23E"}
{"date":"2010-12-01","average_temperature":"27.414","city":"Mombasa","latitude":"4.02S","longitude":"39.38E"}
{"date":"2012-08-01","average_temperature":"22.967","city":"Montpellier","latitude":"44.20N","longitude":"4.47E"}
{"date":"2010-05-01","average_temperature":"29.619","city":"Monywa","latitude":"21.70N","longitude":"94.33E"}
{"date":"2013-03-01","average_temperature":"24.027","city":"Moradabad","latitude":"28.13N","longitude":"79.09E"}
{"date":"2010-02-01","average_temperature":"26.111","city":"Moshi","latitude":"4.02S","longitude":"37.77E"}
{"date":"2011-11-01","average_temperature":"21.345","city":"Murwara","latitude":"23.31N","longitude":"81.26E"}
{"date":"2013-06-01","average_temperature":"31.033","city":"Muzaffarnagar","latitude":"29.74N","longitude":"77.54E"}
{"date":"2012-10-01","average_temperature":"24.186","city":"Mwanza","latitude":"2.41S","longitude":"32.95E"}
{"date":"2010-07-01","average_temperature":"27.285","city":"Nador","latitude":"34.56N","longitude":"3.89W"}
{"date":"2010-11-01","average_temperature":"2.494","city":"Nakhodka","latitude":"42.59N","longitude":"133.09E"}
{"date":"2013-06-01","average_temperature":"28.305999999999997","city":"Nakhon Si Thammarat","latitude":"8.84N","longitude":"99.73E"}
{"date":"2012-11-01","average_temperature":"21.110000000000007","city":"Nangloi Jat","latitude":"28.13N","longitude":"77.27E"}
{"date":"2011-01-01","average_temperature":"8.309999999999999","city":"Nanning","latitude":"23.31N","longitude":"107.48E"}
{"date":"2011-04-01","average_temperature":"13.68","city":"Naples","latitude":"40.99N","longitude":"14.91E"}
{"date":"2010-08-01","average_temperature":"30.226","city":"Navadwip","latitude":"23.31N","longitude":"88.25E"}
{"date":"2011-01-01","average_temperature":"21.597","city":"Ndola","latitude":"13.66S","longitude":"28.90E"}
{"date":"2010-03-01","average_temperature":"-10.231","city":"Nefteyugansk","latitude":"61.88N","longitude":"73.02E"}
{"date":"2013-02-01","average_temperature":"26.406","city":"Negombo","latitude":"7.23N","longitude":"80.27E"}
{"date":"2010-01-01","average_temperature":"26.803","city":"Neiva","latitude":"2.41N","longitude":"74.73W"}
{"date":"2011-09-01","average_temperature":"20.055999999999997","city":"New Haven","latitude":"40.99N","longitude":"72.43W"}
{"date":"2010-12-01","average_temperature":"4.9350000000000005","city":"Neyshabur","latitude":"36.17N","longitude":"59.67E"}
{"date":"2013-05-01","average_temperature":"12.154000000000002","city":"Nigel","latitude":"26.52S","longitude":"28.66E"}
{"date":"2010-02-01","average_temperature":"3.3480000000000003","city":"Niigata","latitude":"37.78N","longitude":"138.31E"}
{"date":"2010-08-01","average_temperature":"27.998","city":"Niigata","latitude":"37.78N","longitude":"138.31E"}
{"date":"2012-05-01","average_temperature":"14.169","city":"Nijmegen","latitude":"52.24N","longitude":"5.26E"}
{"date":"2011-07-01","average_temperature":"22.423","city":"Nizhnekamsk","latitude":"55.45N","longitude":"51.02E"}
{"date":"2012-03-01","average_temperature":"-6.097","city":"Nizhnekamsk","latitude":"55.45N","longitude":"51.02E"}
{"date":"2012-03-01","average_temperature":"-5.7029999999999985","city":"Nizhniy Tagil","latitude":"57.05N","longitude":"60.49E"}
{"date":"2012-02-01","average_temperature":"3.7230000000000003","city":"Northampton","latitude":"52.24N","longitude":"0.00W"}
{"date":"2011-08-01","average_temperature":"24.566999999999997","city":"Norwalk","latitude":"34.56N","longitude":"118.70W"}
{"date":"2010-07-01","average_temperature":"24.229","city":"Nova Iguaçu","latitude":"23.31S","longitude":"42.82W"}
{"date":"2013-03-01","average_temperature":"26.859","city":"Nova Iguaçu","latitude":"23.31S","longitude":"42.82W"}
{"date":"2012-11-01","average_temperature":"22.729000000000006","city":"Novo Hamburgo","latitude":"29.74S","longitude":"51.69W"}
{"date":"2011-01-01","average_temperature":"-18.272000000000002","city":"Novotroitsk","latitude":"50.63N","longitude":"59.58E"}
{"date":"2012-08-01","average_temperature":"24.656999999999996","city":"Nzérékoré","latitude":"7.23N","longitude":"8.92W"}
{"date":"2012-01-01","average_temperature":"-7.713000000000001","city":"Obninsk","latitude":"55.45N","longitude":"36.85E"}
{"date":"2010-10-01","average_temperature":"26.315","city":"Obuasi","latitude":"5.63N","longitude":"1.61W"}
{"date":"2013-02-01","average_temperature":"24.781999999999996","city":"Ocumare Del Tuy","latitude":"10.45N","longitude":"66.27W"}
{"date":"2010-02-01","average_temperature":"6.8420000000000005","city":"Ogaki","latitude":"34.56N","longitude":"136.22E"}
{"date":"2010-12-01","average_temperature":"27.026","city":"Okrika","latitude":"4.02N","longitude":"7.23E"}
{"date":"2011-11-01","average_temperature":"6.131","city":"Oldenburg","latitude":"52.24N","longitude":"7.88E"}
{"date":"2011-12-01","average_temperature":"-15.95","city":"Omsk","latitude":"55.45N","longitude":"73.70E"}
{"date":"2010-01-01","average_temperature":"4.058","city":"Omuta","latitude":"32.95N","longitude":"131.17E"}
{"date":"2012-02-01","average_temperature":"28.872","city":"Ondo","latitude":"7.23N","longitude":"4.05E"}
{"date":"2010-02-01","average_temperature":"25.164","city":"Ongole","latitude":"15.27N","longitude":"80.83E"}
{"date":"2013-08-01","average_temperature":"25.278","city":"Onitsha","latitude":"5.63N","longitude":"6.46E"}
{"date":"2012-01-01","average_temperature":"13.884","city":"Orai","latitude":"26.52N","longitude":"78.81E"}
{"date":"2012-08-01","average_temperature":"26.019","city":"Oron","latitude":"5.63N","longitude":"8.07E"}
{"date":"2011-12-01","average_temperature":"-14.62","city":"Orsk","latitude":"50.63N","longitude":"59.58E"}
{"date":"2011-09-01","average_temperature":"16.583","city":"Oshawa","latitude":"44.20N","longitude":"78.26W"}
{"date":"2010-05-01","average_temperature":"18.874000000000002","city":"Osmaniye","latitude":"37.78N","longitude":"36.61E"}
{"date":"2012-12-01","average_temperature":"27.093000000000004","city":"Otukpo","latitude":"7.23N","longitude":"8.92E"}
{"date":"2011-07-01","average_temperature":"25.978","city":"Owerri","latitude":"5.63N","longitude":"6.46E"}
{"date":"2013-01-01","average_temperature":"3.417","city":"Oxford","latitude":"52.24N","longitude":"0.00W"}
{"date":"2011-10-01","average_temperature":"28.154","city":"Pabna","latitude":"23.31N","longitude":"90.00E"}
{"date":"2013-04-01","average_temperature":"12.489999999999998","city":"Padova","latitude":"45.81N","longitude":"12.69E"}
{"date":"2012-03-01","average_temperature":"29.05","city":"Palakkad","latitude":"10.45N","longitude":"76.09E"}
{"date":"2012-06-01","average_temperature":"27.410999999999998","city":"Palakkad","latitude":"10.45N","longitude":"76.09E"}
{"date":"2013-08-01","average_temperature":"26.721","city":"Palakkad","latitude":"10.45N","longitude":"76.09E"}
{"date":"2010-11-01","average_temperature":"23.061999999999998","city":"Pali","latitude":"26.52N","longitude":"73.43E"}
{"date":"2012-04-01","average_temperature":"26.533","city":"Palma Soriano","latitude":"20.09N","longitude":"76.78W"}
{"date":"2012-01-01","average_temperature":"11.581","city":"Palmdale","latitude":"34.56N","longitude":"118.70W"}
{"date":"2013-04-01","average_temperature":"26.893","city":"Palu","latitude":"0.80S","longitude":"119.73E"}
{"date":"2011-05-01","average_temperature":"34.298","city":"Palwal","latitude":"28.13N","longitude":"77.27E"}
{"date":"2013-01-01","average_temperature":"5.144","city":"Pamplona","latitude":"42.59N","longitude":"2.18W"}
{"date":"2013-06-01","average_temperature":"27.303","city":"Panamá","latitude":"8.84N","longitude":"80.27W"}
{"date":"2010-09-01","average_temperature":"27.62","city":"Panchiao","latitude":"24.92N","longitude":"122.36E"}
{"date":"2010-12-01","average_temperature":"19.602999999999998","city":"Panihati","latitude":"23.31N","longitude":"88.25E"}
{"date":"2010-12-01","average_temperature":"25.46","city":"Panvel","latitude":"18.48N","longitude":"72.68E"}
{"date":"2012-05-01","average_temperature":"34.68","city":"Parbhani","latitude":"20.09N","longitude":"76.78E"}
{"date":"2011-01-01","average_temperature":"26.613000000000003","city":"Parnamirim","latitude":"5.63S","longitude":"35.52W"}
{"date":"2012-02-01","average_temperature":"26.955","city":"Pasir Gudang","latitude":"0.80N","longitude":"103.66E"}
{"date":"2010-03-01","average_temperature":"29.593","city":"Patan","latitude":"23.31N","longitude":"72.52E"}
{"date":"2010-09-01","average_temperature":"27.500999999999998","city":"Pate","latitude":"24.92N","longitude":"120.59E"}
{"date":"2013-04-01","average_temperature":"27.046999999999997","city":"Pati","latitude":"7.23S","longitude":"111.08E"}
{"date":"2012-08-01","average_temperature":"29.435","city":"Patna","latitude":"24.92N","longitude":"85.12E"}
{"date":"2013-05-01","average_temperature":"21.51","city":"Patos De Minas","latitude":"18.48S","longitude":"47.32W"}
{"date":"2012-04-01","average_temperature":"10.465","city":"Pavlodar","latitude":"52.24N","longitude":"76.20E"}
{"date":"2011-05-01","average_temperature":"17.093","city":"Pavlohrad","latitude":"49.03N","longitude":"36.73E"}
{"date":"2012-07-01","average_temperature":"26.995","city":"Peking","latitude":"39.38N","longitude":"116.53E"}
{"date":"2012-12-01","average_temperature":"1.5499999999999998","city":"Peoria","latitude":"40.99N","longitude":"89.47W"}
{"date":"2010-01-01","average_temperature":"11.505","city":"Peristérion","latitude":"37.78N","longitude":"24.41E"}
{"date":"2011-02-01","average_temperature":"9.415","city":"Pescara","latitude":"42.59N","longitude":"15.27E"}
{"date":"2010-04-01","average_temperature":"-4.959","city":"Petropavlovsk Kamchatskiy","latitude":"53.84N","longitude":"159.55E"}
{"date":"2011-06-01","average_temperature":"27.096","city":"Pimpri","latitude":"18.48N","longitude":"74.37E"}
{"date":"2013-09-01","city":"Pimpri","latitude":"18.48N","longitude":"74.37E"}
{"date":"2011-04-01","average_temperature":"31.753","city":"Pindiga","latitude":"10.45N","longitude":"10.64E"}
{"date":"2010-04-01","average_temperature":"12.427","city":"Pitesti","latitude":"44.20N","longitude":"24.60E"}
{"date":"2011-01-01","average_temperature":"25.237","city":"Piura","latitude":"5.63S","longitude":"80.72W"}
{"date":"2010-04-01","average_temperature":"27.583000000000002","city":"Plây Cu","latitude":"13.66N","longitude":"108.17E"}
{"date":"2010-01-01","average_temperature":"-4.431","city":"Plzen","latitude":"50.63N","longitude":"13.94E"}
{"date":"2012-08-01","average_temperature":"16.861","city":"Ponta Grossa","latitude":"24.92S","longitude":"49.66W"}
{"date":"2013-09-01","average_temperature":"28.497","city":"Port Au Prince","latitude":"18.48N","longitude":"72.68W"}
{"date":"2010-01-01","average_temperature":"25.965999999999998","city":"Portmore","latitude":"18.48N","longitude":"76.06W"}
{"date":"2013-06-01","average_temperature":"5.483","city":"Potosí","latitude":"20.09S","longitude":"66.54W"}
{"date":"2013-08-01","average_temperature":"21.7","city":"Presidente Prudente","latitude":"21.70S","longitude":"51.06W"}
{"date":"2011-12-01","average_temperature":"4.819","city":"Preston","latitude":"53.84N","longitude":"1.36W"}
{"date":"2012-04-01","average_temperature":"26.744000000000003","city":"Pringsewu","latitude":"5.63S","longitude":"104.93E"}
{"date":"2013-07-01","average_temperature":"29.025","city":"Proddatur","latitude":"15.27N","longitude":"79.17E"}
{"date":"2013-07-01","average_temperature":"20.676","city":"Puebla","latitude":"18.48N","longitude":"98.03W"}
{"date":"2010-03-01","average_temperature":"23.613000000000003","city":"Puerto Vallarta","latitude":"20.09N","longitude":"105.78W"}
{"date":"2012-03-01","average_temperature":"25.339000000000002","city":"Purwakarta","latitude":"7.23S","longitude":"107.84E"}
{"date":"2011-07-01","average_temperature":"26.738000000000003","city":"Purworejo","latitude":"7.23S","longitude":"112.70E"}
{"date":"2012-03-01","average_temperature":"10.111","city":"Qianjiang","latitude":"29.74N","longitude":"112.62E"}
{"date":"2012-02-01","average_temperature":"-20.444000000000006","city":"Qostanay","latitude":"53.84N","longitude":"64.09E"}
{"date":"2012-04-01","average_temperature":"19.392","city":"Quanzhou","latitude":"24.92N","longitude":"118.82E"}
{"date":"2013-07-01","average_temperature":"9.639","city":"Queenstown","latitude":"31.35S","longitude":"26.39E"}
{"date":"2013-05-01","average_temperature":"16.509","city":"Queluz","latitude":"39.38N","longitude":"8.32W"}
{"date":"2010-12-01","average_temperature":"21.372","city":"Quevedo","latitude":"0.80S","longitude":"79.55W"}
{"date":"2013-04-01","average_temperature":"30.435","city":"Rajpur","latitude":"23.31N","longitude":"88.25E"}
{"date":"2013-04-01","average_temperature":"15.163","city":"Raleigh","latitude":"36.17N","longitude":"79.56W"}
{"date":"2011-10-01","average_temperature":"19.128","city":"Rancho Cucamonga","latitude":"34.56N","longitude":"116.76W"}
{"date":"2013-05-01","average_temperature":"32.528","city":"Raurkela","latitude":"21.70N","longitude":"85.67E"}
{"date":"2012-06-01","average_temperature":"15.101","city":"Remscheid","latitude":"50.63N","longitude":"6.34E"}
{"date":"2013-02-01","average_temperature":"3.8689999999999998","city":"Rennes","latitude":"47.42N","longitude":"1.18W"}
{"date":"2013-07-01","average_temperature":"30.266","city":"Reynosa","latitude":"26.52N","longitude":"98.51W"}
{"date":"2012-09-01","average_temperature":"23.773000000000003","city":"Ribeirão Prêto","latitude":"21.70S","longitude":"47.60W"}
{"date":"2013-08-01","average_temperature":"18.221","city":"Richards Bay","latitude":"28.13S","longitude":"31.82E"}
{"date":"2011-05-01","average_temperature":"14.526","city":"Richmond","latitude":"37.78N","longitude":"122.03W"}
{"date":"2011-06-01","average_temperature":"21.519000000000002","city":"Rimini","latitude":"44.20N","longitude":"13.42E"}
{"date":"2010-04-01","average_temperature":"19.384","city":"Rio Grande","latitude":"31.35S","longitude":"52.77W"}
{"date":"2013-03-01","average_temperature":"7.457999999999999","city":"Rome","latitude":"42.59N","longitude":"13.09E"}
{"date":"2010-03-01","average_temperature":"26.941","city":"Rondonópolis","latitude":"16.87S","longitude":"55.26W"}
{"date":"2011-10-01","average_temperature":"26.361","city":"Rondonópolis","latitude":"16.87S","longitude":"55.26W"}
{"date":"2010-04-01","average_temperature":"15.22","city":"Rongcheng","latitude":"29.74N","longitude":"112.62E"}
{"date":"2011-12-01","average_temperature":"6.207999999999999","city":"Rongcheng","latitude":"29.74N","longitude":"112.62E"}
{"date":"2012-07-01","average_temperature":"8.845","city":"Rosario","latitude":"32.95S","longitude":"60.32W"}
{"date":"2011-03-01","average_temperature":"21.92","city":"São Bernardo Do Campo","latitude":"23.31S","longitude":"46.31W"}
{"date":"2011-09-01","average_temperature":"21.9","city":"São João De Meriti","latitude":"23.31S","longitude":"42.82W"}
{"date":"2010-11-01","average_temperature":"21.508000000000003","city":"São José Dos Campos","latitude":"23.31S","longitude":"46.31W"}
{"date":"2013-02-01","average_temperature":"23.564","city":"São José Dos Campos","latitude":"23.31S","longitude":"46.31W"}
{"date":"2011-10-01","average_temperature":"19.035999999999998","city":"São Leopoldo","latitude":"29.74S","longitude":"51.69W"}
{"date":"2011-02-01","average_temperature":"3.1210000000000004","city":"Saarbrücken","latitude":"49.03N","longitude":"7.35E"}
{"date":"2011-03-01","average_temperature":"7.353","city":"Saarbrücken","latitude":"49.03N","longitude":"7.35E"}
{"date":"2012-08-01","average_temperature":"19.846","city":"Saarbrücken","latitude":"49.03N","longitude":"7.35E"}
{"date":"2010-10-01","average_temperature":"16.689999999999998","city":"Sacramento","latitude":"37.78N","longitude":"122.03W"}
{"date":"2010-02-01","average_temperature":"18.962","city":"Sadiqabad","latitude":"28.13N","longitude":"70.00E"}
{"date":"2010-08-01","average_temperature":"28.265","city":"Saga","latitude":"32.95N","longitude":"131.17E"}
{"date":"2011-05-01","average_temperature":"34.134","city":"Sahiwal","latitude":"31.35N","longitude":"73.51E"}
{"date":"2010-06-01","average_temperature":"15.79","city":"Saint Étienne","latitude":"45.81N","longitude":"3.46E"}
{"date":"2011-02-01","average_temperature":"22.284000000000002","city":"Saint Louis","latitude":"16.87N","longitude":"16.74W"}
{"date":"2012-11-01","average_temperature":"6.0120000000000005","city":"Saint Louis","latitude":"39.38N","longitude":"89.48W"}
{"date":"2011-03-01","average_temperature":"25.308000000000003","city":"Salalah","latitude":"16.87N","longitude":"53.58E"}
{"date":"2012-01-01","average_temperature":"5.79","city":"Salerno","latitude":"40.99N","longitude":"14.91E"}
{"date":"2010-05-01","average_temperature":"27.776999999999997","city":"Samarinda","latitude":"0.80S","longitude":"116.52E"}
{"date":"2011-07-01","average_temperature":"31.017000000000003","city":"San Antonio","latitude":"29.74N","longitude":"97.85W"}
{"date":"2010-05-01","average_temperature":"21.771","city":"San Luis Potosí","latitude":"21.70N","longitude":"101.25W"}
{"date":"2012-11-01","average_temperature":"26.767","city":"San Pédro","latitude":"5.63N","longitude":"6.46W"}
{"date":"2010-11-01","average_temperature":"25.294","city":"San Salvador","latitude":"13.66N","longitude":"90.00W"}
{"date":"2010-10-01","average_temperature":"23.38","city":"Sanchung","latitude":"24.92N","longitude":"120.59E"}
{"date":"2011-12-01","average_temperature":"26.671","city":"Sandakan","latitude":"5.63N","longitude":"117.85E"}
{"date":"2013-02-01","average_temperature":"25.49","city":"Santa Ana","latitude":"13.66N","longitude":"90.00W"}
{"date":"2010-08-01","average_temperature":"18.781","city":"Santa Clara","latitude":"37.78N","longitude":"122.03W"}
{"date":"2010-02-01","average_temperature":"26.138","city":"Santa Cruz","latitude":"13.66N","longitude":"121.38E"}
{"date":"2010-08-01","average_temperature":"27.627","city":"Santa Cruz","latitude":"13.66N","longitude":"121.38E"}
{"date":"2012-03-01","average_temperature":"23.576","city":"Santa Maria","latitude":"29.74S","longitude":"53.54W"}
{"date":"2012-05-01","average_temperature":"26.382","city":"Santa Teresa","latitude":"10.45N","longitude":"66.27W"}
{"date":"2010-01-01","average_temperature":"-19.451","city":"Sarapul","latitude":"57.05N","longitude":"54.59E"}
{"date":"2010-08-01","average_temperature":"28.448","city":"Saveh","latitude":"34.56N","longitude":"50.59E"}
{"date":"2012-06-01","average_temperature":"26.675","city":"Semarang","latitude":"7.23S","longitude":"111.08E"}
{"date":"2010-05-01","average_temperature":"12.673","city":"Semey","latitude":"50.63N","longitude":"79.86E"}
{"date":"2013-09-01","city":"Shahrud","latitude":"36.17N","longitude":"55.69E"}
{"date":"2013-09-01","city":"Shaoguan","latitude":"24.92N","longitude":"113.50E"}
{"date":"2012-05-01","average_temperature":"22.268","city":"Shashi","latitude":"29.74N","longitude":"112.62E"}
{"date":"2013-02-01","average_temperature":"-8.242","city":"Shenyang","latitude":"40.99N","longitude":"123.55E"}
{"date":"2010-02-01","average_temperature":"20.996","city":"Sherpur","latitude":"24.92N","longitude":"90.44E"}
{"date":"2012-06-01","average_temperature":"26.483","city":"Shillong","latitude":"24.92N","longitude":"92.22E"}
{"date":"2011-04-01","average_temperature":"22.703000000000003","city":"Shilong","latitude":"23.31N","longitude":"114.47E"}
{"date":"2011-01-01","average_temperature":"-3.614","city":"Sibiu","latitude":"45.81N","longitude":"24.23E"}
{"date":"2011-06-01","average_temperature":"19.339000000000002","city":"Simi Valley","latitude":"34.56N","longitude":"118.70W"}
{"date":"2013-06-01","average_temperature":"14.698","city":"Slough","latitude":"52.24N","longitude":"0.00W"}
{"date":"2012-06-01","average_temperature":"29.160999999999998","city":"Soc Trang","latitude":"8.84N","longitude":"106.22E"}
{"date":"2010-01-01","average_temperature":"0.8280000000000001","city":"Sochi","latitude":"44.20N","longitude":"40.25E"}
{"date":"2010-01-01","average_temperature":"21.237","city":"Sogamoso","latitude":"5.63N","longitude":"72.65W"}
{"date":"2011-08-01","average_temperature":"19.756","city":"Sogamoso","latitude":"5.63N","longitude":"72.65W"}
{"date":"2010-12-01","average_temperature":"-19.498","city":"Solikamsk","latitude":"60.27N","longitude":"58.38E"}
{"date":"2012-03-01","average_temperature":"23.516","city":"Sorocaba","latitude":"23.31S","longitude":"48.06W"}
{"date":"2012-06-01","average_temperature":"14.407","city":"Spokane","latitude":"47.42N","longitude":"117.24W"}
{"date":"2013-09-01","city":"Springs","latitude":"26.52S","longitude":"28.66E"}
{"date":"2010-05-01","average_temperature":"29.787","city":"Srikakulam","latitude":"18.48N","longitude":"84.51E"}
{"date":"2013-06-01","average_temperature":"18.253","city":"Stavropol","latitude":"44.20N","longitude":"42.48E"}
{"date":"2013-08-01","average_temperature":"20.968000000000004","city":"Sterling Heights","latitude":"42.59N","longitude":"82.91W"}
{"date":"2013-04-01","average_temperature":"15.995999999999999","city":"Stockton","latitude":"37.78N","longitude":"122.03W"}
{"date":"2013-03-01","average_temperature":"3.0730000000000004","city":"Stoke On Trent","latitude":"52.24N","longitude":"2.63W"}
{"date":"2013-01-01","average_temperature":"0.5409999999999999","city":"Stuttgart","latitude":"49.03N","longitude":"9.80E"}
{"date":"2010-06-01","average_temperature":"28.699","city":"Suez","latitude":"29.74N","longitude":"33.23E"}
{"date":"2012-11-01","average_temperature":"-7.9940000000000015","city":"Suihua","latitude":"47.42N","longitude":"126.71E"}
{"date":"2010-12-01","average_temperature":"-8.517000000000001","city":"Sujiatun","latitude":"40.99N","longitude":"123.55E"}
{"date":"2011-12-01","average_temperature":"16.445","city":"Sukkur","latitude":"28.13N","longitude":"68.18E"}
{"date":"2013-03-01","average_temperature":"20.374","city":"Sukkur","latitude":"28.13N","longitude":"68.18E"}
{"date":"2010-11-01","average_temperature":"10.458","city":"Sunrise Manor","latitude":"36.17N","longitude":"115.36W"}
{"date":"2013-04-01","average_temperature":"7.1979999999999995","city":"Swindon","latitude":"52.24N","longitude":"2.63W"}
{"date":"2012-05-01","average_temperature":"24.104","city":"Türkmenabat","latitude":"39.38N","longitude":"64.51E"}
{"date":"2011-11-01","average_temperature":"20.383","city":"Taboão Da Serra","latitude":"23.31S","longitude":"46.31W"}
{"date":"2012-05-01","average_temperature":"18.169","city":"Taboão Da Serra","latitude":"23.31S","longitude":"46.31W"}
{"date":"2013-02-01","average_temperature":"23.971999999999998","city":"Tabora","latitude":"5.63S","longitude":"32.29E"}
{"date":"2010-04-01","average_temperature":"21.393","city":"Tacna","latitude":"18.48S","longitude":"70.99W"}
{"date":"2011-03-01","average_temperature":"3.87","city":"Tacoma","latitude":"47.42N","longitude":"121.97W"}
{"date":"2011-04-01","average_temperature":"29.392000000000003","city":"Tadepallegudem","latitude":"16.87N","longitude":"82.05E"}
{"date":"2013-02-01","average_temperature":"16.325","city":"Taichung","latitude":"24.92N","longitude":"120.59E"}
{"date":"2011-09-01","average_temperature":"27.368","city":"Talkha","latitude":"31.35N","longitude":"32.04E"}
{"date":"2010-10-01","average_temperature":"21.651999999999997","city":"Tallahassee","latitude":"29.74N","longitude":"84.92W"}
{"date":"2013-08-01","average_temperature":"17.862000000000005","city":"Tallinn","latitude":"58.66N","longitude":"24.62E"}
{"date":"2010-12-01","average_temperature":"-11.023","city":"Tampere","latitude":"61.88N","longitude":"22.08E"}
{"date":"2012-04-01","average_temperature":"25.925","city":"Tampico","latitude":"21.70N","longitude":"97.79W"}
{"date":"2012-03-01","average_temperature":"27.883000000000003","city":"Tanza","latitude":"15.27N","longitude":"120.83E"}
{"date":"2010-05-01","average_temperature":"21.514","city":"Tarhunah","latitude":"32.95N","longitude":"14.36E"}
{"date":"2013-04-01","average_temperature":"27.151","city":"Tawau","latitude":"4.02N","longitude":"118.13E"}
{"date":"2012-05-01","average_temperature":"28.031999999999996","city":"Tebingtinggi","latitude":"4.02N","longitude":"98.84E"}
{"date":"2013-03-01","average_temperature":"27.081999999999997","city":"Tegal","latitude":"7.23S","longitude":"109.46E"}
{"date":"2013-08-01","average_temperature":"24.885","city":"Terrassa","latitude":"40.99N","longitude":"2.13E"}
{"date":"2012-04-01","average_temperature":"12.359000000000002","city":"Tighina","latitude":"47.42N","longitude":"29.61E"}
{"date":"2012-07-01","average_temperature":"25.164","city":"Tighina","latitude":"47.42N","longitude":"29.61E"}
{"date":"2012-04-01","average_temperature":"12.093","city":"Timisoara","latitude":"45.81N","longitude":"21.92E"}
{"date":"2013-09-01","city":"Tiruvottiyur","latitude":"13.66N","longitude":"80.09E"}
{"date":"2011-03-01","average_temperature":"16.922","city":"Tlalnepantla","latitude":"20.09N","longitude":"98.96W"}
{"date":"2012-04-01","average_temperature":"21.538","city":"Tlaquepaque","latitude":"20.09N","longitude":"104.08W"}
{"date":"2011-02-01","average_temperature":"3.734","city":"Tokorozawa","latitude":"36.17N","longitude":"139.23E"}
{"date":"2010-05-01","average_temperature":"9.962","city":"Tomakomai","latitude":"42.59N","longitude":"141.82E"}
{"date":"2010-10-01","average_temperature":"20.121","city":"Torreón","latitude":"24.92N","longitude":"102.86W"}
{"date":"2013-09-01","city":"Townsville","latitude":"18.48S","longitude":"147.04E"}
{"date":"2013-02-01","average_temperature":"4.9110000000000005","city":"Toyota","latitude":"34.56N","longitude":"136.22E"}
{"date":"2010-09-01","average_temperature":"27.500999999999998","city":"Tucheng","latitude":"24.92N","longitude":"120.59E"}
{"date":"2012-07-01","average_temperature":"30.75","city":"Tulsa","latitude":"36.17N","longitude":"95.47W"}
{"date":"2013-08-01","average_temperature":"27.003","city":"Turmero","latitude":"10.45N","longitude":"67.91W"}
{"date":"2011-08-01","average_temperature":"26.225","city":"Tuxtla Gutiérrez","latitude":"16.87N","longitude":"93.77W"}
{"date":"2013-03-01","average_temperature":"23.765","city":"Uberlândia","latitude":"18.48S","longitude":"49.01W"}
{"date":"2010-04-01","average_temperature":"30.852","city":"Udon Thani","latitude":"16.87N","longitude":"102.14E"}
{"date":"2012-04-01","average_temperature":"28.877","city":"Udupi","latitude":"13.66N","longitude":"75.14E"}
{"date":"2011-07-01","average_temperature":"26.958000000000002","city":"Ujjain","latitude":"23.31N","longitude":"76.02E"}
{"date":"2013-03-01","average_temperature":"30.087","city":"Umm Durman","latitude":"15.27N","longitude":"32.50E"}
{"date":"2011-03-01","average_temperature":"27.156999999999996","city":"Urdaneta","latitude":"15.27N","longitude":"120.83E"}
{"date":"2010-12-01","average_temperature":"-15.522","city":"Ussuriysk","latitude":"44.20N","longitude":"131.93E"}
{"date":"2013-08-01","average_temperature":"18.025","city":"Utrecht","latitude":"52.24N","longitude":"5.26E"}
{"date":"2010-05-01","average_temperature":"13.849","city":"Vanadzor","latitude":"40.99N","longitude":"44.73E"}
{"date":"2011-10-01","average_temperature":"10.87","city":"Vancouver","latitude":"45.81N","longitude":"123.46W"}
{"date":"2012-04-01","average_temperature":"9.338","city":"Vancouver","latitude":"45.81N","longitude":"123.46W"}
{"date":"2010-05-01","average_temperature":"33.926","city":"Varanasi","latitude":"24.92N","longitude":"83.35E"}
{"date":"2010-12-01","average_temperature":"19.248","city":"Vereeniging","latitude":"26.52S","longitude":"28.66E"}
{"date":"2012-03-01","average_temperature":"19.097","city":"Verwoerdburg","latitude":"26.52S","longitude":"28.66E"}
{"date":"2011-04-01","average_temperature":"14.067","city":"Vicenza","latitude":"45.81N","longitude":"12.69E"}
{"date":"2012-03-01","average_temperature":"19.611","city":"Villa Nueva","latitude":"15.27N","longitude":"90.83W"}
{"date":"2010-02-01","average_temperature":"0.757","city":"Villeurbanne","latitude":"45.81N","longitude":"5.77E"}
{"date":"2012-02-01","average_temperature":"17.779999999999994","city":"Vina Del Mar","latitude":"32.95S","longitude":"71.81W"}
{"date":"2010-11-01","average_temperature":"24.51","city":"Virar","latitude":"20.09N","longitude":"73.36E"}
{"date":"2013-09-01","average_temperature":"24.186","city":"Visalia","latitude":"36.17N","longitude":"119.34W"}
{"date":"2012-10-01","average_temperature":"24.19","city":"Vitória","latitude":"20.09S","longitude":"40.95W"}
{"date":"2012-12-01","average_temperature":"21.328000000000007","city":"Vizianagaram","latitude":"18.48N","longitude":"82.82E"}
{"date":"2011-04-01","average_temperature":"32.615","city":"Wad Madani","latitude":"13.66N","longitude":"33.85E"}
{"date":"2013-06-01","average_temperature":"14.169","city":"Walsall","latitude":"52.24N","longitude":"2.63W"}
{"date":"2010-03-01","average_temperature":"10.205","city":"Wanxian","latitude":"31.35N","longitude":"109.32E"}
{"date":"2011-06-01","average_temperature":"23.731","city":"Washington","latitude":"39.38N","longitude":"76.99W"}
{"date":"2012-06-01","average_temperature":"19.482","city":"Weihai","latitude":"37.78N","longitude":"122.03E"}
{"date":"2010-01-01","average_temperature":"21.56","city":"Westonaria","latitude":"26.52S","longitude":"26.87E"}
{"date":"2013-09-01","average_temperature":"24.154","city":"Wichita","latitude":"37.78N","longitude":"97.63W"}
{"date":"2011-12-01","average_temperature":"2.628","city":"Wloclawek","latitude":"52.24N","longitude":"18.39E"}
{"date":"2011-06-01","average_temperature":"15.588","city":"Wollongong","latitude":"34.56S","longitude":"151.78E"}
{"date":"2013-08-01","average_temperature":"16.125999999999998","city":"Wollongong","latitude":"34.56S","longitude":"151.78E"}
{"date":"2012-07-01","average_temperature":"15.386","city":"Wolverhampton","latitude":"52.24N","longitude":"2.63W"}
{"date":"2011-04-01","average_temperature":"16.817","city":"Wuhu","latitude":"31.35N","longitude":"118.74E"}
{"date":"2013-07-01","average_temperature":"30.459","city":"Wuhu","latitude":"31.35N","longitude":"118.74E"}
{"date":"2011-11-01","average_temperature":"-6.562","city":"Wulanhaote","latitude":"45.81N","longitude":"121.15E"}
{"date":"2013-09-01","city":"Xiamen","latitude":"24.92N","longitude":"118.82E"}
{"date":"2012-10-01","average_temperature":"16.32","city":"Xiangfan","latitude":"32.95N","longitude":"112.02E"}
{"date":"2012-01-01","average_temperature":"3.4590000000000005","city":"Xiantao","latitude":"29.74N","longitude":"112.62E"}
{"date":"2013-08-01","average_temperature":"27.978","city":"Xintai","latitude":"36.17N","longitude":"117.35E"}
{"date":"2010-03-01","average_temperature":"8.691","city":"Xinyang","latitude":"32.95N","longitude":"113.94E"}
{"date":"2013-09-01","city":"Xinyang","latitude":"32.95N","longitude":"113.94E"}
{"date":"2010-07-01","average_temperature":"24.044","city":"Xuanhua","latitude":"40.99N","longitude":"115.03E"}
{"date":"2012-09-01","average_temperature":"20.317","city":"Xuchang","latitude":"34.56N","longitude":"112.86E"}
{"date":"2010-05-01","average_temperature":"16.337","city":"Yachiyo","latitude":"36.17N","longitude":"139.23E"}
{"date":"2010-10-01","average_temperature":"25.789","city":"Yamoussoukro","latitude":"7.23N","longitude":"5.68W"}
{"date":"2010-03-01","average_temperature":"9.771","city":"Yatsushiro","latitude":"32.95N","longitude":"131.17E"}
{"date":"2012-04-01","average_temperature":"14.867","city":"Yatsushiro","latitude":"32.95N","longitude":"131.17E"}
{"date":"2010-10-01","average_temperature":"24.537","city":"Yelahanka","latitude":"13.66N","longitude":"76.79E"}
{"date":"2012-04-01","average_temperature":"18.57","city":"Yichun","latitude":"28.13N","longitude":"113.64E"}
{"date":"2013-03-01","average_temperature":"13.027","city":"Yingzhong","latitude":"31.35N","longitude":"113.09E"}
{"date":"2013-08-01","average_temperature":"16.473","city":"York","latitude":"53.84N","longitude":"1.36W"}
{"date":"2011-12-01","average_temperature":"12.148","city":"Zacatecas","latitude":"23.31N","longitude":"102.23W"}
{"date":"2011-05-01","average_temperature":"15.219000000000001","city":"Zanjan","latitude":"36.17N","longitude":"47.73E"}
{"date":"2010-03-01","average_temperature":"-2.0369999999999995","city":"Zelenograd","latitude":"55.45N","longitude":"36.85E"}
{"date":"2012-08-01","average_temperature":"22.414","city":"Zenica","latitude":"44.20N","longitude":"17.89E"}
{"date":"2010-07-01","average_temperature":"27.660999999999998","city":"Zhangdian","latitude":"36.17N","longitude":"117.35E"}
{"date":"2011-04-01","average_temperature":"15.3","city":"Zhenjiang","latitude":"32.95N","longitude":"119.68E"}
{"date":"2013-06-01","average_temperature":"20.511999999999997","city":"Zhoucheng","latitude":"24.92N","longitude":"102.86E"}
{"date":"2011-06-01","average_temperature":"26.634","city":"Zhoukou","latitude":"32.95N","longitude":"113.94E"}
{"date":"2011-06-01","average_temperature":"23.465999999999998","city":"Zhucheng","latitude":"36.17N","longitude":"119.34E"}
{"date":"2013-01-01","average_temperature":"4.079","city":"Zhuji","latitude":"29.74N","longitude":"120.00E"}
{"date":"2013-06-01","average_temperature":"17.921999999999993","city":"Zielona Gora","latitude":"52.24N","longitude":"15.77E"}
{"date":"2011-09-01","average_temperature":"19.567999999999998","city":"Zouxian","latitude":"36.17N","longitude":"117.35E"}
