{"date":"2010-03-01","average_temperature":"8.118","city":"Çorlu","latitude":"40.99N","longitude":"27.69E"}
{"date":"2011-04-01","average_temperature":"9.92","city":"Aalborg","latitude":"57.05N","longitude":"10.33E"}
{"date":"2011-11-01","average_temperature":"6.9529999999999985","city":"Aalborg","latitude":"57.05N","longitude":"10.33E"}
{"date":"2011-03-01","average_temperature":"29.918000000000003","city":"Aba","latitude":"5.63N","longitude":"8.07E"}
{"date":"2010-04-01","average_temperature":"29.561999999999998","city":"Abakaliki","latitude":"5.63N","longitude":"8.07E"}
{"date":"2013-09-01","city":"Abakaliki","latitude":"5.63N","longitude":"8.07E"}
{"date":"2010-03-01","average_temperature":"29.925","city":"Abeokuta","latitude":"7.23N","longitude":"4.05E"}
{"date":"2010-04-01","average_temperature":"28.517","city":"Acarigua","latitude":"8.84N","longitude":"68.92W"}
{"date":"2012-10-01","average_temperature":"26.209","city":"Achalpur","latitude":"21.70N","longitude":"77.02E"}
{"date":"2010-01-01","average_temperature":"7.747999999999999","city":"Acuña","latitude":"29.74N","longitude":"101.54W"}
{"date":"2013-01-01","average_temperature":"9.699","city":"Acuña","latitude":"29.74N","longitude":"101.54W"}
{"date":"2012-07-01","average_temperature":"10.699000000000002","city":"Adelaide","latitude":"34.56S","longitude":"138.16E"}
{"date":"2010-07-01","average_temperature":"28.175","city":"Adilabad","latitude":"20.09N","longitude":"78.48E"}
{"date":"2012-06-01","average_temperature":"26.622","city":"Adiwerna","latitude":"7.23S","longitude":"109.46E"}
{"date":"2013-05-01","average_temperature":"33.602000000000004","city":"Adoni","latitude":"15.27N","longitude":"77.50E"}
{"date":"2013-01-01","average_temperature":"2.121","city":"Afyonkarahisar","latitude":"39.38N","longitude":"31.21E"}
{"date":"2011-03-01","average_temperature":"3.985","city":"Aksu","latitude":"40.99N","longitude":"80.95E"}
{"date":"2012-01-01","average_temperature":"-4.4430000000000005","city":"Aktau","latitude":"44.20N","longitude":"51.43E"}
{"date":"2012-02-01","average_temperature":"26.791","city":"Alandur","latitude":"13.66N","longitude":"80.09E"}
{"date":"2012-09-01","average_temperature":"26.963","city":"Alappuzha","latitude":"8.84N","longitude":"77.03E"}
{"date":"2013-07-01","average_temperature":"23.605","city":"Alcorcón","latitude":"40.99N","longitude":"4.26W"}
{"date":"2011-02-01","average_temperature":"8.246","city":"Aleppo","latitude":"36.17N","longitude":"37.79E"}
{"date":"2011-12-01","average_temperature":"4.8100000000000005","city":"Alexandria","latitude":"39.38N","longitude":"76.99W"}
{"date":"2012-03-01","average_temperature":"12.379","city":"Algiers","latitude":"36.17N","longitude":"3.98E"}
{"date":"2010-02-01","average_temperature":"10.056000000000001","city":"Amadora","latitude":"39.38N","longitude":"8.32W"}
{"date":"2011-08-01","average_temperature":"30.647","city":"Amarillo","latitude":"34.56N","longitude":"101.19W"}
{"date":"2013-05-01","average_temperature":"32.963","city":"Amritsar","latitude":"31.35N","longitude":"75.39E"}
{"date":"2013-01-01","average_temperature":"26.188000000000002","city":"Anaco","latitude":"8.84N","longitude":"64.05W"}
{"date":"2012-05-01","average_temperature":"32.954","city":"Anantapur","latitude":"15.27N","longitude":"77.50E"}
{"date":"2012-06-01","average_temperature":"10.101","city":"Anchorage","latitude":"61.88N","longitude":"151.13W"}
{"date":"2013-02-01","average_temperature":"4.325","city":"Ankara","latitude":"39.38N","longitude":"33.29E"}
{"date":"2010-11-01","average_temperature":"8.148","city":"Anqiu","latitude":"36.17N","longitude":"119.34E"}
{"date":"2013-05-01","average_temperature":"18.94","city":"Anshun","latitude":"26.52N","longitude":"105.67E"}
{"date":"2012-06-01","average_temperature":"14.702","city":"Apeldoorn","latitude":"52.24N","longitude":"5.26E"}
{"date":"2010-08-01","average_temperature":"24.218000000000004","city":"Aracaju","latitude":"10.45S","longitude":"36.82W"}
{"date":"2011-10-01","average_temperature":"26.035","city":"Aracaju","latitude":"10.45S","longitude":"36.82W"}
{"date":"2012-01-01","average_temperature":"2.4930000000000003","city":"Arak","latitude":"34.56N","longitude":"50.59E"}
{"date":"2012-02-01","average_temperature":"22.699","city":"Araucária","latitude":"24.92S","longitude":"49.66W"}
{"date":"2012-09-01","average_temperature":"20.312","city":"Arequipa","latitude":"16.87S","longitude":"72.00W"}
{"date":"2013-09-01","city":"Arequipa","latitude":"16.87S","longitude":"72.00W"}
{"date":"2010-03-01","average_temperature":"22.048000000000002","city":"Arica","latitude":"18.48S","longitude":"70.99W"}
{"date":"2010-12-01","average_temperature":"19.32","city":"Arica","latitude":"18.48S","longitude":"70.99W"}
{"date":"2012-05-01","average_temperature":"33.048","city":"Asansol","latitude":"23.31N","longitude":"86.50E"}
{"date":"2010-05-01","average_temperature":"19.196","city":"Asfi","latitude":"32.95N","longitude":"8.62W"}
{"date":"2011-02-01","average_temperature":"20.25","city":"Aswan","latitude":"23.31N","longitude":"32.33E"}
{"date":"2012-10-01","average_temperature":"14.171","city":"Auckland","latitude":"36.17S","longitude":"175.03E"}
{"date":"2011-01-01","average_temperature":"-2.604","city":"Aurora","latitude":"39.38N","longitude":"104.05W"}
{"date":"2011-08-01","average_temperature":"27.91","city":"Ayer Itam","latitude":"5.63N","longitude":"100.09E"}
{"date":"2011-09-01","average_temperature":"28.143","city":"Azare","latitude":"12.05N","longitude":"9.86E"}
{"date":"2012-08-01","average_temperature":"25.146","city":"Babakan","latitude":"7.23S","longitude":"107.84E"}
{"date":"2012-08-01","average_temperature":"26.755","city":"Babol","latitude":"36.17N","longitude":"51.71E"}
{"date":"2011-08-01","average_temperature":"27.26","city":"Bacolod","latitude":"10.45N","longitude":"123.55E"}
{"date":"2013-05-01","average_temperature":"27.680000000000003","city":"Baguio","latitude":"16.87N","longitude":"120.56E"}
{"date":"2012-11-01","average_temperature":"24.079","city":"Baleshwar","latitude":"21.70N","longitude":"87.40E"}
{"date":"2012-04-01","average_temperature":"26.956999999999997","city":"Balikpapan","latitude":"0.80S","longitude":"116.52E"}
{"date":"2011-01-01","average_temperature":"26.233","city":"Bandar Maharani","latitude":"2.41N","longitude":"102.05E"}
{"date":"2012-04-01","average_temperature":"26.998","city":"Bandar Penggaram","latitude":"2.41N","longitude":"103.66E"}
{"date":"2010-09-01","average_temperature":"26.23","city":"Bandundu","latitude":"4.02S","longitude":"16.88E"}
{"date":"2012-08-01","average_temperature":"25.542","city":"Bangalore","latitude":"12.05N","longitude":"77.26E"}
{"date":"2013-02-01","average_temperature":"26.691","city":"Bangui","latitude":"4.02N","longitude":"18.48E"}
{"date":"2011-04-01","average_temperature":"11.19","city":"Banja Luka","latitude":"44.20N","longitude":"17.89E"}
{"date":"2013-05-01","average_temperature":"31.956999999999997","city":"Bankura","latitude":"23.31N","longitude":"86.50E"}
{"date":"2011-02-01","average_temperature":"22.566","city":"Barakpur","latitude":"23.31N","longitude":"88.25E"}
{"date":"2011-10-01","average_temperature":"16.81","city":"Bari","latitude":"40.99N","longitude":"17.04E"}
{"date":"2010-02-01","average_temperature":"26.783","city":"Barinas","latitude":"8.84N","longitude":"70.54W"}
{"date":"2012-02-01","average_temperature":"-21.454","city":"Barnaul","latitude":"53.84N","longitude":"83.18E"}
{"date":"2013-01-01","average_temperature":"24.796","city":"Barquisimeto","latitude":"10.45N","longitude":"69.55W"}
{"date":"2010-01-01","average_temperature":"27.881999999999998","city":"Barranquilla","latitude":"10.45N","longitude":"74.45W"}
{"date":"2011-02-01","average_temperature":"25.575","city":"Baturaja","latitude":"4.02S","longitude":"103.66E"}
{"date":"2010-04-01","average_temperature":"25.419","city":"Beira","latitude":"20.09S","longitude":"34.12E"}
{"date":"2012-02-01","average_temperature":"27.364","city":"Beira","latitude":"20.09S","longitude":"34.12E"}
{"date":"2011-12-01","average_temperature":"24.287","city":"Belford Roxo","latitude":"23.31S","longitude":"42.82W"}
{"date":"2011-05-01","average_temperature":"12.193","city":"Benoni","latitude":"26.52S","longitude":"28.66E"}
{"date":"2013-04-01","average_temperature":"13.6","city":"Beppu","latitude":"32.95N","longitude":"131.17E"}
{"date":"2011-03-01","average_temperature":"7.1339999999999995","city":"Besançon","latitude":"47.42N","longitude":"5.92E"}
{"date":"2013-08-01","average_temperature":"18.424","city":"Besançon","latitude":"47.42N","longitude":"5.92E"}
{"date":"2011-06-01","average_temperature":"25.359","city":"Bhadravati","latitude":"13.66N","longitude":"75.14E"}
{"date":"2010-04-01","average_temperature":"32.616","city":"Bharuch","latitude":"21.70N","longitude":"73.56E"}
{"date":"2011-11-01","average_temperature":"23.25","city":"Bhilai","latitude":"21.70N","longitude":"82.21E"}
{"date":"2012-11-01","average_temperature":"22.976","city":"Bhiwandi","latitude":"20.09N","longitude":"73.36E"}
{"date":"2010-11-01","average_temperature":"25.494","city":"Bhubaneswar","latitude":"20.09N","longitude":"85.31E"}
{"date":"2012-09-01","average_temperature":"13.728","city":"Bialystok","latitude":"53.84N","longitude":"23.18E"}
{"date":"2010-01-01","average_temperature":"-2.3070000000000004","city":"Bielefeld","latitude":"52.24N","longitude":"7.88E"}
{"date":"2013-06-01","average_temperature":"8.779","city":"Bloemfontein","latitude":"29.74S","longitude":"25.85E"}
{"date":"2012-09-01","average_temperature":"27.189","city":"Bobo Dioulasso","latitude":"10.45N","longitude":"4.09W"}
{"date":"2013-08-01","average_temperature":"16.473","city":"Bolton","latitude":"53.84N","longitude":"1.36W"}
{"date":"2013-04-01","average_temperature":"26.628","city":"Boma","latitude":"5.63S","longitude":"12.91E"}
{"date":"2011-05-01","average_temperature":"14.637","city":"Bonn","latitude":"50.63N","longitude":"6.34E"}
{"date":"2010-04-01","average_temperature":"21.304000000000002","city":"Botucatu","latitude":"23.31S","longitude":"48.06W"}
{"date":"2013-06-01","average_temperature":"22.230999999999998","city":"Braila","latitude":"45.81N","longitude":"28.85E"}
{"date":"2010-12-01","average_temperature":"23.141","city":"Brasília","latitude":"15.27S","longitude":"47.50W"}
{"date":"2011-07-01","average_temperature":"20.073","city":"Brasov","latitude":"45.81N","longitude":"26.54E"}
{"date":"2013-06-01","average_temperature":"18.517","city":"Brasov","latitude":"45.81N","longitude":"26.54E"}
{"date":"2011-01-01","average_temperature":"2.9339999999999997","city":"Breda","latitude":"52.24N","longitude":"5.26E"}
{"date":"2012-06-01","average_temperature":"14.702","city":"Breda","latitude":"52.24N","longitude":"5.26E"}
{"date":"2013-06-01","average_temperature":"18.69","city":"Brest","latitude":"52.24N","longitude":"23.65E"}
{"date":"2013-07-01","average_temperature":"28.834","city":"Brikama","latitude":"13.66N","longitude":"17.34W"}
{"date":"2013-07-01","average_temperature":"17.302","city":"Brisbane","latitude":"28.13S","longitude":"153.64E"}
{"date":"2012-11-01","average_temperature":"6.351","city":"Bristol","latitude":"52.24N","longitude":"2.63W"}
{"date":"2011-02-01","average_temperature":"16.407","city":"Brownsville","latitude":"26.52N","longitude":"96.72W"}
{"date":"2011-05-01","average_temperature":"24.962","city":"Brownsville","latitude":"26.52N","longitude":"96.72W"}
{"date":"2013-06-01","average_temperature":"28.011","city":"Brownsville","latitude":"26.52N","longitude":"96.72W"}
{"date":"2013-06-01","average_temperature":"15.965","city":"Brunswick","latitude":"52.24N","longitude":"10.51E"}
{"date":"2011-05-01","average_temperature":"16.471","city":"Budapest","latitude":"47.42N","longitude":"20.13E"}
{"date":"2013-04-01","average_temperature":"12.315999999999999","city":"Budapest","latitude":"47.42N","longitude":"20.13E"}
{"date":"2010-04-01","average_temperature":"28.691","city":"Bugama","latitude":"4.02N","longitude":"7.23E"}
{"date":"2012-09-01","average_temperature":"33.459","city":"Buraydah","latitude":"26.52N","longitude":"44.78E"}
{"date":"2011-11-01","average_temperature":"23.546","city":"Burhanpur","latitude":"21.70N","longitude":"77.02E"}
{"date":"2012-01-01","average_temperature":"22.017","city":"Butembo","latitude":"0.80N","longitude":"29.73E"}
{"date":"2012-03-01","average_temperature":"27.883000000000003","city":"Cainta","latitude":"15.27N","longitude":"120.83E"}
{"date":"2012-09-01","average_temperature":"14.722999999999999","city":"Calama","latitude":"23.31S","longitude":"69.03W"}
{"date":"2010-02-01","average_temperature":"-6.718","city":"Calgary","latitude":"50.63N","longitude":"112.82W"}
{"date":"2013-07-01","average_temperature":"24.686","city":"Camaçari","latitude":"12.05S","longitude":"37.81W"}
{"date":"2010-06-01","average_temperature":"29.416999999999998","city":"Campeche","latitude":"20.09N","longitude":"90.43W"}
{"date":"2010-04-01","average_temperature":"26.649","city":"Campina Grande","latitude":"7.23S","longitude":"36.49W"}
{"date":"2011-03-01","average_temperature":"26.158","city":"Campos","latitude":"21.70S","longitude":"40.67W"}
{"date":"2011-04-01","average_temperature":"25.95","city":"Cap Haïtien","latitude":"20.09N","longitude":"71.66W"}
{"date":"2013-04-01","average_temperature":"23.621","city":"Cariacica","latitude":"20.09S","longitude":"40.95W"}
{"date":"2011-10-01","average_temperature":"21.276999999999997","city":"Cartagena","latitude":"37.78N","longitude":"0.00W"}
{"date":"2013-05-01","average_temperature":"22.328000000000003","city":"Cartago","latitude":"4.02N","longitude":"76.34W"}
{"date":"2013-06-01","average_temperature":"26.59","city":"Castanhal","latitude":"0.80S","longitude":"47.41W"}
{"date":"2010-05-01","average_temperature":"20.654000000000003","city":"Catanduva","latitude":"21.70S","longitude":"49.33W"}
{"date":"2012-05-01","average_temperature":"20.721","city":"Catanduva","latitude":"21.70S","longitude":"49.33W"}
{"date":"2013-06-01","average_temperature":"31.468000000000004","city":"Chandausi","latitude":"28.13N","longitude":"79.09E"}
{"date":"2012-05-01","average_temperature":"30.202","city":"Chandpur","latitude":"23.31N","longitude":"90.00E"}
{"date":"2012-09-01","average_temperature":"22.791999999999998","city":"Changde","latitude":"28.13N","longitude":"111.82E"}
{"date":"2010-08-01","average_temperature":"16.27","city":"Chapecó","latitude":"26.52S","longitude":"53.73W"}
{"date":"2012-10-01","average_temperature":"10.984000000000002","city":"Charleroi","latitude":"50.63N","longitude":"3.80E"}
{"date":"2011-08-01","average_temperature":"16.484","city":"Chelmsford","latitude":"52.24N","longitude":"0.00W"}
{"date":"2010-10-01","average_temperature":"7.383000000000001","city":"Chemnitz","latitude":"50.63N","longitude":"13.94E"}
{"date":"2010-06-01","average_temperature":"21.31","city":"Cherkasy","latitude":"49.03N","longitude":"31.84E"}
{"date":"2011-11-01","average_temperature":"1.6829999999999998","city":"Chernihiv","latitude":"52.24N","longitude":"31.53E"}
{"date":"2011-02-01","average_temperature":"8.491","city":"Chesapeake","latitude":"36.17N","longitude":"75.58W"}
{"date":"2011-07-01","average_temperature":"29.211","city":"Chhatarpur","latitude":"24.92N","longitude":"79.80E"}
{"date":"2012-01-01","average_temperature":"15.219","city":"Chhatarpur","latitude":"24.92N","longitude":"79.80E"}
{"date":"2011-04-01","average_temperature":"30.271","city":"Chhindwara","latitude":"21.70N","longitude":"78.75E"}
{"date":"2013-05-01","average_temperature":"13.734000000000002","city":"Chicago","latitude":"42.59N","longitude":"87.27W"}
{"date":"2013-08-01","average_temperature":"22.793000000000003","city":"Chihuahua","latitude":"28.13N","longitude":"106.36W"}
{"date":"2011-06-01","average_temperature":"18.901","city":"Chimalhuacán","latitude":"20.09N","longitude":"98.96W"}
{"date":"2010-04-01","average_temperature":"32.910000000000004","city":"Chittaurgarh","latitude":"24.92N","longitude":"74.48E"}
{"date":"2013-03-01","average_temperature":"22.051","city":"Chitungwiza","latitude":"18.48S","longitude":"30.42E"}
{"date":"2012-12-01","average_temperature":"13.965","city":"Christchurch","latitude":"44.20S","longitude":"172.17E"}
{"date":"2011-02-01","average_temperature":"18.159000000000002","city":"Churu","latitude":"28.13N","longitude":"75.45E"}
{"date":"2010-12-01","average_temperature":"24.951","city":"Ciamis","latitude":"7.23S","longitude":"107.84E"}
{"date":"2012-12-01","average_temperature":"25.456","city":"Ciamis","latitude":"7.23S","longitude":"107.84E"}
{"date":"2011-05-01","average_temperature":"26.985","city":"Ciampea","latitude":"7.23S","longitude":"106.22E"}
{"date":"2012-07-01","average_temperature":"26.214000000000002","city":"Ciampea","latitude":"7.23S","longitude":"106.22E"}
{"date":"2011-02-01","average_temperature":"23.838","city":"Ciego De Ávila","latitude":"21.70N","longitude":"78.75W"}
{"date":"2013-02-01","average_temperature":"25.167","city":"Ciudad Guayana","latitude":"8.84N","longitude":"62.43W"}
{"date":"2010-12-01","average_temperature":"15.065","city":"Ciudad Valles","latitude":"21.70N","longitude":"99.52W"}
{"date":"2012-10-01","average_temperature":"22.456000000000003","city":"Colima","latitude":"20.09N","longitude":"104.08W"}
{"date":"2012-08-01","average_temperature":"18.959","city":"Cologne","latitude":"50.63N","longitude":"6.34E"}
{"date":"2011-09-01","average_temperature":"22.015","city":"Conselheiro Lafaiete","latitude":"20.09S","longitude":"44.36W"}
{"date":"2013-01-01","average_temperature":"23.094","city":"Conselheiro Lafaiete","latitude":"20.09S","longitude":"44.36W"}
{"date":"2011-08-01","average_temperature":"21.756999999999998","city":"Contagem","latitude":"20.09S","longitude":"44.36W"}
{"date":"2012-02-01","average_temperature":"-0.728","city":"Copenhagen","latitude":"55.45N","longitude":"11.34E"}
{"date":"2010-10-01","average_temperature":"13.08","city":"Coquimbo","latitude":"29.74S","longitude":"72.00W"}
{"date":"2012-02-01","average_temperature":"17.506999999999998","city":"Coquimbo","latitude":"29.74S","longitude":"72.00W"}
{"date":"2010-09-01","average_temperature":"19.95","city":"Corona","latitude":"32.95N","longitude":"117.77W"}
{"date":"2012-12-01","average_temperature":"25.221999999999998","city":"Cuddapah","latitude":"15.27N","longitude":"79.17E"}
{"date":"2013-02-01","average_temperature":"18.344","city":"Curico","latitude":"34.56S","longitude":"72.00W"}
{"date":"2010-10-01","average_temperature":"26.32","city":"Curug","latitude":"5.63S","longitude":"106.55E"}
{"date":"2013-07-01","average_temperature":"8.84","city":"Cusco","latitude":"13.66S","longitude":"71.83W"}
{"date":"2011-12-01","average_temperature":"22.099","city":"Da Lat","latitude":"12.05N","longitude":"108.49E"}
{"date":"2012-07-01","average_temperature":"34.666","city":"Dadu","latitude":"26.52N","longitude":"68.06E"}
{"date":"2012-06-01","average_temperature":"27.15","city":"Dakar","latitude":"15.27N","longitude":"17.50W"}
{"date":"2012-08-01","average_temperature":"17.475","city":"Dali","latitude":"26.52N","longitude":"100.30E"}
{"date":"2013-03-01","average_temperature":"12.543","city":"Dallas","latitude":"32.95N","longitude":"96.70W"}
{"date":"2013-07-01","average_temperature":"26.671999999999997","city":"Damoh","latitude":"23.31N","longitude":"79.51E"}
{"date":"2011-02-01","average_temperature":"-1.3049999999999995","city":"Dandong","latitude":"39.38N","longitude":"124.86E"}
{"date":"2012-01-01","average_temperature":"11.238","city":"Danshui","latitude":"23.31N","longitude":"114.47E"}
{"date":"2010-02-01","average_temperature":"26.138","city":"Dasmariñas","latitude":"13.66N","longitude":"121.38E"}
{"date":"2011-02-01","average_temperature":"-1.776","city":"Dasoguz","latitude":"40.99N","longitude":"59.64E"}
{"date":"2013-01-01","average_temperature":"12.585","city":"Dehra Dun","latitude":"29.74N","longitude":"77.54E"}
{"date":"2010-12-01","average_temperature":"24.498","city":"Delmas","latitude":"18.48N","longitude":"72.68W"}
{"date":"2012-02-01","average_temperature":"-2.33","city":"Denver","latitude":"39.38N","longitude":"104.05W"}
{"date":"2011-07-01","average_temperature":"34.003","city":"Dera Ismail Khan","latitude":"31.35N","longitude":"71.62E"}
{"date":"2010-07-01","average_temperature":"24.309","city":"Detroit","latitude":"42.59N","longitude":"82.91W"}
{"date":"2012-02-01","average_temperature":"2.7430000000000003","city":"Deyang","latitude":"31.35N","longitude":"103.66E"}
{"date":"2010-05-01","average_temperature":"31.695","city":"Dhanbad","latitude":"23.31N","longitude":"86.50E"}
{"date":"2011-07-01","average_temperature":"28.721999999999998","city":"Dhanbad","latitude":"23.31N","longitude":"86.50E"}
{"date":"2010-06-01","average_temperature":"24.13","city":"Dibrugarh","latitude":"28.13N","longitude":"95.45E"}
{"date":"2012-05-01","average_temperature":"14.972","city":"Didao","latitude":"45.81N","longitude":"130.38E"}
{"date":"2013-02-01","average_temperature":"-9.804","city":"Dimitrovgrad","latitude":"53.84N","longitude":"50.45E"}
{"date":"2011-10-01","average_temperature":"9.579","city":"Dingzhou","latitude":"39.38N","longitude":"114.45E"}
{"date":"2010-03-01","average_temperature":"5.551","city":"Dortmund","latitude":"52.24N","longitude":"7.88E"}
{"date":"2012-01-01","average_temperature":"9.103","city":"Dos Hermanas","latitude":"37.78N","longitude":"6.10W"}
{"date":"2010-10-01","average_temperature":"19.093","city":"Dos Quebradas","latitude":"5.63N","longitude":"75.87W"}
{"date":"2012-04-01","average_temperature":"4.654","city":"Dundee","latitude":"57.05N","longitude":"4.43W"}
{"date":"2010-11-01","average_temperature":"5.354","city":"Ebetsu","latitude":"42.59N","longitude":"141.82E"}
{"date":"2012-07-01","average_temperature":"24.444000000000006","city":"Ebina","latitude":"36.17N","longitude":"139.23E"}
{"date":"2012-12-01","average_temperature":"2.414","city":"Edinburgh","latitude":"55.45N","longitude":"2.83W"}
{"date":"2011-01-01","average_temperature":"27.29","city":"Ejigbo","latitude":"7.23N","longitude":"4.05E"}
{"date":"2013-04-01","average_temperature":"27.879","city":"Ejigbo","latitude":"7.23N","longitude":"4.05E"}
{"date":"2010-08-01","average_temperature":"25.831999999999997","city":"Elbasan","latitude":"40.99N","longitude":"19.17E"}
{"date":"2010-09-01","average_temperature":"28.336","city":"Eluru","latitude":"16.87N","longitude":"80.37E"}
{"date":"2010-12-01","average_temperature":"17.364","city":"Encheng","latitude":"21.70N","longitude":"111.63E"}
{"date":"2010-04-01","average_temperature":"29.218000000000004","city":"Erode","latitude":"12.05N","longitude":"77.26E"}
{"date":"2013-08-01","average_temperature":"23.173","city":"Eskisehir","latitude":"39.38N","longitude":"31.21E"}
{"date":"2011-09-01","average_temperature":"22.015","city":"Esmeraldas","latitude":"20.09S","longitude":"44.36W"}
{"date":"2010-08-01","average_temperature":"29.581999999999997","city":"Ezhou","latitude":"29.74N","longitude":"114.46E"}
{"date":"2011-05-01","average_temperature":"14.526","city":"Fairfield","latitude":"37.78N","longitude":"122.03W"}
{"date":"2011-11-01","average_temperature":"23.969","city":"Fengshan","latitude":"23.31N","longitude":"119.71E"}
{"date":"2011-07-01","average_temperature":"25.233","city":"Flint","latitude":"42.59N","longitude":"82.91W"}
{"date":"2011-11-01","average_temperature":"8.224","city":"Florence","latitude":"44.20N","longitude":"11.18E"}
{"date":"2013-03-01","average_temperature":"24.438000000000002","city":"Foz Do Iguaçu","latitude":"24.92S","longitude":"54.98W"}
{"date":"2013-03-01","average_temperature":"23.326","city":"Franca","latitude":"20.09S","longitude":"47.77W"}
{"date":"2010-02-01","average_temperature":"24.83","city":"Franco Da Rocha","latitude":"23.31S","longitude":"46.31W"}
{"date":"2012-06-01","average_temperature":"15.261","city":"Frankfurt","latitude":"50.63N","longitude":"8.87E"}
{"date":"2011-03-01","average_temperature":"4.699999999999998","city":"Freiburg","latitude":"47.42N","longitude":"8.29E"}
{"date":"2011-05-01","average_temperature":"16.147000000000002","city":"Fujimi","latitude":"36.17N","longitude":"139.23E"}
{"date":"2013-03-01","average_temperature":"12.194","city":"Fujinomiya","latitude":"34.56N","longitude":"138.16E"}
{"date":"2012-05-01","average_temperature":"16.669999999999998","city":"Fujisawa","latitude":"36.17N","longitude":"139.23E"}
{"date":"2010-01-01","average_temperature":"-12.665999999999999","city":"Fuxin","latitude":"42.59N","longitude":"122.18E"}
{"date":"2013-08-01","average_temperature":"28.023000000000003","city":"Gainesville","latitude":"29.74N","longitude":"83.08W"}
{"date":"2013-06-01","average_temperature":"31.701","city":"Gandhidham","latitude":"23.31N","longitude":"70.78E"}
{"date":"2011-06-01","average_temperature":"29.230999999999998","city":"Gardez","latitude":"32.95N","longitude":"69.89E"}
{"date":"2013-01-01","average_temperature":"25.076","city":"Garut","latitude":"7.23S","longitude":"107.84E"}
{"date":"2012-09-01","average_temperature":"17.288","city":"Gazni","latitude":"32.95N","longitude":"67.98E"}
{"date":"2011-02-01","average_temperature":"28.828000000000003","city":"Gbongan","latitude":"7.23N","longitude":"4.05E"}
{"date":"2010-07-01","average_temperature":"21.645","city":"Gdansk","latitude":"53.84N","longitude":"17.73E"}
{"date":"2012-10-01","average_temperature":"9.95","city":"Gelsenkirchen","latitude":"52.24N","longitude":"7.88E"}
{"date":"2012-10-01","average_temperature":"10.154","city":"Geneva","latitude":"45.81N","longitude":"5.77E"}
{"date":"2010-11-01","average_temperature":"4.324","city":"Gera","latitude":"50.63N","longitude":"11.41E"}
{"date":"2012-12-01","average_temperature":"16.759","city":"Ghazipur","latitude":"24.92N","longitude":"83.35E"}
{"date":"2013-01-01","average_temperature":"9.58","city":"Gilbert","latitude":"32.95N","longitude":"112.02W"}
{"date":"2010-05-01","average_temperature":"22.513","city":"Goiânia","latitude":"16.87S","longitude":"48.56W"}
{"date":"2013-02-01","average_temperature":"22.774","city":"Gold Coast","latitude":"28.13S","longitude":"153.64E"}
{"date":"2012-07-01","average_temperature":"21.8","city":"Gomel","latitude":"52.24N","longitude":"31.53E"}
{"date":"2013-04-01","average_temperature":"29.436999999999998","city":"Gonda","latitude":"26.52N","longitude":"82.39E"}
{"date":"2011-10-01","average_temperature":"9.241","city":"Gongzhuling","latitude":"44.20N","longitude":"125.22E"}
{"date":"2013-03-01","average_temperature":"-4.534","city":"Gongzhuling","latitude":"44.20N","longitude":"125.22E"}
{"date":"2012-09-01","average_temperature":"23.392","city":"Granada","latitude":"37.78N","longitude":"4.07W"}
{"date":"2013-07-01","average_temperature":"28.138","city":"Granada","latitude":"37.78N","longitude":"4.07W"}
{"date":"2010-09-01","average_temperature":"26.138","city":"Grand Prairie","latitude":"32.95N","longitude":"96.70W"}
{"date":"2013-08-01","average_temperature":"19.708","city":"Green Bay","latitude":"44.20N","longitude":"87.20W"}
{"date":"2010-01-01","average_temperature":"25.931","city":"Guacara","latitude":"10.45N","longitude":"67.91W"}
{"date":"2011-12-01","average_temperature":"18.062","city":"Guadalajara","latitude":"20.09N","longitude":"104.08W"}
{"date":"2012-04-01","average_temperature":"25.975","city":"Guarenas","latitude":"10.45N","longitude":"66.27W"}
{"date":"2013-08-01","average_temperature":"27.145","city":"Guna","latitude":"24.92N","longitude":"78.03E"}
{"date":"2010-11-01","average_temperature":"21.756999999999998","city":"Gurgaon","latitude":"28.13N","longitude":"77.27E"}
{"date":"2013-01-01","average_temperature":"-0.1629999999999998","city":"Gyor","latitude":"47.42N","longitude":"17.76E"}
{"date":"2013-05-01","average_temperature":"15.116","city":"Gyumri","latitude":"40.99N","longitude":"44.73E"}
{"date":"2011-01-01","average_temperature":"13.406000000000002","city":"Hòa Bình","latitude":"20.09N","longitude":"105.78E"}
{"date":"2013-02-01","average_temperature":"17.852999999999998","city":"Ha Noi","latitude":"21.70N","longitude":"106.44E"}
{"date":"2013-03-01","average_temperature":"21.111","city":"Ha Noi","latitude":"21.70N","longitude":"106.44E"}
{"date":"2010-02-01","average_temperature":"1.1819999999999995","city":"Haarlemmermeer","latitude":"52.24N","longitude":"5.26E"}
{"date":"2011-02-01","average_temperature":"3.734","city":"Hadano","latitude":"36.17N","longitude":"139.23E"}
{"date":"2010-01-01","average_temperature":"-8.475000000000001","city":"Haibowan","latitude":"39.38N","longitude":"106.13E"}
{"date":"2013-02-01","average_temperature":"-4.031000000000001","city":"Haibowan","latitude":"39.38N","longitude":"106.13E"}
{"date":"2010-05-01","average_temperature":"15.595999999999998","city":"Haicheng","latitude":"40.99N","longitude":"123.55E"}
{"date":"2012-08-01","average_temperature":"20.531999999999996","city":"Hailun","latitude":"47.42N","longitude":"126.71E"}
{"date":"2012-04-01","average_temperature":"8.009","city":"Halle","latitude":"50.63N","longitude":"11.41E"}
{"date":"2012-09-01","average_temperature":"13.690999999999999","city":"Halle","latitude":"50.63N","longitude":"11.41E"}
{"date":"2010-11-01","average_temperature":"14.043","city":"Hamamatsu","latitude":"34.56N","longitude":"138.16E"}
{"date":"2013-05-01","average_temperature":"18.707","city":"Hamamatsu","latitude":"34.56N","longitude":"138.16E"}
{"date":"2012-07-01","average_temperature":"22.796","city":"Hamilton","latitude":"42.59N","longitude":"80.73W"}
{"date":"2011-01-01","average_temperature":"0.955","city":"Hangzhou","latitude":"29.74N","longitude":"120.00E"}
{"date":"2010-05-01","average_temperature":"33.902","city":"Hardoi","latitude":"26.52N","longitude":"80.60E"}
{"date":"2010-09-01","average_temperature":"27.043000000000003","city":"Haridwar","latitude":"29.74N","longitude":"77.54E"}
{"date":"2010-03-01","average_temperature":"6.778","city":"Hartford","latitude":"40.99N","longitude":"72.43W"}
{"date":"2012-11-01","average_temperature":"23.851999999999997","city":"Hassan","latitude":"13.66N","longitude":"76.79E"}
{"date":"2010-05-01","average_temperature":"10.257","city":"Helsinki","latitude":"60.27N","longitude":"25.95E"}
{"date":"2013-09-01","city":"Helsinki","latitude":"60.27N","longitude":"25.95E"}
{"date":"2012-05-01","average_temperature":"22.575","city":"Hengyang","latitude":"26.52N","longitude":"112.84E"}
{"date":"2012-11-01","average_temperature":"23.851999999999997","city":"Hindupur","latitude":"13.66N","longitude":"76.79E"}
{"date":"2010-06-01","average_temperature":"22.649","city":"Hirakata","latitude":"34.56N","longitude":"136.22E"}
{"date":"2012-06-01","average_temperature":"29.055","city":"Ho Chi Minh City","latitude":"10.45N","longitude":"107.18E"}
{"date":"2013-01-01","average_temperature":"25.113000000000003","city":"Holguín","latitude":"20.09N","longitude":"76.78W"}
{"date":"2010-09-01","average_temperature":"28.261000000000006","city":"Hollywood","latitude":"26.52N","longitude":"80.60W"}
{"date":"2012-04-01","average_temperature":"23.115","city":"Hollywood","latitude":"26.52N","longitude":"80.60W"}
{"date":"2010-06-01","average_temperature":"27.959","city":"Hong Gai","latitude":"21.70N","longitude":"106.44E"}
{"date":"2012-03-01","average_temperature":"10.111","city":"Honghu","latitude":"29.74N","longitude":"112.62E"}
{"date":"2012-03-01","average_temperature":"-1.3030000000000002","city":"Horlivka","latitude":"49.03N","longitude":"39.18E"}
{"date":"2011-10-01","average_temperature":"25.783","city":"Hoshiarpur","latitude":"31.35N","longitude":"75.39E"}
{"date":"2012-04-01","average_temperature":"22.468000000000004","city":"Houston","latitude":"29.74N","longitude":"96.00W"}
{"date":"2013-06-01","average_temperature":"26.816999999999997","city":"Huangzhou","latitude":"29.74N","longitude":"114.46E"}
{"date":"2010-02-01","average_temperature":"23.072","city":"Hue","latitude":"16.87N","longitude":"107.16E"}
{"date":"2010-08-01","average_temperature":"29.266","city":"Huelva","latitude":"37.78N","longitude":"6.10W"}
{"date":"2013-06-01","average_temperature":"18.924","city":"Huixquilucan","latitude":"20.09N","longitude":"98.96W"}
{"date":"2011-04-01","average_temperature":"28.71","city":"Ibadan","latitude":"7.23N","longitude":"4.05E"}
{"date":"2010-12-01","average_temperature":"16.49","city":"Ibarra","latitude":"0.80N","longitude":"77.95W"}
{"date":"2013-02-01","average_temperature":"8.437000000000001","city":"Ichihara","latitude":"34.56N","longitude":"140.11E"}
{"date":"2011-04-01","average_temperature":"28.71","city":"Ife","latitude":"7.23N","longitude":"4.05E"}
{"date":"2011-04-01","average_temperature":"24.332","city":"Iguala","latitude":"18.48N","longitude":"99.72W"}
{"date":"2013-04-01","average_temperature":"24.152","city":"Iguala","latitude":"18.48N","longitude":"99.72W"}
{"date":"2012-02-01","average_temperature":"28.636000000000006","city":"Ikere","latitude":"7.23N","longitude":"5.68E"}
{"date":"2010-09-01","average_temperature":"25.625999999999998","city":"Ikorodu","latitude":"7.23N","longitude":"4.05E"}
{"date":"2010-01-01","average_temperature":"25.910999999999998","city":"Ilebo","latitude":"4.02S","longitude":"20.09E"}
{"date":"2010-11-01","average_temperature":"27.802","city":"Ilesha","latitude":"8.84N","longitude":"4.05E"}
{"date":"2011-12-01","average_temperature":"23.248","city":"Indaiatuba","latitude":"23.31S","longitude":"48.06W"}
{"date":"2012-12-01","average_temperature":"26.555999999999997","city":"Indramayu","latitude":"5.63S","longitude":"108.16E"}
{"date":"2013-04-01","average_temperature":"11.31","city":"Iruma","latitude":"36.17N","longitude":"139.23E"}
{"date":"2010-02-01","average_temperature":"13.774000000000001","city":"Irvine","latitude":"32.95N","longitude":"117.77W"}
{"date":"2013-06-01","average_temperature":"27.691","city":"Irving","latitude":"32.95N","longitude":"96.70W"}
{"date":"2011-10-01","average_temperature":"21.520000000000003","city":"Iskenderun","latitude":"36.17N","longitude":"35.80E"}
{"date":"2011-08-01","average_temperature":"20.090000000000003","city":"Itagüí","latitude":"5.63N","longitude":"75.87W"}
{"date":"2010-04-01","average_temperature":"22.394000000000002","city":"Itajaí","latitude":"26.52S","longitude":"48.36W"}
{"date":"2013-04-01","average_temperature":"22.546999999999997","city":"Itajaí","latitude":"26.52S","longitude":"48.36W"}
{"date":"2010-01-01","average_temperature":"24.112","city":"Itapetininga","latitude":"23.31S","longitude":"48.06W"}
{"date":"2011-10-01","average_temperature":"20.55","city":"Itapevi","latitude":"23.31S","longitude":"46.31W"}
{"date":"2010-06-01","average_temperature":"32.882","city":"Itarsi","latitude":"23.31N","longitude":"77.77E"}
{"date":"2012-09-01","average_temperature":"25.14","city":"Iwo","latitude":"7.23N","longitude":"4.05E"}
{"date":"2010-01-01","average_temperature":"11.856","city":"Izmir","latitude":"37.78N","longitude":"26.44E"}
{"date":"2011-06-01","average_temperature":"37.51","city":"Jacobabad","latitude":"28.13N","longitude":"68.18E"}
{"date":"2012-02-01","average_temperature":"13.159","city":"Jahrom","latitude":"28.13N","longitude":"53.64E"}
{"date":"2012-05-01","average_temperature":"25.406999999999996","city":"Jalpaiguri","latitude":"26.52N","longitude":"89.55E"}
{"date":"2012-12-01","average_temperature":"18.979","city":"Jamalpur","latitude":"24.92N","longitude":"90.44E"}
{"date":"2013-05-01","average_temperature":"27.795","city":"Jambi","latitude":"0.80S","longitude":"103.66E"}
{"date":"2010-07-01","average_temperature":"23.571","city":"Jammu","latitude":"32.95N","longitude":"75.64E"}
{"date":"2011-01-01","average_temperature":"3.262","city":"Jammu","latitude":"32.95N","longitude":"75.64E"}
{"date":"2012-11-01","average_temperature":"18.265","city":"Jaramana","latitude":"32.95N","longitude":"35.43E"}
{"date":"2011-12-01","average_temperature":"22.091","city":"Jetpur","latitude":"21.70N","longitude":"70.10E"}
{"date":"2011-03-01","average_temperature":"20.612","city":"Jhelum","latitude":"32.95N","longitude":"73.72E"}
{"date":"2010-05-01","average_temperature":"25.786","city":"Ji Paraná","latitude":"10.45S","longitude":"61.36W"}
{"date":"2011-02-01","average_temperature":"25.0","city":"Ji Paraná","latitude":"10.45S","longitude":"61.36W"}
{"date":"2011-11-01","average_temperature":"-5.846","city":"Jiamusi","latitude":"47.42N","longitude":"131.45E"}
{"date":"2013-08-01","average_temperature":"29.689","city":"Jian","latitude":"26.52N","longitude":"114.63E"}
{"date":"2010-01-01","average_temperature":"4.635","city":"Jiangyin","latitude":"31.35N","longitude":"120.63E"}
{"date":"2010-07-01","average_temperature":"27.474","city":"Jiangyou","latitude":"31.35N","longitude":"105.55E"}
{"date":"2011-03-01","average_temperature":"-4.523","city":"Jiaohe","latitude":"44.20N","longitude":"127.45E"}
{"date":"2012-02-01","average_temperature":"-0.6689999999999999","city":"Jiaozhou","latitude":"36.17N","longitude":"119.34E"}
{"date":"2010-02-01","average_temperature":"-10.722999999999999","city":"Jiayuguan","latitude":"39.38N","longitude":"97.80E"}
{"date":"2011-04-01","average_temperature":"4.117","city":"Jiayuguan","latitude":"39.38N","longitude":"97.80E"}
{"date":"2010-06-01","average_temperature":"26.168000000000003","city":"Jieshou","latitude":"32.95N","longitude":"115.85E"}
{"date":"2012-10-01","average_temperature":"17.672","city":"Jieshou","latitude":"32.95N","longitude":"115.85E"}
{"date":"2010-11-01","average_temperature":"27.498","city":"Jimeta","latitude":"8.84N","longitude":"12.16E"}
{"date":"2011-01-01","average_temperature":"24.316000000000006","city":"Jimeta","latitude":"8.84N","longitude":"12.16E"}
{"date":"2012-04-01","average_temperature":"31.913","city":"Jimeta","latitude":"8.84N","longitude":"12.16E"}
{"date":"2012-04-01","average_temperature":"21.82","city":"Jinchengjiang","latitude":"24.92N","longitude":"108.18E"}
{"date":"2010-09-01","average_temperature":"24.791","city":"Jinhua","latitude":"29.74N","longitude":"120.00E"}
{"date":"2013-06-01","average_temperature":"21.922","city":"Jinxi","latitude":"40.99N","longitude":"121.42E"}
{"date":"2011-08-01","average_temperature":"24.613000000000003","city":"Jinzhou","latitude":"40.99N","longitude":"121.42E"}
{"date":"2012-03-01","average_temperature":"-5.129","city":"Jishu","latitude":"44.20N","longitude":"127.45E"}
{"date":"2010-04-01","average_temperature":"4.335","city":"Jiutai","latitude":"44.20N","longitude":"125.22E"}
{"date":"2012-10-01","average_temperature":"5.101","city":"Jixi","latitude":"45.81N","longitude":"130.38E"}
{"date":"2013-07-01","average_temperature":"31.414","city":"Jodhpur","latitude":"26.52N","longitude":"73.43E"}
{"date":"2011-06-01","average_temperature":"8.582","city":"Johannesburg","latitude":"26.52S","longitude":"28.66E"}
{"date":"2010-10-01","average_temperature":"13.192","city":"Joliet","latitude":"40.99N","longitude":"87.34W"}
{"date":"2012-12-01","average_temperature":"23.458000000000002","city":"Jos","latitude":"10.45N","longitude":"9.00E"}
{"date":"2012-06-01","average_temperature":"26.307","city":"Juàzeiro","latitude":"8.84S","longitude":"39.73W"}
{"date":"2012-10-01","average_temperature":"28.441000000000006","city":"Juàzeiro","latitude":"8.84S","longitude":"39.73W"}
{"date":"2010-12-01","average_temperature":"26.918000000000006","city":"Juba","latitude":"4.02N","longitude":"31.34E"}
{"date":"2010-10-01","average_temperature":"15.011","city":"Jujuy","latitude":"24.92S","longitude":"65.62W"}
{"date":"2011-12-01","average_temperature":"22.091","city":"Junagadh","latitude":"21.70N","longitude":"70.10E"}
{"date":"2012-01-01","average_temperature":"21.566999999999997","city":"Jundiaí","latitude":"23.31S","longitude":"46.31W"}
{"date":"2010-04-01","average_temperature":"11.386","city":"Kütahya","latitude":"39.38N","longitude":"29.13E"}
{"date":"2011-05-01","average_temperature":"19.022000000000002","city":"Kadoma","latitude":"18.48S","longitude":"30.42E"}
{"date":"2013-04-01","average_temperature":"4.007","city":"Kaliningrad","latitude":"55.45N","longitude":"19.84E"}
{"date":"2010-09-01","average_temperature":"28.297","city":"Kalol","latitude":"23.31N","longitude":"72.52E"}
{"date":"2010-04-01","average_temperature":"13.765","city":"Kamakura","latitude":"34.56N","longitude":"140.11E"}
{"date":"2013-03-01","average_temperature":"-2.9850000000000003","city":"Kamyshin","latitude":"50.63N","longitude":"44.37E"}
{"date":"2011-06-01","average_temperature":"25.03","city":"Kananga","latitude":"5.63S","longitude":"22.60E"}
{"date":"2010-09-01","average_temperature":"29.536","city":"Kanchrapara","latitude":"23.31N","longitude":"88.25E"}
{"date":"2010-11-01","average_temperature":"7.774","city":"Kansas City","latitude":"39.38N","longitude":"93.64W"}
{"date":"2013-07-01","average_temperature":"31.119","city":"Karachi","latitude":"24.92N","longitude":"67.39E"}
{"date":"2011-05-01","average_temperature":"27.889","city":"Karawang","latitude":"5.63S","longitude":"106.55E"}
{"date":"2011-09-01","average_temperature":"27.916","city":"Karnal","latitude":"29.74N","longitude":"77.54E"}
{"date":"2011-09-01","average_temperature":"23.851000000000006","city":"Kasugai","latitude":"34.56N","longitude":"136.22E"}
{"date":"2010-05-01","average_temperature":"34.334","city":"Katsina","latitude":"13.66N","longitude":"7.43E"}
{"date":"2010-07-01","average_temperature":"28.377","city":"Katsina","latitude":"13.66N","longitude":"7.43E"}
{"date":"2012-05-01","average_temperature":"16.669999999999998","city":"Kawagoe","latitude":"36.17N","longitude":"139.23E"}
{"date":"2012-03-01","average_temperature":"0.956","city":"Kayseri","latitude":"39.38N","longitude":"35.38E"}
{"date":"2011-05-01","average_temperature":"27.515","city":"Kediri","latitude":"7.23S","longitude":"112.70E"}
{"date":"2012-05-01","average_temperature":"24.708000000000002","city":"Keelung","latitude":"24.92N","longitude":"122.36E"}
{"date":"2011-07-01","average_temperature":"29.129","city":"Kermanshah","latitude":"34.56N","longitude":"46.70E"}
{"date":"2013-09-01","city":"Khanna","latitude":"31.35N","longitude":"75.39E"}
{"date":"2010-05-01","average_temperature":"35.493","city":"Khartoum","latitude":"15.27N","longitude":"32.50E"}
{"date":"2011-10-01","average_temperature":"31.525","city":"Khartoum","latitude":"15.27N","longitude":"32.50E"}
{"date":"2012-08-01","average_temperature":"23.086","city":"Kherson","latitude":"47.42N","longitude":"31.97E"}
{"date":"2010-02-01","average_temperature":"28.76","city":"Khlong Luang","latitude":"13.66N","longitude":"99.91E"}
{"date":"2010-02-01","average_temperature":"-0.6020000000000001","city":"Khujand","latitude":"40.99N","longitude":"70.30E"}
{"date":"2013-09-01","average_temperature":"27.363000000000003","city":"Killeen","latitude":"31.35N","longitude":"98.01W"}
{"date":"2012-06-01","average_temperature":"20.945","city":"Kitakyushu","latitude":"34.56N","longitude":"130.38E"}
{"date":"2013-08-01","average_temperature":"28.025","city":"Kitakyushu","latitude":"34.56N","longitude":"130.38E"}
{"date":"2013-02-01","average_temperature":"-7.809000000000001","city":"Kitami","latitude":"44.20N","longitude":"143.11E"}
{"date":"2012-09-01","average_temperature":"27.456","city":"Klaten","latitude":"7.23S","longitude":"111.08E"}
{"date":"2010-11-01","average_temperature":"27.253","city":"Korhogo","latitude":"8.84N","longitude":"5.68W"}
{"date":"2010-08-01","average_temperature":"27.892","city":"Koronadal","latitude":"5.63N","longitude":"124.30E"}
{"date":"2011-01-01","average_temperature":"0.19000000000000014","city":"Koszalin","latitude":"53.84N","longitude":"15.00E"}
{"date":"2012-12-01","average_temperature":"19.158","city":"Kota","latitude":"24.92N","longitude":"76.26E"}
{"date":"2010-01-01","average_temperature":"26.787000000000006","city":"Kresek","latitude":"5.63S","longitude":"106.55E"}
{"date":"2012-11-01","average_temperature":"21.76","city":"Kulti","latitude":"23.31N","longitude":"86.50E"}
{"date":"2011-11-01","average_temperature":"-0.938","city":"Kursk","latitude":"52.24N","longitude":"36.79E"}
{"date":"2011-10-01","average_temperature":"17.774","city":"Kusatsu","latitude":"34.56N","longitude":"136.22E"}
{"date":"2010-12-01","average_temperature":"9.055","city":"Lárisa","latitude":"39.38N","longitude":"22.89E"}
{"date":"2011-05-01","average_temperature":"7.84","city":"La Paz","latitude":"16.87S","longitude":"68.65W"}
{"date":"2012-08-01","average_temperature":"27.387","city":"La Vega","latitude":"18.48N","longitude":"70.99W"}
{"date":"2011-01-01","average_temperature":"-3.6060000000000003","city":"Laiwu","latitude":"36.17N","longitude":"117.35E"}
{"date":"2013-09-01","city":"Laiwu","latitude":"36.17N","longitude":"117.35E"}
{"date":"2010-02-01","average_temperature":"18.987000000000002","city":"Lakhnau","latitude":"26.52N","longitude":"80.60E"}
{"date":"2011-08-01","average_temperature":"21.346999999999998","city":"Lansing","latitude":"42.59N","longitude":"85.09W"}
{"date":"2011-09-01","average_temperature":"16.276999999999994","city":"Lansing","latitude":"42.59N","longitude":"85.09W"}
{"date":"2010-03-01","average_temperature":"23.191999999999997","city":"Las Tunas","latitude":"21.70N","longitude":"77.02W"}
{"date":"2013-06-01","average_temperature":"28.180999999999997","city":"Latur","latitude":"18.48N","longitude":"76.06E"}
{"date":"2010-02-01","average_temperature":"4.678999999999999","city":"León","latitude":"42.59N","longitude":"6.55W"}
{"date":"2012-10-01","average_temperature":"11.671","city":"Le Havre","latitude":"49.03N","longitude":"0.00W"}
{"date":"2011-04-01","average_temperature":"11.12","city":"Leeds","latitude":"53.84N","longitude":"1.36W"}
{"date":"2012-08-01","average_temperature":"16.163","city":"Leeds","latitude":"53.84N","longitude":"1.36W"}
{"date":"2011-04-01","average_temperature":"10.255","city":"Legnica","latitude":"50.63N","longitude":"16.48E"}
{"date":"2012-04-01","average_temperature":"7.496","city":"Leicester","latitude":"52.24N","longitude":"0.00W"}
{"date":"2011-03-01","average_temperature":"5.917000000000001","city":"Leiden","latitude":"52.24N","longitude":"5.26E"}
{"date":"2012-08-01","average_temperature":"18.584","city":"Leipzig","latitude":"50.63N","longitude":"11.41E"}
{"date":"2011-01-01","average_temperature":"1.6079999999999997","city":"Leshan","latitude":"29.74N","longitude":"103.38E"}
{"date":"2011-11-01","average_temperature":"11.251","city":"Lianran","latitude":"24.92N","longitude":"102.86E"}
{"date":"2012-08-01","average_temperature":"21.804","city":"Likasi","latitude":"10.45S","longitude":"27.00E"}
{"date":"2013-08-01","average_temperature":"22.018","city":"Likasi","latitude":"10.45S","longitude":"27.00E"}
{"date":"2012-06-01","average_temperature":"23.92","city":"Linhai","latitude":"28.13N","longitude":"120.91E"}
{"date":"2011-01-01","average_temperature":"0.718","city":"Ljubljana","latitude":"45.81N","longitude":"15.00E"}
{"date":"2010-10-01","average_temperature":"4.61","city":"Longjing","latitude":"42.59N","longitude":"128.73E"}
{"date":"2012-09-01","average_temperature":"22.791999999999998","city":"Loudi","latitude":"28.13N","longitude":"111.82E"}
{"date":"2011-12-01","average_temperature":"4.022","city":"Luan","latitude":"31.35N","longitude":"116.86E"}
{"date":"2011-02-01","average_temperature":"26.607","city":"Luanda","latitude":"8.84S","longitude":"13.78E"}
{"date":"2011-04-01","average_temperature":"20.189","city":"Luchou","latitude":"24.92N","longitude":"120.59E"}
{"date":"2013-08-01","average_temperature":"27.215","city":"Luoyang","latitude":"34.56N","longitude":"112.86E"}
{"date":"2011-12-01","average_temperature":"5.707999999999999","city":"Luton","latitude":"52.24N","longitude":"0.00W"}
{"date":"2013-01-01","average_temperature":"14.773","city":"Luxor","latitude":"26.52N","longitude":"32.24E"}
{"date":"2011-10-01","average_temperature":"26.813","city":"Mabalacat","latitude":"15.27N","longitude":"120.83E"}
{"date":"2013-09-01","city":"Macaé","latitude":"21.70S","longitude":"42.40W"}
{"date":"2011-06-01","average_temperature":"25.465","city":"Maceió","latitude":"10.45S","longitude":"35.18W"}
{"date":"2013-08-01","average_temperature":"31.134","city":"Machilipatnam","latitude":"15.27N","longitude":"80.83E"}
{"date":"2010-04-01","average_temperature":"27.035","city":"Madiun","latitude":"7.23S","longitude":"111.08E"}
{"date":"2013-05-01","average_temperature":"29.575","city":"Madurai","latitude":"10.45N","longitude":"77.73E"}
{"date":"2010-08-01","average_temperature":"28.47","city":"Magangué","latitude":"8.84N","longitude":"75.41W"}
{"date":"2010-04-01","average_temperature":"35.165","city":"Maiduguri","latitude":"12.05N","longitude":"13.15E"}
{"date":"2010-04-01","average_temperature":"32.398","city":"Malakal","latitude":"8.84N","longitude":"31.62E"}
{"date":"2010-06-01","average_temperature":"34.624","city":"Maler Kotla","latitude":"29.74N","longitude":"75.69E"}
{"date":"2013-06-01","average_temperature":"26.874","city":"Manado","latitude":"0.80N","longitude":"124.55E"}
{"date":"2012-12-01","average_temperature":"3.809","city":"Manchester","latitude":"53.84N","longitude":"1.36W"}
{"date":"2010-01-01","average_temperature":"11.772","city":"Mandi Bahauddin","latitude":"32.95N","longitude":"73.72E"}
{"date":"2011-11-01","average_temperature":"19.954","city":"Mandi Bahauddin","latitude":"32.95N","longitude":"73.72E"}
{"date":"2013-02-01","average_temperature":"25.798000000000002","city":"Mandya","latitude":"12.05N","longitude":"77.26E"}
{"date":"2012-12-01","average_temperature":"24.974","city":"Maputo","latitude":"26.52S","longitude":"32.24E"}
{"date":"2013-09-01","city":"Marabá","latitude":"5.63S","longitude":"48.43W"}
{"date":"2012-01-01","average_temperature":"11.485999999999999","city":"Marseille","latitude":"42.59N","longitude":"6.55E"}
{"date":"2011-02-01","average_temperature":"6.0840000000000005","city":"Marv Dasht","latitude":"29.74N","longitude":"53.54E"}
{"date":"2012-03-01","average_temperature":"18.111","city":"Maseru","latitude":"29.74S","longitude":"27.69E"}
{"date":"2011-11-01","average_temperature":"22.749000000000002","city":"Matamoros","latitude":"26.52N","longitude":"96.72W"}
{"date":"2013-01-01","average_temperature":"23.909000000000002","city":"Matanzas","latitude":"23.31N","longitude":"81.26W"}
{"date":"2013-08-01","average_temperature":"27.55","city":"Matanzas","latitude":"23.31N","longitude":"81.26W"}
{"date":"2010-12-01","average_temperature":"26.904","city":"Mataram","latitude":"8.84S","longitude":"115.95E"}
{"date":"2011-10-01","average_temperature":"15.488","city":"Matsudo","latitude":"36.17N","longitude":"139.23E"}
{"date":"2013-06-01","average_temperature":"21.264","city":"Matsumoto","latitude":"36.17N","longitude":"137.24E"}
{"date":"2011-08-01","average_temperature":"29.226000000000006","city":"Mau","latitude":"26.52N","longitude":"84.18E"}
{"date":"2011-10-01","average_temperature":"18.591","city":"Medellín","latitude":"5.63N","longitude":"75.87W"}
{"date":"2012-07-01","average_temperature":"26.394","city":"Mejicanos","latitude":"13.66N","longitude":"90.00W"}
{"date":"2010-06-01","average_temperature":"8.767999999999999","city":"Melbourne","latitude":"37.78S","longitude":"144.41E"}
{"date":"2013-08-01","average_temperature":"27.054","city":"Mentougou","latitude":"39.38N","longitude":"116.53E"}
{"date":"2011-11-01","average_temperature":"15.991","city":"Messina","latitude":"37.78N","longitude":"16.27E"}
{"date":"2010-12-01","average_temperature":"17.683","city":"Metepec","latitude":"18.48N","longitude":"99.72W"}
{"date":"2012-10-01","average_temperature":"25.017","city":"Miami","latitude":"26.52N","longitude":"80.60W"}
{"date":"2010-08-01","average_temperature":"28.252","city":"Miandoab","latitude":"36.17N","longitude":"45.75E"}
{"date":"2013-07-01","average_temperature":"28.413","city":"Mianyang","latitude":"31.35N","longitude":"105.55E"}
{"date":"2011-05-01","average_temperature":"12.193","city":"Middelburg","latitude":"26.52S","longitude":"28.66E"}
{"date":"2010-10-01","average_temperature":"9.546","city":"Middlesbrough","latitude":"53.84N","longitude":"1.36W"}
{"date":"2010-04-01","average_temperature":"7.524999999999999","city":"Milan","latitude":"45.81N","longitude":"8.08E"}
{"date":"2011-11-01","average_temperature":"24.726","city":"Minatitlán","latitude":"18.48N","longitude":"94.65W"}
{"date":"2011-05-01","average_temperature":"22.108","city":"Mixco","latitude":"15.27N","longitude":"90.83W"}
{"date":"2012-07-01","average_temperature":"20.72","city":"Mixco","latitude":"15.27N","longitude":"90.83W"}
{"date":"2011-03-01","average_temperature":"21.528000000000002","city":"Moga","latitude":"31.35N","longitude":"75.39E"}
{"date":"2013-08-01","average_temperature":"27.113000000000003","city":"Mojokerto","latitude":"7.23S","longitude":"112.70E"}
{"date":"2011-08-01","average_temperature":"25.026","city":"Mombasa","latitude":"4.02S","longitude":"39.38E"}
{"date":"2011-08-01","average_temperature":"25.44","city":"Monrovia","latitude":"7.23N","longitude":"10.54W"}
{"date":"2012-01-01","average_temperature":"24.730999999999998","city":"Montevideo","latitude":"34.56S","longitude":"56.43W"}
{"date":"2010-10-01","average_temperature":"16.937","city":"Morelia","latitude":"20.09N","longitude":"100.66W"}
{"date":"2012-09-01","average_temperature":"24.467","city":"Moriguchi","latitude":"34.56N","longitude":"136.22E"}
{"date":"2011-08-01","average_temperature":"17.57","city":"Mulhouse","latitude":"47.42N","longitude":"8.29E"}
{"date":"2011-07-01","average_temperature":"29.566999999999997","city":"Munger","latitude":"24.92N","longitude":"86.90E"}
{"date":"2011-12-01","average_temperature":"-3.124","city":"Murom","latitude":"55.45N","longitude":"42.52E"}
{"date":"2011-10-01","average_temperature":"24.320999999999998","city":"Mwene Ditu","latitude":"7.23S","longitude":"23.51E"}
{"date":"2011-12-01","average_temperature":"19.32","city":"Nagda","latitude":"23.31N","longitude":"76.02E"}
{"date":"2011-07-01","average_temperature":"18.674","city":"Nakhodka","latitude":"42.59N","longitude":"133.09E"}
{"date":"2012-04-01","average_temperature":"5.29","city":"Nakhodka","latitude":"42.59N","longitude":"133.09E"}
{"date":"2013-05-01","average_temperature":"16.967","city":"Nakuru","latitude":"0.80S","longitude":"36.16E"}
{"date":"2010-10-01","average_temperature":"26.418000000000003","city":"Nalgonda","latitude":"16.87N","longitude":"78.70E"}
{"date":"2013-06-01","average_temperature":"29.487","city":"Nalgonda","latitude":"16.87N","longitude":"78.70E"}
{"date":"2011-05-01","average_temperature":"26.524","city":"Nam Dinh","latitude":"20.09N","longitude":"105.78E"}
{"date":"2011-07-01","average_temperature":"28.921","city":"Nam Dinh","latitude":"20.09N","longitude":"105.78E"}
{"date":"2010-12-01","average_temperature":"-0.96","city":"Namangan","latitude":"40.99N","longitude":"72.43E"}
{"date":"2010-09-01","average_temperature":"23.625","city":"Nanchong","latitude":"31.35N","longitude":"105.55E"}
{"date":"2011-07-01","average_temperature":"28.355","city":"Nandurbar","latitude":"21.70N","longitude":"73.56E"}
{"date":"2011-04-01","average_temperature":"16.817","city":"Nanjing","latitude":"31.35N","longitude":"118.74E"}
{"date":"2013-07-01","average_temperature":"22.668000000000003","city":"Naperville","latitude":"40.99N","longitude":"87.34W"}
{"date":"2013-06-01","average_temperature":"30.133000000000003","city":"Narayanganj","latitude":"23.31N","longitude":"90.00E"}
{"date":"2012-05-01","average_temperature":"19.717","city":"Naucalpan","latitude":"20.09N","longitude":"98.96W"}
{"date":"2013-01-01","average_temperature":"0.904","city":"Neuss","latitude":"50.63N","longitude":"6.34E"}
{"date":"2011-01-01","average_temperature":"-1.765","city":"New Haven","latitude":"40.99N","longitude":"72.43W"}
{"date":"2013-01-01","average_temperature":"22.919","city":"Newcastle","latitude":"32.95S","longitude":"152.23E"}
{"date":"2013-02-01","average_temperature":"21.357","city":"Newcastle","latitude":"32.95S","longitude":"152.23E"}
{"date":"2012-12-01","average_temperature":"2.3369999999999997","city":"Neyshabur","latitude":"36.17N","longitude":"59.67E"}
{"date":"2010-08-01","average_temperature":"28.173000000000002","city":"Niamey","latitude":"13.66N","longitude":"2.48E"}
{"date":"2012-12-01","average_temperature":"1.853","city":"Nice","latitude":"44.20N","longitude":"6.71E"}
{"date":"2012-09-01","average_temperature":"14.770999999999999","city":"Nigel","latitude":"26.52S","longitude":"28.66E"}
{"date":"2011-05-01","average_temperature":"23.752","city":"Nilópolis","latitude":"23.31S","longitude":"42.82W"}
{"date":"2013-02-01","average_temperature":"-8.918","city":"Nizhnekamsk","latitude":"55.45N","longitude":"51.02E"}
{"date":"2011-03-01","average_temperature":"26.099","city":"Nkongsamba","latitude":"5.63N","longitude":"9.69E"}
{"date":"2010-10-01","average_temperature":"26.686","city":"Nnewi","latitude":"5.63N","longitude":"6.46E"}
{"date":"2013-02-01","average_temperature":"5.691","city":"Nobeoka","latitude":"32.95N","longitude":"131.17E"}
{"date":"2013-07-01","average_temperature":"26.451","city":"Norfolk","latitude":"36.17N","longitude":"75.58W"}
{"date":"2010-10-01","average_temperature":"17.817","city":"Norman","latitude":"34.56N","longitude":"97.30W"}
{"date":"2012-01-01","average_temperature":"8.055","city":"North Las Vegas","latitude":"36.17N","longitude":"115.36W"}
{"date":"2011-05-01","average_temperature":"13.29","city":"Norwich","latitude":"52.24N","longitude":"0.00W"}
{"date":"2010-12-01","average_temperature":"-1.1570000000000005","city":"Nottingham","latitude":"53.84N","longitude":"1.36W"}
{"date":"2010-08-01","average_temperature":"27.385","city":"Novocherkassk","latitude":"47.42N","longitude":"39.08E"}
{"date":"2012-06-01","average_temperature":"18.308","city":"Novomoskovsk","latitude":"53.84N","longitude":"39.55E"}
{"date":"2013-02-01","average_temperature":"-16.069000000000003","city":"Novosibirsk","latitude":"55.45N","longitude":"82.20E"}
{"date":"2010-02-01","average_temperature":"-6.5150000000000015","city":"Nukus","latitude":"42.59N","longitude":"58.91E"}
{"date":"2013-04-01","average_temperature":"14.136","city":"Nukus","latitude":"42.59N","longitude":"58.91E"}
{"date":"2011-09-01","average_temperature":"25.13","city":"Nzérékoré","latitude":"7.23N","longitude":"8.92W"}
{"date":"2013-04-01","average_temperature":"28.047","city":"Obosi","latitude":"5.63N","longitude":"6.46E"}
{"date":"2013-07-01","average_temperature":"31.743000000000002","city":"Obregon","latitude":"28.13N","longitude":"110.00W"}
{"date":"2010-05-01","average_temperature":"10.642000000000001","city":"Offenbach","latitude":"50.63N","longitude":"8.87E"}
{"date":"2012-07-01","average_temperature":"17.558","city":"Offenbach","latitude":"50.63N","longitude":"8.87E"}
{"date":"2010-02-01","average_temperature":"1.87","city":"Oldham","latitude":"53.84N","longitude":"1.36W"}
{"date":"2012-05-01","average_temperature":"19.355","city":"Omuta","latitude":"32.95N","longitude":"131.17E"}
{"date":"2013-09-01","city":"Opobo","latitude":"4.02N","longitude":"7.23E"}
{"date":"2010-08-01","average_temperature":"19.062","city":"Opole","latitude":"50.63N","longitude":"19.01E"}
{"date":"2012-06-01","average_temperature":"20.787","city":"Oradea","latitude":"47.42N","longitude":"22.50E"}
{"date":"2011-01-01","average_temperature":"14.786","city":"Orange","latitude":"32.95N","longitude":"117.77W"}
{"date":"2012-11-01","average_temperature":"12.194","city":"Ordu","latitude":"40.99N","longitude":"38.34E"}
{"date":"2011-01-01","average_temperature":"-9.53","city":"Orekhovo Zuevo","latitude":"55.45N","longitude":"39.69E"}
{"date":"2012-03-01","average_temperature":"-4.013999999999999","city":"Orekhovo Zuevo","latitude":"55.45N","longitude":"39.69E"}
{"date":"2010-05-01","average_temperature":"26.474","city":"Orlando","latitude":"28.13N","longitude":"80.91W"}
{"date":"2011-11-01","average_temperature":"1.4740000000000002","city":"Oslo","latitude":"60.27N","longitude":"9.73E"}
{"date":"2012-01-01","average_temperature":"16.173000000000002","city":"Osorno","latitude":"40.99S","longitude":"72.43W"}
{"date":"2011-05-01","average_temperature":"16.147000000000002","city":"Ota","latitude":"36.17N","longitude":"139.23E"}
{"date":"2010-06-01","average_temperature":"16.509999999999998","city":"Otaru","latitude":"42.59N","longitude":"141.82E"}
{"date":"2011-03-01","average_temperature":"-3.821","city":"Ottawa","latitude":"45.81N","longitude":"75.00W"}
{"date":"2012-03-01","average_temperature":"31.238000000000003","city":"Otukpo","latitude":"7.23N","longitude":"8.92E"}
{"date":"2013-08-01","average_temperature":"24.514","city":"Overland Park","latitude":"39.38N","longitude":"93.64W"}
{"date":"2010-09-01","average_temperature":"17.593","city":"Oviedo","latitude":"42.59N","longitude":"6.55W"}
{"date":"2012-11-01","average_temperature":"27.413","city":"Owerri","latitude":"5.63N","longitude":"6.46E"}
{"date":"2010-12-01","average_temperature":"-0.024000000000000018","city":"Oxford","latitude":"52.24N","longitude":"0.00W"}
{"date":"2012-02-01","average_temperature":"3.7230000000000003","city":"Oxford","latitude":"52.24N","longitude":"0.00W"}
{"date":"2013-03-01","average_temperature":"29.531","city":"Oyo","latitude":"7.23N","longitude":"4.05E"}
{"date":"2013-08-01","average_temperature":"28.351000000000006","city":"Pak Kret","latitude":"13.66N","longitude":"99.91E"}
{"date":"2011-08-01","average_temperature":"26.453000000000003","city":"Pakokku","latitude":"21.70N","longitude":"94.33E"}
{"date":"2013-09-01","city":"Pakokku","latitude":"21.70N","longitude":"94.33E"}
{"date":"2012-12-01","average_temperature":"14.65","city":"Pakpattan","latitude":"29.74N","longitude":"73.85E"}
{"date":"2011-05-01","average_temperature":"35.034","city":"Pali","latitude":"26.52N","longitude":"73.43E"}
{"date":"2012-09-01","average_temperature":"23.239","city":"Palmira","latitude":"4.02N","longitude":"76.34W"}
{"date":"2012-05-01","average_temperature":"34.448","city":"Palwal","latitude":"28.13N","longitude":"77.27E"}
{"date":"2011-04-01","average_temperature":"27.654","city":"Pamulang","latitude":"5.63S","longitude":"106.55E"}
{"date":"2012-11-01","average_temperature":"3.8960000000000004","city":"Panevezys","latitude":"55.45N","longitude":"25.51E"}
{"date":"2011-01-01","average_temperature":"6.966","city":"Paradise","latitude":"36.17N","longitude":"115.36W"}
{"date":"2010-12-01","average_temperature":"6.916","city":"Parsabad","latitude":"39.38N","longitude":"47.86E"}
{"date":"2010-02-01","average_temperature":"24.816999999999997","city":"Passo Fundo","latitude":"28.13S","longitude":"51.82W"}
{"date":"2010-02-01","average_temperature":"-1.456","city":"Paterson","latitude":"40.99N","longitude":"74.56W"}
{"date":"2010-06-01","average_temperature":"25.845","city":"Paulista","latitude":"7.23S","longitude":"34.86W"}
{"date":"2011-05-01","average_temperature":"25.930999999999997","city":"Paulista","latitude":"7.23S","longitude":"34.86W"}
{"date":"2012-01-01","average_temperature":"26.448","city":"Pekalongan","latitude":"7.23S","longitude":"109.46E"}
{"date":"2012-03-01","average_temperature":"-5.459","city":"Perm","latitude":"58.66N","longitude":"55.38E"}
{"date":"2011-06-01","average_temperature":"30.269","city":"Peshawar","latitude":"34.56N","longitude":"72.00E"}
{"date":"2012-05-01","average_temperature":"24.055999999999997","city":"Peshawar","latitude":"34.56N","longitude":"72.00E"}
{"date":"2012-10-01","average_temperature":"21.873","city":"Phalaborwa","latitude":"23.31S","longitude":"30.58E"}
{"date":"2010-03-01","average_temperature":"29.791","city":"Phra Pradaeng","latitude":"13.66N","longitude":"99.91E"}
{"date":"2012-06-01","average_temperature":"29.13","city":"Phra Pradaeng","latitude":"13.66N","longitude":"99.91E"}
{"date":"2013-02-01","average_temperature":"23.807","city":"Pimpri","latitude":"18.48N","longitude":"74.37E"}
{"date":"2013-03-01","average_temperature":"26.849","city":"Pimpri","latitude":"18.48N","longitude":"74.37E"}
{"date":"2012-07-01","average_temperature":"23.049","city":"Ploiesti","latitude":"45.81N","longitude":"26.54E"}
{"date":"2013-01-01","average_temperature":"1.344","city":"Podgorica","latitude":"42.59N","longitude":"19.64E"}
{"date":"2011-09-01","average_temperature":"15.985999999999999","city":"Poole","latitude":"50.63N","longitude":"1.27W"}
{"date":"2013-03-01","average_temperature":"27.85","city":"Port Harcourt","latitude":"4.02N","longitude":"7.23E"}
{"date":"2010-10-01","average_temperature":"23.436999999999998","city":"Port Louis","latitude":"20.09S","longitude":"58.01E"}
{"date":"2012-10-01","average_temperature":"23.041999999999998","city":"Port Louis","latitude":"20.09S","longitude":"58.01E"}
{"date":"2012-06-01","average_temperature":"23.912","city":"Port Moresby","latitude":"8.84S","longitude":"146.76E"}
{"date":"2013-01-01","average_temperature":"26.371","city":"Port Moresby","latitude":"8.84S","longitude":"146.76E"}
{"date":"2012-11-01","average_temperature":"19.66","city":"Port Saint Lucie","latitude":"26.52N","longitude":"80.60W"}
{"date":"2012-04-01","average_temperature":"11.098","city":"Porto","latitude":"40.99N","longitude":"8.52W"}
{"date":"2010-11-01","average_temperature":"5.2829999999999995","city":"Potsdam","latitude":"52.24N","longitude":"13.14E"}
{"date":"2010-05-01","average_temperature":"15.269","city":"Prato","latitude":"44.20N","longitude":"11.18E"}
{"date":"2010-11-01","average_temperature":"26.476999999999997","city":"Pringsewu","latitude":"5.63S","longitude":"104.93E"}
{"date":"2012-02-01","average_temperature":"-18.975","city":"Prokopyevsk","latitude":"53.84N","longitude":"85.91E"}
{"date":"2010-11-01","average_temperature":"4.003","city":"Providence","latitude":"42.59N","longitude":"72.00W"}
{"date":"2013-04-01","average_temperature":"7.984","city":"Pueblo","latitude":"37.78N","longitude":"103.73W"}
{"date":"2012-11-01","average_temperature":"26.886999999999997","city":"Puerto Cabello","latitude":"10.45N","longitude":"67.91W"}
{"date":"2012-01-01","average_temperature":"21.774","city":"Puri","latitude":"20.09N","longitude":"85.31E"}
{"date":"2011-02-01","average_temperature":"16.938000000000002","city":"Purnia","latitude":"26.52N","longitude":"87.76E"}
{"date":"2010-11-01","average_temperature":"11.841","city":"Qandahar","latitude":"31.35N","longitude":"65.97E"}
{"date":"2013-01-01","average_temperature":"5.073","city":"Qarchak","latitude":"36.17N","longitude":"51.71E"}
{"date":"2010-07-01","average_temperature":"20.655","city":"Qostanay","latitude":"53.84N","longitude":"64.09E"}
{"date":"2011-06-01","average_temperature":"15.079","city":"Quebec","latitude":"47.42N","longitude":"72.24W"}
{"date":"2012-11-01","average_temperature":"14.712","city":"Quetta","latitude":"29.74N","longitude":"66.46E"}
{"date":"2012-04-01","average_temperature":"26.999000000000002","city":"Qui Nhon","latitude":"13.66N","longitude":"109.82E"}
{"date":"2010-03-01","average_temperature":"29.986","city":"Rabak","latitude":"13.66N","longitude":"32.20E"}
{"date":"2012-09-01","average_temperature":"23.268","city":"Rabat","latitude":"34.56N","longitude":"5.84W"}
{"date":"2010-12-01","average_temperature":"19.442999999999998","city":"Raigarh","latitude":"21.70N","longitude":"83.94E"}
{"date":"2011-08-01","average_temperature":"27.007","city":"Raipur","latitude":"21.70N","longitude":"82.21E"}
{"date":"2011-05-01","average_temperature":"30.871","city":"Rajkot","latitude":"21.70N","longitude":"70.10E"}
{"date":"2011-12-01","average_temperature":"19.000999999999998","city":"Rajshahi","latitude":"24.92N","longitude":"88.67E"}
{"date":"2013-09-01","city":"Rangkasbitung","latitude":"5.63S","longitude":"106.55E"}
{"date":"2010-04-01","average_temperature":"11.225999999999999","city":"Rasht","latitude":"37.78N","longitude":"48.81E"}
{"date":"2012-12-01","average_temperature":"0.02399999999999991","city":"Ratisbon","latitude":"49.03N","longitude":"12.24E"}
{"date":"2011-12-01","average_temperature":"5.232","city":"Recklinghausen","latitude":"52.24N","longitude":"7.88E"}
{"date":"2010-11-01","average_temperature":"26.879","city":"Rengasdengklok","latitude":"5.63S","longitude":"106.55E"}
{"date":"2011-07-01","average_temperature":"16.976","city":"Reutlingen","latitude":"49.03N","longitude":"9.80E"}
{"date":"2011-09-01","average_temperature":"28.374000000000002","city":"Rewa","latitude":"24.92N","longitude":"81.58E"}
{"date":"2012-08-01","average_temperature":"25.278000000000002","city":"Richmond","latitude":"37.78N","longitude":"77.29W"}
{"date":"2010-08-01","average_temperature":"37.551","city":"Riyadh","latitude":"24.92N","longitude":"46.11E"}
{"date":"2012-04-01","average_temperature":"29.340999999999998","city":"Rohtak","latitude":"28.13N","longitude":"77.27E"}
{"date":"2013-06-01","average_temperature":"19.338","city":"Rome","latitude":"42.59N","longitude":"13.09E"}
{"date":"2010-07-01","average_temperature":"21.391","city":"Rondonópolis","latitude":"16.87S","longitude":"55.26W"}
{"date":"2011-12-01","average_temperature":"3.61","city":"Rongcheng","latitude":"26.52N","longitude":"103.88E"}
{"date":"2013-07-01","average_temperature":"11.495","city":"Rosario","latitude":"32.95S","longitude":"60.32W"}
{"date":"2012-10-01","average_temperature":"13.745","city":"Roseville","latitude":"39.38N","longitude":"120.69W"}
{"date":"2011-01-01","average_temperature":"22.429","city":"Ruiru","latitude":"0.80S","longitude":"37.77E"}
{"date":"2013-04-01","average_temperature":"6.178999999999999","city":"Ryazan","latitude":"53.84N","longitude":"39.55E"}
{"date":"2013-02-01","average_temperature":"-5.9910000000000005","city":"Rybinsk","latitude":"58.66N","longitude":"40.00E"}
{"date":"2010-10-01","average_temperature":"6.2269999999999985","city":"Rybnik","latitude":"50.63N","longitude":"19.01E"}
{"date":"2010-03-01","average_temperature":"23.345","city":"São Bernardo Do Campo","latitude":"23.31S","longitude":"46.31W"}
{"date":"2011-03-01","average_temperature":"23.445","city":"São Carlos","latitude":"21.70S","longitude":"47.60W"}
{"date":"2011-04-01","average_temperature":"22.529","city":"Sabará","latitude":"20.09S","longitude":"44.36W"}
{"date":"2011-08-01","average_temperature":"25.201999999999998","city":"Sagamihara","latitude":"36.17N","longitude":"139.23E"}
{"date":"2013-01-01","average_temperature":"1.476","city":"Saint Étienne","latitude":"45.81N","longitude":"3.46E"}
{"date":"2011-11-01","average_temperature":"11.621","city":"Saint Helens","latitude":"53.84N","longitude":"4.09W"}
{"date":"2013-07-01","average_temperature":"17.234","city":"Saint Petersburg","latitude":"60.27N","longitude":"29.19E"}
{"date":"2012-03-01","average_temperature":"2.6830000000000003","city":"Salihorsk","latitude":"52.24N","longitude":"26.28E"}
{"date":"2013-09-01","average_temperature":"21.348000000000006","city":"Salinas","latitude":"36.17N","longitude":"121.33W"}
{"date":"2013-04-01","average_temperature":"18.772000000000002","city":"Saltillo","latitude":"24.92N","longitude":"101.08W"}
{"date":"2011-01-01","average_temperature":"27.069000000000003","city":"Salto","latitude":"31.35S","longitude":"58.43W"}
{"date":"2012-10-01","average_temperature":"8.513","city":"San Carlos De Bariloche","latitude":"40.99S","longitude":"70.30W"}
{"date":"2012-06-01","average_temperature":"31.773000000000003","city":"San Luis Río Colorado","latitude":"32.95N","longitude":"113.94W"}
{"date":"2011-08-01","average_temperature":"10.807","city":"San Martin","latitude":"32.95S","longitude":"67.98W"}
{"date":"2011-08-01","average_temperature":"27.044","city":"San Miguelito","latitude":"8.84N","longitude":"80.27W"}
{"date":"2012-03-01","average_temperature":"21.555999999999997","city":"San Nicolás De Los Garza","latitude":"26.52N","longitude":"100.30W"}
{"date":"2011-07-01","average_temperature":"27.721999999999998","city":"San Pedro De Macorís","latitude":"18.48N","longitude":"69.30W"}
{"date":"2011-08-01","average_temperature":"28.464","city":"Sanhsia","latitude":"24.92N","longitude":"120.59E"}
{"date":"2010-11-01","average_temperature":"14.579","city":"Sanming","latitude":"26.52N","longitude":"118.21E"}
{"date":"2013-04-01","average_temperature":"27.276999999999997","city":"Santa Ana","latitude":"13.66N","longitude":"90.00W"}
{"date":"2012-08-01","average_temperature":"28.088","city":"Santa Clara","latitude":"21.70N","longitude":"80.48W"}
{"date":"2012-03-01","average_temperature":"11.503","city":"Santa Clara","latitude":"37.78N","longitude":"122.03W"}
{"date":"2011-07-01","average_temperature":"23.987","city":"Santa Clarita","latitude":"34.56N","longitude":"118.70W"}
{"date":"2012-01-01","average_temperature":"17.674000000000003","city":"Santa Cruz De Tenerife","latitude":"28.13N","longitude":"15.45W"}
{"date":"2011-11-01","average_temperature":"27.281","city":"Santarém","latitude":"2.41S","longitude":"55.45W"}
{"date":"2012-09-01","average_temperature":"28.188000000000002","city":"Santarém","latitude":"2.41S","longitude":"55.45W"}
{"date":"2011-08-01","average_temperature":"27.857000000000006","city":"Santiago","latitude":"16.87N","longitude":"122.23E"}
{"date":"2013-03-01","average_temperature":"4.331","city":"Sarajevo","latitude":"44.20N","longitude":"17.89E"}
{"date":"2011-08-01","average_temperature":"20.363","city":"Saratov","latitude":"52.24N","longitude":"47.30E"}
{"date":"2011-04-01","average_temperature":"32.437999999999995","city":"Sarh","latitude":"8.84N","longitude":"18.65E"}
{"date":"2011-05-01","average_temperature":"22.363000000000003","city":"Saveh","latitude":"34.56N","longitude":"50.59E"}
{"date":"2011-02-01","average_temperature":"27.034000000000002","city":"Sawangan","latitude":"5.63S","longitude":"106.55E"}
{"date":"2013-05-01","average_temperature":"28.083","city":"Sekudai","latitude":"0.80N","longitude":"103.66E"}
{"date":"2013-03-01","average_temperature":"-1.8230000000000004","city":"Semey","latitude":"50.63N","longitude":"79.86E"}
{"date":"2013-04-01","average_temperature":"7.912999999999999","city":"Semey","latitude":"50.63N","longitude":"79.86E"}
{"date":"2012-08-01","average_temperature":"25.818","city":"Seoul","latitude":"37.78N","longitude":"126.10E"}
{"date":"2012-09-01","average_temperature":"27.433000000000003","city":"Sepatan","latitude":"5.63S","longitude":"106.55E"}
{"date":"2011-11-01","average_temperature":"12.972000000000001","city":"Setúbal","latitude":"39.38N","longitude":"8.32W"}
{"date":"2012-11-01","average_temperature":"7.513","city":"Seto","latitude":"36.17N","longitude":"137.24E"}
{"date":"2013-07-01","average_temperature":"30.623","city":"Shanghai","latitude":"31.35N","longitude":"120.63E"}
{"date":"2011-07-01","average_temperature":"28.235000000000007","city":"Shaoguan","latitude":"24.92N","longitude":"113.50E"}
{"date":"2010-01-01","average_temperature":"19.68","city":"Sharjah","latitude":"24.92N","longitude":"54.98E"}
{"date":"2011-07-01","average_temperature":"32.325","city":"Shekhupura","latitude":"31.35N","longitude":"73.51E"}
{"date":"2012-12-01","average_temperature":"14.448","city":"Shenzhen","latitude":"23.31N","longitude":"114.47E"}
{"date":"2010-02-01","average_temperature":"19.178","city":"Shikarpur","latitude":"28.13N","longitude":"68.18E"}
{"date":"2012-07-01","average_temperature":"27.614","city":"Shillong","latitude":"24.92N","longitude":"92.22E"}
{"date":"2012-08-01","average_temperature":"27.829","city":"Shillong","latitude":"24.92N","longitude":"92.22E"}
{"date":"2011-11-01","average_temperature":"13.525","city":"Shiraz","latitude":"29.74N","longitude":"51.69E"}
{"date":"2011-01-01","average_temperature":"1.6750000000000005","city":"Shishou","latitude":"29.74N","longitude":"112.62E"}
{"date":"2010-06-01","average_temperature":"23.498","city":"Shizuishan","latitude":"39.38N","longitude":"106.13E"}
{"date":"2012-11-01","average_temperature":"3.411","city":"Shunyi","latitude":"39.38N","longitude":"116.53E"}
{"date":"2012-05-01","average_temperature":"30.636999999999997","city":"Sialkot","latitude":"32.95N","longitude":"73.72E"}
{"date":"2010-04-01","average_temperature":"7.0600000000000005","city":"Siauliai","latitude":"55.45N","longitude":"22.68E"}
{"date":"2010-08-01","average_temperature":"27.388","city":"Singapore","latitude":"0.80N","longitude":"103.66E"}
{"date":"2010-08-01","average_temperature":"23.546","city":"Sioux Falls","latitude":"44.20N","longitude":"96.15W"}
{"date":"2012-06-01","average_temperature":"33.439","city":"Sitapur","latitude":"28.13N","longitude":"80.91E"}
{"date":"2010-08-01","average_temperature":"28.238000000000003","city":"Sobral","latitude":"4.02S","longitude":"40.98W"}
{"date":"2012-05-01","average_temperature":"13.045","city":"Sofia","latitude":"42.59N","longitude":"24.00E"}
{"date":"2011-09-01","average_temperature":"25.772","city":"Soreang","latitude":"7.23S","longitude":"107.84E"}
{"date":"2012-11-01","average_temperature":"11.665999999999999","city":"Split","latitude":"44.20N","longitude":"15.65E"}
{"date":"2013-06-01","average_temperature":"19.313","city":"Springfield","latitude":"42.59N","longitude":"72.00W"}
{"date":"2013-02-01","average_temperature":"4.29","city":"Stara Zagora","latitude":"42.59N","longitude":"26.18E"}
{"date":"2013-06-01","average_temperature":"18.997","city":"Sterlitamak","latitude":"53.84N","longitude":"55.91E"}
{"date":"2010-07-01","average_temperature":"19.191","city":"Stockton","latitude":"37.78N","longitude":"122.03W"}
{"date":"2013-02-01","average_temperature":"-0.8280000000000001","city":"Stuttgart","latitude":"49.03N","longitude":"9.80E"}
{"date":"2010-11-01","average_temperature":"-6.7280000000000015","city":"Suihua","latitude":"47.42N","longitude":"126.71E"}
{"date":"2012-02-01","average_temperature":"-17.169","city":"Suihua","latitude":"47.42N","longitude":"126.71E"}
{"date":"2013-03-01","average_temperature":"-0.14","city":"Sujiatun","latitude":"40.99N","longitude":"123.55E"}
{"date":"2010-12-01","average_temperature":"26.05","city":"Sukaraja","latitude":"7.23S","longitude":"106.22E"}
{"date":"2012-06-01","average_temperature":"26.78","city":"Sukaraja","latitude":"7.23S","longitude":"106.22E"}
{"date":"2010-11-01","average_temperature":"22.875","city":"Sultanpur","latitude":"26.52N","longitude":"82.39E"}
{"date":"2013-02-01","average_temperature":"24.09","city":"Sumaré","latitude":"23.31S","longitude":"48.06W"}
{"date":"2013-03-01","average_temperature":"2.1300000000000003","city":"Sunderland","latitude":"55.45N","longitude":"2.83W"}
{"date":"2011-12-01","average_temperature":"9.118","city":"Sunnyvale","latitude":"37.78N","longitude":"122.03W"}
{"date":"2010-06-01","average_temperature":"25.56","city":"Sur","latitude":"32.95N","longitude":"35.43E"}
{"date":"2011-01-01","average_temperature":"25.964","city":"Surakarta","latitude":"7.23S","longitude":"111.08E"}
{"date":"2012-10-01","average_temperature":"28.258000000000006","city":"Surakarta","latitude":"7.23S","longitude":"111.08E"}
{"date":"2012-09-01","average_temperature":"28.993","city":"Suriapet","latitude":"16.87N","longitude":"80.37E"}
{"date":"2012-09-01","average_temperature":"26.968000000000004","city":"Surt","latitude":"31.35N","longitude":"16.96E"}
{"date":"2012-09-01","average_temperature":"20.464000000000002","city":"Taboão Da Serra","latitude":"23.31S","longitude":"46.31W"}
{"date":"2010-08-01","average_temperature":"27.636999999999997","city":"Tacloban","latitude":"12.05N","longitude":"124.93E"}
{"date":"2012-10-01","average_temperature":"13.222000000000001","city":"Taganrog","latitude":"47.42N","longitude":"39.08E"}
{"date":"2012-07-01","average_temperature":"27.57","city":"Taian","latitude":"36.17N","longitude":"117.35E"}
{"date":"2011-02-01","average_temperature":"15.388","city":"Talcahuano","latitude":"36.17S","longitude":"73.59W"}
{"date":"2010-05-01","average_temperature":"32.831","city":"Tambaram","latitude":"13.66N","longitude":"80.09E"}
{"date":"2011-01-01","average_temperature":"28.005000000000006","city":"Tanga","latitude":"5.63S","longitude":"38.74E"}
{"date":"2010-08-01","average_temperature":"23.846999999999998","city":"Tangshan","latitude":"37.78N","longitude":"113.90E"}
{"date":"2012-04-01","average_temperature":"8.309000000000001","city":"Taonan","latitude":"45.81N","longitude":"123.46E"}
{"date":"2013-04-01","average_temperature":"27.148000000000003","city":"Tapachula","latitude":"15.27N","longitude":"92.50W"}
{"date":"2012-07-01","average_temperature":"10.203","city":"Tarija","latitude":"21.70S","longitude":"64.90W"}
{"date":"2013-07-01","average_temperature":"24.465","city":"Tashkent","latitude":"40.99N","longitude":"70.30E"}
{"date":"2012-10-01","average_temperature":"26.503","city":"Tasikmalaya","latitude":"7.23S","longitude":"107.84E"}
{"date":"2010-08-01","average_temperature":"27.095","city":"Tawau","latitude":"4.02N","longitude":"118.13E"}
{"date":"2011-09-01","average_temperature":"20.134","city":"Tehuacán","latitude":"18.48N","longitude":"98.03W"}
{"date":"2013-01-01","average_temperature":"3.918","city":"Termiz","latitude":"37.78N","longitude":"67.12E"}
{"date":"2012-10-01","average_temperature":"16.844","city":"Texcoco","latitude":"20.09N","longitude":"98.96W"}
{"date":"2011-10-01","average_temperature":"27.313","city":"Thanyaburi","latitude":"13.66N","longitude":"101.56E"}
{"date":"2012-06-01","average_temperature":"27.408","city":"Thaton","latitude":"16.87N","longitude":"97.12E"}
{"date":"2011-04-01","average_temperature":"8.052999999999999","city":"Thornton","latitude":"39.38N","longitude":"104.05W"}
{"date":"2011-03-01","average_temperature":"7.355","city":"Tianjin","latitude":"39.38N","longitude":"116.53E"}
{"date":"2012-07-01","average_temperature":"23.959","city":"Tieling","latitude":"42.59N","longitude":"124.36E"}
{"date":"2013-09-01","city":"Tighina","latitude":"47.42N","longitude":"29.61E"}
{"date":"2013-03-01","average_temperature":"29.111","city":"Tirunelveli","latitude":"8.84N","longitude":"77.03E"}
{"date":"2012-11-01","average_temperature":"26.603","city":"Tiruvannamalai","latitude":"12.05N","longitude":"78.90E"}
{"date":"2010-06-01","average_temperature":"21.521","city":"Tokyo","latitude":"36.17N","longitude":"139.23E"}
{"date":"2013-08-01","average_temperature":"28.180999999999997","city":"Tondabayashi","latitude":"34.56N","longitude":"136.22E"}
{"date":"2010-05-01","average_temperature":"16.893","city":"Tongliao","latitude":"44.20N","longitude":"122.98E"}
{"date":"2010-06-01","average_temperature":"17.455","city":"Toronto","latitude":"44.20N","longitude":"80.50W"}
{"date":"2010-03-01","average_temperature":"8.325","city":"Tottori","latitude":"34.56N","longitude":"134.27E"}
{"date":"2012-08-01","average_temperature":"28.191","city":"Touliu","latitude":"23.31N","longitude":"119.71E"}
{"date":"2011-06-01","average_temperature":"17.111","city":"Toulouse","latitude":"44.20N","longitude":"2.24E"}
{"date":"2012-03-01","average_temperature":"8.296","city":"Toyota","latitude":"34.56N","longitude":"136.22E"}
{"date":"2012-08-01","average_temperature":"20.681","city":"Trois Rivières","latitude":"45.81N","longitude":"72.69W"}
{"date":"2012-11-01","average_temperature":"18.311","city":"Trujillo","latitude":"8.84S","longitude":"78.65W"}
{"date":"2011-09-01","average_temperature":"26.790000000000006","city":"Tucheng","latitude":"24.92N","longitude":"120.59E"}
{"date":"2011-03-01","average_temperature":"4.184","city":"Turin","latitude":"45.81N","longitude":"8.08E"}
{"date":"2011-04-01","average_temperature":"12.992","city":"Ube","latitude":"34.56N","longitude":"130.38E"}
{"date":"2011-06-01","average_temperature":"28.004","city":"Udon Thani","latitude":"16.87N","longitude":"102.14E"}
{"date":"2011-03-01","average_temperature":"25.98","city":"Ujjain","latitude":"23.31N","longitude":"76.02E"}
{"date":"2011-07-01","average_temperature":"25.285999999999998","city":"Uromi","latitude":"7.23N","longitude":"5.68E"}
{"date":"2010-12-01","average_temperature":"14.368","city":"Uruapan","latitude":"20.09N","longitude":"102.37W"}
{"date":"2010-09-01","average_temperature":"19.8","city":"Usak","latitude":"39.38N","longitude":"29.13E"}
{"date":"2013-09-01","city":"Várzea Grande","latitude":"15.27S","longitude":"55.83W"}
{"date":"2011-10-01","average_temperature":"26.428","city":"Valencia","latitude":"10.45N","longitude":"67.91W"}
{"date":"2010-08-01","average_temperature":"11.974","city":"Valparaiso","latitude":"32.95S","longitude":"71.81W"}
{"date":"2012-11-01","average_temperature":"10.357000000000001","city":"Van","latitude":"37.78N","longitude":"42.71E"}
{"date":"2010-11-01","average_temperature":"19.022000000000002","city":"Vanderbijlpark","latitude":"26.52S","longitude":"28.66E"}
{"date":"2011-01-01","average_temperature":"14.71","city":"Varanasi","latitude":"24.92N","longitude":"83.35E"}
{"date":"2012-04-01","average_temperature":"22.258000000000003","city":"Varginha","latitude":"21.70S","longitude":"45.87W"}
{"date":"2013-08-01","average_temperature":"23.821","city":"Varna","latitude":"42.59N","longitude":"28.36E"}
{"date":"2012-11-01","average_temperature":"22.649","city":"Vejalpur","latitude":"23.31N","longitude":"74.27E"}
{"date":"2011-08-01","average_temperature":"16.750999999999998","city":"Velikiy Novgorod","latitude":"58.66N","longitude":"30.77E"}
{"date":"2013-08-01","average_temperature":"13.071","city":"Viamão","latitude":"29.74S","longitude":"51.69W"}
{"date":"2012-08-01","average_temperature":"25.647","city":"Vidisha","latitude":"23.31N","longitude":"77.77E"}
{"date":"2010-06-01","average_temperature":"29.025","city":"Vientiane","latitude":"18.48N","longitude":"103.10E"}
{"date":"2012-11-01","average_temperature":"25.483","city":"Vientiane","latitude":"18.48N","longitude":"103.10E"}
{"date":"2010-02-01","average_temperature":"27.901999999999997","city":"Villavicencio","latitude":"4.02N","longitude":"73.13W"}
{"date":"2012-04-01","average_temperature":"8.583","city":"Villeurbanne","latitude":"45.81N","longitude":"5.77E"}
{"date":"2012-06-01","average_temperature":"14.557","city":"Vilnius","latitude":"55.45N","longitude":"25.51E"}
{"date":"2012-09-01","average_temperature":"27.976","city":"Vinh","latitude":"18.48N","longitude":"106.48E"}
{"date":"2013-08-01","average_temperature":"29.341","city":"Vinh","latitude":"18.48N","longitude":"106.48E"}
{"date":"2012-12-01","average_temperature":"-5.16","city":"Vinnitsa","latitude":"49.03N","longitude":"29.39E"}
{"date":"2012-11-01","average_temperature":"12.508","city":"Viransehir","latitude":"37.78N","longitude":"40.68E"}
{"date":"2011-08-01","average_temperature":"26.57","city":"Virginia Beach","latitude":"36.17N","longitude":"75.58W"}
{"date":"2012-06-01","average_temperature":"23.024","city":"Visalia","latitude":"36.17N","longitude":"119.34W"}
{"date":"2010-06-01","average_temperature":"17.493000000000002","city":"Vladikavkaz","latitude":"42.59N","longitude":"43.64E"}
{"date":"2012-09-01","average_temperature":"12.925","city":"Vladimir","latitude":"55.45N","longitude":"39.69E"}
{"date":"2011-08-01","average_temperature":"21.721","city":"Vladivostok","latitude":"42.59N","longitude":"130.91E"}
{"date":"2012-03-01","average_temperature":"-0.83","city":"Vladivostok","latitude":"42.59N","longitude":"130.91E"}
{"date":"2012-02-01","average_temperature":"-10.362","city":"Volgodonsk","latitude":"47.42N","longitude":"41.45E"}
{"date":"2010-11-01","average_temperature":"7.077000000000001","city":"Volgograd","latitude":"49.03N","longitude":"44.08E"}
{"date":"2011-09-01","average_temperature":"16.299","city":"Volzhskiy","latitude":"49.03N","longitude":"44.08E"}
{"date":"2010-08-01","average_temperature":"27.835","city":"Wardha","latitude":"20.09N","longitude":"78.48E"}
{"date":"2013-06-01","average_temperature":"26.368000000000002","city":"Warri","latitude":"5.63N","longitude":"6.46E"}
{"date":"2013-07-01","average_temperature":"24.519","city":"Waterbury","latitude":"40.99N","longitude":"72.43W"}
{"date":"2012-02-01","average_temperature":"30.225","city":"Waw","latitude":"7.23N","longitude":"28.38E"}
{"date":"2011-05-01","average_temperature":"15.758","city":"Weihai","latitude":"37.78N","longitude":"122.03E"}
{"date":"2012-03-01","average_temperature":"21.726000000000006","city":"Welkom","latitude":"28.13S","longitude":"26.36E"}
{"date":"2013-04-01","average_temperature":"15.112","city":"Wellington","latitude":"40.99S","longitude":"174.67E"}
{"date":"2010-09-01","average_temperature":"13.578","city":"West Bromwich","latitude":"52.24N","longitude":"2.63W"}
{"date":"2010-10-01","average_temperature":"12.469000000000001","city":"West Jordan","latitude":"40.99N","longitude":"112.90W"}
{"date":"2011-06-01","average_temperature":"28.367","city":"Wuzhou","latitude":"23.31N","longitude":"110.97E"}
{"date":"2010-05-01","average_temperature":"24.618000000000002","city":"Xalapa","latitude":"20.09N","longitude":"97.25W"}
{"date":"2010-02-01","average_temperature":"13.469000000000001","city":"Xiamen","latitude":"24.92N","longitude":"118.82E"}
{"date":"2012-07-01","average_temperature":"29.053","city":"Xiazhen","latitude":"34.56N","longitude":"116.76E"}
{"date":"2012-07-01","average_temperature":"28.807","city":"Xinyang","latitude":"32.95N","longitude":"113.94E"}
{"date":"2012-09-01","average_temperature":"25.678","city":"Yamoussoukro","latitude":"7.23N","longitude":"5.68W"}
{"date":"2010-10-01","average_temperature":"15.158","city":"Yantai","latitude":"37.78N","longitude":"122.03E"}
{"date":"2011-07-01","average_temperature":"22.264","city":"Yaroslavl","latitude":"57.05N","longitude":"39.84E"}
{"date":"2011-03-01","average_temperature":"7.189","city":"Yatsushiro","latitude":"32.95N","longitude":"131.17E"}
{"date":"2012-06-01","average_temperature":"22.031","city":"Yatsushiro","latitude":"32.95N","longitude":"131.17E"}
{"date":"2012-04-01","average_temperature":"8.214","city":"Yekaterinburg","latitude":"57.05N","longitude":"60.49E"}
{"date":"2010-04-01","average_temperature":"15.120999999999999","city":"Yichun","latitude":"28.13N","longitude":"113.64E"}
{"date":"2012-02-01","average_temperature":"-17.71","city":"Yichun","latitude":"47.42N","longitude":"129.08E"}
{"date":"2011-09-01","average_temperature":"16.815","city":"Yingkou","latitude":"40.99N","longitude":"123.55E"}
{"date":"2012-11-01","average_temperature":"10.354","city":"Yingzhong","latitude":"31.35N","longitude":"113.09E"}
{"date":"2012-07-01","average_temperature":"29.351","city":"Yiyang","latitude":"28.13N","longitude":"111.82E"}
{"date":"2013-05-01","average_temperature":"20.656","city":"Yizheng","latitude":"32.95N","longitude":"119.68E"}
{"date":"2010-12-01","average_temperature":"12.588","city":"Yokosuka","latitude":"34.56N","longitude":"140.11E"}
{"date":"2013-06-01","average_temperature":"26.838","city":"Yueyang","latitude":"29.74N","longitude":"112.62E"}
{"date":"2012-01-01","average_temperature":"16.959","city":"Yungho","latitude":"24.92N","longitude":"122.36E"}
{"date":"2011-12-01","average_temperature":"7.946999999999999","city":"Zabol","latitude":"31.35N","longitude":"62.20E"}
{"date":"2013-01-01","average_temperature":"-2.557","city":"Zabrze","latitude":"50.63N","longitude":"19.01E"}
{"date":"2012-11-01","average_temperature":"27.434","city":"Zamboanga","latitude":"7.23N","longitude":"122.43E"}
{"date":"2011-12-01","average_temperature":"16.418","city":"Zamora","latitude":"20.09N","longitude":"102.37W"}
{"date":"2013-04-01","average_temperature":"16.794","city":"Zaoyang","latitude":"31.35N","longitude":"113.09E"}
{"date":"2010-06-01","average_temperature":"22.508000000000006","city":"Zaporizhzhya","latitude":"47.42N","longitude":"34.34E"}
{"date":"2013-05-01","average_temperature":"19.930999999999997","city":"Zaporizhzhya","latitude":"47.42N","longitude":"34.34E"}
{"date":"2012-12-01","average_temperature":"25.708000000000002","city":"Zaria","latitude":"10.45N","longitude":"7.36E"}
{"date":"2012-05-01","average_temperature":"22.84","city":"Zhangdian","latitude":"36.17N","longitude":"117.35E"}
{"date":"2013-07-01","average_temperature":"28.281","city":"Zhangzhou","latitude":"24.92N","longitude":"117.04E"}
{"date":"2010-05-01","average_temperature":"13.323","city":"Zlatoust","latitude":"55.45N","longitude":"59.53E"}
{"date":"2012-11-01","average_temperature":"10.694","city":"Zunyi","latitude":"28.13N","longitude":"106.36E"}
