{"date":"2011-08-01","average_temperature":"23.386","city":"Ürümqi","latitude":"44.20N","longitude":"87.20E"}
{"date":"2012-01-01","average_temperature":"-17.588","city":"Ürümqi","latitude":"44.20N","longitude":"87.20E"}
{"date":"2012-11-01","average_temperature":"27.122","city":"Abakaliki","latitude":"5.63N","longitude":"8.07E"}
{"date":"2011-06-01","average_temperature":"26.956999999999997","city":"Abengourou","latitude":"7.23N","longitude":"4.05W"}
{"date":"2011-11-01","average_temperature":"10.802999999999999","city":"Abiko","latitude":"36.17N","longitude":"139.23E"}
{"date":"2010-02-01","average_temperature":"17.608999999999995","city":"Abohar","latitude":"29.74N","longitude":"73.85E"}
{"date":"2012-04-01","average_temperature":"26.989","city":"Abu Dhabi","latitude":"24.92N","longitude":"54.98E"}
{"date":"2013-09-01","city":"Achalpur","latitude":"21.70N","longitude":"77.02E"}
{"date":"2010-06-01","average_temperature":"25.182","city":"Adana","latitude":"36.17N","longitude":"35.80E"}
{"date":"2011-10-01","average_temperature":"21.520000000000003","city":"Adana","latitude":"36.17N","longitude":"35.80E"}
{"date":"2010-11-01","average_temperature":"17.570999999999998","city":"Addis Abeba","latitude":"8.84N","longitude":"38.11E"}
{"date":"2012-10-01","average_temperature":"17.846","city":"Addis Abeba","latitude":"8.84N","longitude":"38.11E"}
{"date":"2010-05-01","average_temperature":"16.337","city":"Ageo","latitude":"36.17N","longitude":"139.23E"}
{"date":"2011-02-01","average_temperature":"13.517999999999999","city":"Ajdabiya","latitude":"31.35N","longitude":"20.73E"}
{"date":"2013-04-01","average_temperature":"20.651999999999997","city":"Ajdabiya","latitude":"31.35N","longitude":"20.73E"}
{"date":"2010-05-01","average_temperature":"35.549","city":"Akola","latitude":"20.09N","longitude":"76.78E"}
{"date":"2010-02-01","average_temperature":"28.175","city":"Alappuzha","latitude":"8.84N","longitude":"77.03E"}
{"date":"2010-01-01","average_temperature":"19.507","city":"Alberton","latitude":"26.52S","longitude":"28.66E"}
{"date":"2011-10-01","average_temperature":"17.85","city":"Alberton","latitude":"26.52S","longitude":"28.66E"}
{"date":"2012-10-01","average_temperature":"12.781","city":"Albuquerque","latitude":"34.56N","longitude":"107.03W"}
{"date":"2012-07-01","average_temperature":"7.077000000000001","city":"Albury","latitude":"36.17S","longitude":"147.18E"}
{"date":"2010-02-01","average_temperature":"14.883","city":"Almería","latitude":"36.17N","longitude":"1.99W"}
{"date":"2010-10-01","average_temperature":"28.008000000000003","city":"Alor Setar","latitude":"5.63N","longitude":"100.09E"}
{"date":"2012-02-01","average_temperature":"24.693","city":"Ambarnath","latitude":"18.48N","longitude":"72.68E"}
{"date":"2011-01-01","average_temperature":"2.9339999999999997","city":"Amsterdam","latitude":"52.24N","longitude":"5.26E"}
{"date":"2010-06-01","average_temperature":"27.623","city":"Anaco","latitude":"8.84N","longitude":"64.05W"}
{"date":"2012-02-01","average_temperature":"14.040999999999999","city":"Anbu","latitude":"23.31N","longitude":"116.21E"}
{"date":"2012-03-01","average_temperature":"7.766","city":"Ankang","latitude":"32.95N","longitude":"108.19E"}
{"date":"2013-09-01","city":"Antsirabe","latitude":"20.09S","longitude":"47.77E"}
{"date":"2010-01-01","average_temperature":"-0.06300000000000018","city":"Antwerp","latitude":"50.63N","longitude":"3.80E"}
{"date":"2011-09-01","average_temperature":"28.531","city":"Ara","latitude":"24.92N","longitude":"85.12E"}
{"date":"2012-03-01","average_temperature":"4.3580000000000005","city":"Ardabil","latitude":"37.78N","longitude":"48.81E"}
{"date":"2010-05-01","average_temperature":"26.193","city":"Arjawinangun","latitude":"7.23S","longitude":"107.84E"}
{"date":"2010-12-01","average_temperature":"22.774","city":"Arusha","latitude":"4.02S","longitude":"36.16E"}
{"date":"2010-08-01","average_temperature":"20.663","city":"Astana","latitude":"50.63N","longitude":"72.25E"}
{"date":"2012-09-01","average_temperature":"12.738","city":"Astana","latitude":"50.63N","longitude":"72.25E"}
{"date":"2012-11-01","average_temperature":"-7.1469999999999985","city":"Astana","latitude":"50.63N","longitude":"72.25E"}
{"date":"2012-02-01","average_temperature":"8.127","city":"Atlanta","latitude":"34.56N","longitude":"83.68W"}
{"date":"2010-01-01","average_temperature":"-10.87","city":"Atyrau","latitude":"47.42N","longitude":"50.92E"}
{"date":"2012-12-01","average_temperature":"-8.212","city":"Atyrau","latitude":"47.42N","longitude":"50.92E"}
{"date":"2010-04-01","average_temperature":"8.168000000000001","city":"Aurora","latitude":"39.38N","longitude":"104.05W"}
{"date":"2010-09-01","average_temperature":"26.139000000000006","city":"Awka","latitude":"5.63N","longitude":"6.46E"}
{"date":"2013-04-01","average_temperature":"10.804","city":"Ayacucho","latitude":"13.66S","longitude":"73.49W"}
{"date":"2011-06-01","average_temperature":"26.251","city":"Bénin","latitude":"7.23N","longitude":"5.68E"}
{"date":"2011-02-01","average_temperature":"25.013","city":"Babakan","latitude":"7.23S","longitude":"107.84E"}
{"date":"2011-10-01","average_temperature":"20.232","city":"Badajoz","latitude":"39.38N","longitude":"6.24W"}
{"date":"2012-04-01","average_temperature":"14.415999999999999","city":"Badalona","latitude":"40.99N","longitude":"2.13E"}
{"date":"2011-10-01","average_temperature":"28.864","city":"Badlapur","latitude":"18.48N","longitude":"72.68E"}
{"date":"2011-11-01","average_temperature":"24.11","city":"Bally","latitude":"23.31N","longitude":"88.25E"}
{"date":"2011-04-01","average_temperature":"29.799","city":"Banda","latitude":"24.92N","longitude":"79.80E"}
{"date":"2011-03-01","average_temperature":"6.242000000000001","city":"Bandar E Anzali","latitude":"37.78N","longitude":"48.81E"}
{"date":"2012-01-01","average_temperature":"2.417","city":"Bandar E Anzali","latitude":"37.78N","longitude":"48.81E"}
{"date":"2012-12-01","average_temperature":"25.456","city":"Bandung","latitude":"7.23S","longitude":"107.84E"}
{"date":"2011-01-01","average_temperature":"26.895","city":"Banyuwangi","latitude":"8.84S","longitude":"114.32E"}
{"date":"2013-02-01","average_temperature":"-5.407","city":"Baoding","latitude":"39.38N","longitude":"114.45E"}
{"date":"2012-08-01","average_temperature":"22.641","city":"Baoji","latitude":"34.56N","longitude":"107.03E"}
{"date":"2010-01-01","average_temperature":"9.763","city":"Barcelona","latitude":"40.99N","longitude":"2.13E"}
{"date":"2010-03-01","average_temperature":"29.451","city":"Barddhaman","latitude":"23.31N","longitude":"88.25E"}
{"date":"2010-07-01","average_temperature":"23.363000000000003","city":"Barinas","latitude":"8.84N","longitude":"70.54W"}
{"date":"2010-09-01","average_temperature":"11.470999999999998","city":"Basel","latitude":"47.42N","longitude":"8.29E"}
{"date":"2013-05-01","average_temperature":"27.581999999999997","city":"Bayamo","latitude":"20.09N","longitude":"76.78W"}
{"date":"2010-11-01","average_temperature":"21.179000000000002","city":"Bayrut","latitude":"34.56N","longitude":"35.03E"}
{"date":"2011-08-01","average_temperature":"28.893","city":"Beihai","latitude":"21.70N","longitude":"109.90E"}
{"date":"2012-12-01","average_temperature":"26.678","city":"Belawan","latitude":"4.02N","longitude":"98.84E"}
{"date":"2013-01-01","average_temperature":"19.998","city":"Bello","latitude":"5.63N","longitude":"75.87W"}
{"date":"2011-04-01","average_temperature":"17.061999999999998","city":"Bene Beraq","latitude":"32.95N","longitude":"35.43E"}
{"date":"2012-01-01","average_temperature":"26.773000000000003","city":"Bengkulu","latitude":"4.02S","longitude":"102.05E"}
{"date":"2013-06-01","average_temperature":"27.013","city":"Bengkulu","latitude":"4.02S","longitude":"102.05E"}
{"date":"2011-06-01","average_temperature":"27.659000000000002","city":"Beni Suef","latitude":"29.74N","longitude":"31.38E"}
{"date":"2012-11-01","average_temperature":"20.930999999999997","city":"Beni Suef","latitude":"29.74N","longitude":"31.38E"}
{"date":"2010-07-01","average_temperature":"20.56","city":"Bergisch Gladbach","latitude":"50.63N","longitude":"6.34E"}
{"date":"2012-06-01","average_temperature":"32.601","city":"Bhagalpur","latitude":"24.92N","longitude":"86.90E"}
{"date":"2011-04-01","average_temperature":"29.916","city":"Bharatpur","latitude":"26.52N","longitude":"77.01E"}
{"date":"2011-08-01","average_temperature":"27.179000000000002","city":"Bhilwara","latitude":"24.92N","longitude":"74.48E"}
{"date":"2012-09-01","average_temperature":"25.993000000000002","city":"Bhiwandi","latitude":"20.09N","longitude":"73.36E"}
{"date":"2011-03-01","average_temperature":"27.403000000000002","city":"Bhusawal","latitude":"21.70N","longitude":"75.29E"}
{"date":"2010-02-01","average_temperature":"27.753","city":"Biên Hòa","latitude":"10.45N","longitude":"107.18E"}
{"date":"2012-03-01","average_temperature":"28.338","city":"Biên Hòa","latitude":"10.45N","longitude":"107.18E"}
{"date":"2010-12-01","average_temperature":"-5.077","city":"Bielsko Biala","latitude":"50.63N","longitude":"19.01E"}
{"date":"2010-11-01","average_temperature":"23.295","city":"Bihar","latitude":"24.92N","longitude":"85.12E"}
{"date":"2010-02-01","average_temperature":"-3.431","city":"Bila Tserkva","latitude":"49.03N","longitude":"29.39E"}
{"date":"2011-05-01","average_temperature":"16.41","city":"Bilbao","latitude":"42.59N","longitude":"2.18W"}
{"date":"2012-06-01","average_temperature":"28.699","city":"Binjai","latitude":"4.02N","longitude":"98.84E"}
{"date":"2013-01-01","average_temperature":"14.277","city":"Birganj","latitude":"26.52N","longitude":"84.18E"}
{"date":"2012-07-01","average_temperature":"15.121","city":"Bisho","latitude":"32.95S","longitude":"27.77E"}
{"date":"2013-06-01","average_temperature":"16.203","city":"Bisho","latitude":"32.95S","longitude":"27.77E"}
{"date":"2012-05-01","average_temperature":"17.551","city":"Botosani","latitude":"47.42N","longitude":"27.24E"}
{"date":"2012-02-01","average_temperature":"20.303","city":"Botshabelo","latitude":"29.74S","longitude":"27.69E"}
{"date":"2012-11-01","average_temperature":"7.42","city":"Boulogne Billancourt","latitude":"49.03N","longitude":"2.45E"}
{"date":"2012-01-01","average_temperature":"4.225","city":"Bradford","latitude":"53.84N","longitude":"1.36W"}
{"date":"2011-06-01","average_temperature":"26.433000000000003","city":"Brebes","latitude":"7.23S","longitude":"109.46E"}
{"date":"2010-07-01","average_temperature":"22.573","city":"Brescia","latitude":"45.81N","longitude":"10.38E"}
{"date":"2012-09-01","average_temperature":"14.855","city":"Brest","latitude":"49.03N","longitude":"4.90W"}
{"date":"2012-01-01","average_temperature":"7.645","city":"Brighton","latitude":"50.63N","longitude":"1.27W"}
{"date":"2012-11-01","average_temperature":"9.031","city":"Brighton","latitude":"50.63N","longitude":"1.27W"}
{"date":"2012-03-01","average_temperature":"23.694000000000003","city":"Brikama","latitude":"13.66N","longitude":"17.34W"}
{"date":"2010-11-01","average_temperature":"22.363000000000003","city":"Brownsville","latitude":"26.52N","longitude":"96.72W"}
{"date":"2010-06-01","average_temperature":"28.514","city":"Bulaon","latitude":"15.27N","longitude":"120.83E"}
{"date":"2011-11-01","average_temperature":"17.87","city":"Buraydah","latitude":"26.52N","longitude":"44.78E"}
{"date":"2010-04-01","average_temperature":"11.386","city":"Bursa","latitude":"39.38N","longitude":"29.13E"}
{"date":"2013-03-01","average_temperature":"28.54","city":"Cadiz","latitude":"10.45N","longitude":"123.55E"}
{"date":"2013-09-01","city":"Cadiz","latitude":"36.17N","longitude":"5.97W"}
{"date":"2010-03-01","average_temperature":"6.941","city":"Caen","latitude":"49.03N","longitude":"0.00W"}
{"date":"2010-10-01","average_temperature":"26.875999999999998","city":"Cagua","latitude":"10.45N","longitude":"67.91W"}
{"date":"2011-05-01","average_temperature":"25.683000000000003","city":"Camaçari","latitude":"12.05S","longitude":"37.81W"}
{"date":"2012-07-01","average_temperature":"25.153000000000002","city":"Camaragibe","latitude":"7.23S","longitude":"34.86W"}
{"date":"2010-02-01","average_temperature":"2.812","city":"Cambridge","latitude":"52.24N","longitude":"0.00W"}
{"date":"2011-08-01","average_temperature":"20.769000000000002","city":"Cambridge","latitude":"42.59N","longitude":"72.00W"}
{"date":"2011-09-01","average_temperature":"19.023","city":"Campinas","latitude":"23.31S","longitude":"46.31W"}
{"date":"2010-05-01","average_temperature":"25.218000000000004","city":"Campos","latitude":"21.70S","longitude":"40.67W"}
{"date":"2010-01-01","average_temperature":"27.121","city":"Can Tho","latitude":"10.45N","longitude":"105.55E"}
{"date":"2010-06-01","average_temperature":"5.824","city":"Canberra","latitude":"36.17S","longitude":"149.17E"}
{"date":"2010-02-01","average_temperature":"15.36","city":"Cape Coral","latitude":"26.52N","longitude":"82.39W"}
{"date":"2010-01-01","average_temperature":"23.738000000000003","city":"Carapicuíba","latitude":"23.31S","longitude":"46.31W"}
{"date":"2011-03-01","average_temperature":"21.92","city":"Carapicuíba","latitude":"23.31S","longitude":"46.31W"}
{"date":"2010-09-01","average_temperature":"28.19","city":"Carmen","latitude":"18.48N","longitude":"91.27W"}
{"date":"2010-01-01","average_temperature":"25.590999999999998","city":"Caruaru","latitude":"8.84S","longitude":"36.49W"}
{"date":"2010-05-01","average_temperature":"16.753","city":"Cascavel","latitude":"24.92S","longitude":"53.20W"}
{"date":"2013-08-01","average_temperature":"16.56","city":"Cascavel","latitude":"24.92S","longitude":"53.20W"}
{"date":"2012-03-01","average_temperature":"23.468000000000004","city":"Catamarca","latitude":"28.13S","longitude":"66.36W"}
{"date":"2010-01-01","average_temperature":"25.454","city":"Cavite","latitude":"15.27N","longitude":"120.83E"}
{"date":"2010-10-01","average_temperature":"29.308000000000003","city":"Caxias","latitude":"5.63S","longitude":"43.59W"}
{"date":"2013-08-01","average_temperature":"27.199","city":"Cebu","latitude":"10.45N","longitude":"123.55E"}
{"date":"2011-11-01","average_temperature":"14.675","city":"Chalco","latitude":"20.09N","longitude":"98.96W"}
{"date":"2011-02-01","average_temperature":"22.566","city":"Chandannagar","latitude":"23.31N","longitude":"88.25E"}
{"date":"2010-11-01","average_temperature":"21.873","city":"Chandausi","latitude":"28.13N","longitude":"79.09E"}
{"date":"2011-05-01","average_temperature":"33.172999999999995","city":"Chandausi","latitude":"28.13N","longitude":"79.09E"}
{"date":"2010-11-01","average_temperature":"25.805999999999997","city":"Chandrapur","latitude":"20.09N","longitude":"78.48E"}
{"date":"2013-07-01","average_temperature":"27.324","city":"Chandrapur","latitude":"20.09N","longitude":"78.48E"}
{"date":"2011-12-01","average_temperature":"5.606","city":"Changzhou","latitude":"31.35N","longitude":"120.63E"}
{"date":"2010-01-01","average_temperature":"1.885","city":"Chattanooga","latitude":"34.56N","longitude":"85.62W"}
{"date":"2013-05-01","average_temperature":"13.06","city":"Chemnitz","latitude":"50.63N","longitude":"13.94E"}
{"date":"2012-07-01","average_temperature":"23.298","city":"Chengde","latitude":"40.99N","longitude":"117.16E"}
{"date":"2012-12-01","average_temperature":"14.702","city":"Chenghai","latitude":"23.31N","longitude":"116.21E"}
{"date":"2012-10-01","average_temperature":"12.229000000000001","city":"Chicago","latitude":"42.59N","longitude":"87.27W"}
{"date":"2013-09-01","city":"Chiclayo","latitude":"7.23S","longitude":"80.27W"}
{"date":"2012-06-01","average_temperature":"28.725","city":"Chinandega","latitude":"12.05N","longitude":"87.12W"}
{"date":"2011-07-01","average_temperature":"17.23","city":"Chingola","latitude":"12.05S","longitude":"27.95E"}
{"date":"2010-11-01","average_temperature":"24.228","city":"Chitungwiza","latitude":"18.48S","longitude":"30.42E"}
{"date":"2012-07-01","average_temperature":"25.461","city":"Choloma","latitude":"15.27N","longitude":"87.50W"}
{"date":"2010-02-01","average_temperature":"29.154","city":"Chon Buri","latitude":"13.66N","longitude":"101.56E"}
{"date":"2011-04-01","average_temperature":"10.872","city":"Chorzow","latitude":"50.63N","longitude":"19.01E"}
{"date":"2013-05-01","average_temperature":"16.511999999999997","city":"Chosica","latitude":"12.05S","longitude":"77.26W"}
{"date":"2012-12-01","average_temperature":"13.530999999999999","city":"Chula Vista","latitude":"32.95N","longitude":"117.77W"}
{"date":"2010-08-01","average_temperature":"28.75","city":"Chupei","latitude":"24.92N","longitude":"120.59E"}
{"date":"2012-08-01","average_temperature":"27.601999999999997","city":"Chuzhou","latitude":"32.95N","longitude":"117.77E"}
{"date":"2012-09-01","average_temperature":"27.433000000000003","city":"Cikupa","latitude":"5.63S","longitude":"106.55E"}
{"date":"2011-12-01","average_temperature":"27.246","city":"Cileungsi","latitude":"5.63S","longitude":"106.55E"}
{"date":"2012-03-01","average_temperature":"25.339000000000002","city":"Ciparay","latitude":"7.23S","longitude":"107.84E"}
{"date":"2013-01-01","average_temperature":"25.076","city":"Ciparay","latitude":"7.23S","longitude":"107.84E"}
{"date":"2011-10-01","average_temperature":"16.810000000000002","city":"Cochabamba","latitude":"16.87S","longitude":"66.98W"}
{"date":"2012-06-01","average_temperature":"22.395","city":"Colorado Springs","latitude":"39.38N","longitude":"104.05W"}
{"date":"2013-08-01","average_temperature":"14.219000000000001","city":"Coquimbo","latitude":"29.74S","longitude":"72.00W"}
{"date":"2011-08-01","average_temperature":"11.395999999999999","city":"Cordoba","latitude":"31.35S","longitude":"64.08W"}
{"date":"2012-05-01","average_temperature":"18.169","city":"Cotia","latitude":"23.31S","longitude":"46.31W"}
{"date":"2012-11-01","average_temperature":"21.811999999999998","city":"Cotia","latitude":"23.31S","longitude":"46.31W"}
{"date":"2012-05-01","average_temperature":"17.729999999999997","city":"Craiova","latitude":"44.20N","longitude":"24.60E"}
{"date":"2012-11-01","average_temperature":"9.031","city":"Crawley","latitude":"50.63N","longitude":"1.27W"}
{"date":"2011-03-01","average_temperature":"21.596","city":"Criciúma","latitude":"28.13S","longitude":"50.00W"}
{"date":"2012-02-01","average_temperature":"14.095999999999998","city":"Cuautitlán Izcalli","latitude":"20.09N","longitude":"98.96W"}
{"date":"2010-07-01","average_temperature":"27.842","city":"Cumaná","latitude":"10.45N","longitude":"64.64W"}
{"date":"2013-01-01","average_temperature":"-13.572","city":"Datong","latitude":"40.99N","longitude":"112.90E"}
{"date":"2013-09-01","city":"Daugavpils","latitude":"55.45N","longitude":"25.51E"}
{"date":"2012-08-01","average_temperature":"26.844","city":"Davao","latitude":"7.23N","longitude":"125.68E"}
{"date":"2013-01-01","average_temperature":"6.042000000000001","city":"Daxian","latitude":"31.35N","longitude":"107.43E"}
{"date":"2011-10-01","average_temperature":"8.822000000000001","city":"Debrecen","latitude":"47.42N","longitude":"22.50E"}
{"date":"2010-04-01","average_temperature":"20.534000000000002","city":"Dekernes","latitude":"31.35N","longitude":"32.04E"}
{"date":"2013-09-01","city":"Delhi","latitude":"28.13N","longitude":"77.27E"}
{"date":"2010-03-01","average_temperature":"13.058","city":"Delicias","latitude":"28.13N","longitude":"106.36W"}
{"date":"2010-08-01","average_temperature":"26.95","city":"Depok","latitude":"7.23S","longitude":"109.46E"}
{"date":"2011-01-01","average_temperature":"26.359","city":"Depok","latitude":"7.23S","longitude":"109.46E"}
{"date":"2012-10-01","average_temperature":"10.758","city":"Detroit","latitude":"42.59N","longitude":"82.91W"}
{"date":"2013-09-01","city":"Dibrugarh","latitude":"28.13N","longitude":"95.45E"}
{"date":"2012-09-01","average_temperature":"26.316999999999997","city":"Digos","latitude":"7.23N","longitude":"125.68E"}
{"date":"2010-12-01","average_temperature":"16.913999999999998","city":"Dimapur","latitude":"26.52N","longitude":"93.13E"}
{"date":"2012-01-01","average_temperature":"-11.486","city":"Dimitrovgrad","latitude":"53.84N","longitude":"50.45E"}
{"date":"2013-01-01","average_temperature":"23.741","city":"Diourbel","latitude":"15.27N","longitude":"15.83W"}
{"date":"2011-04-01","average_temperature":"22.529","city":"Divinópolis","latitude":"20.09S","longitude":"44.36W"}
{"date":"2013-07-01","average_temperature":"25.184","city":"Divo","latitude":"5.63N","longitude":"4.84W"}
{"date":"2013-08-01","average_temperature":"29.641","city":"Do Rud","latitude":"32.95N","longitude":"48.83E"}
{"date":"2012-02-01","average_temperature":"18.736","city":"Doha","latitude":"24.92N","longitude":"51.43E"}
{"date":"2010-07-01","average_temperature":"24.423000000000002","city":"Dongling","latitude":"40.99N","longitude":"123.55E"}
{"date":"2013-08-01","average_temperature":"20.087000000000003","city":"Dos Quebradas","latitude":"5.63N","longitude":"75.87W"}
{"date":"2011-12-01","average_temperature":"-14.478","city":"Dunhua","latitude":"42.59N","longitude":"128.73E"}
{"date":"2010-12-01","average_temperature":"22.135","city":"Durban","latitude":"29.74S","longitude":"31.38E"}
{"date":"2010-02-01","average_temperature":"22.367","city":"Durgapur","latitude":"23.31N","longitude":"86.50E"}
{"date":"2010-02-01","average_temperature":"2.2900000000000005","city":"Durham","latitude":"36.17N","longitude":"79.56W"}
{"date":"2011-03-01","average_temperature":"2.548","city":"Dushanbe","latitude":"39.38N","longitude":"68.67E"}
{"date":"2010-05-01","average_temperature":"10.270999999999999","city":"Eastbourne","latitude":"50.63N","longitude":"1.27E"}
{"date":"2013-07-01","average_temperature":"18.261","city":"Eastbourne","latitude":"50.63N","longitude":"1.27E"}
{"date":"2010-09-01","average_temperature":"17.083","city":"Ecatepec","latitude":"20.09N","longitude":"98.96W"}
{"date":"2013-07-01","average_temperature":"28.217","city":"El Faiyûm","latitude":"29.74N","longitude":"31.38E"}
{"date":"2010-12-01","average_temperature":"26.014","city":"El Limón","latitude":"10.45N","longitude":"67.91W"}
{"date":"2010-02-01","average_temperature":"10.353","city":"El Monte","latitude":"34.56N","longitude":"118.70W"}
{"date":"2012-04-01","average_temperature":"27.635","city":"El Tigre","latitude":"8.84N","longitude":"64.05W"}
{"date":"2013-03-01","average_temperature":"-7.499","city":"Elektrostal","latitude":"55.45N","longitude":"39.69E"}
{"date":"2012-04-01","average_temperature":"15.649","city":"Elista","latitude":"45.81N","longitude":"45.00E"}
{"date":"2011-10-01","average_temperature":"10.616","city":"Emmen","latitude":"52.24N","longitude":"7.88E"}
{"date":"2010-10-01","average_temperature":"19.319000000000003","city":"Escuintla","latitude":"15.27N","longitude":"90.83W"}
{"date":"2011-04-01","average_temperature":"9.24","city":"Eskisehir","latitude":"39.38N","longitude":"31.21E"}
{"date":"2013-06-01","average_temperature":"32.531","city":"Etawah","latitude":"26.52N","longitude":"78.81E"}
{"date":"2010-08-01","average_temperature":"27.381999999999998","city":"Evansville","latitude":"37.78N","longitude":"87.46W"}
{"date":"2011-01-01","average_temperature":"13.376","city":"Faridabad","latitude":"28.13N","longitude":"77.27E"}
{"date":"2010-06-01","average_temperature":"34.421","city":"Fatehpur","latitude":"26.52N","longitude":"80.60E"}
{"date":"2011-06-01","average_temperature":"18.456","city":"Florianópolis","latitude":"28.13S","longitude":"48.18W"}
{"date":"2013-06-01","average_temperature":"19.773","city":"Florianópolis","latitude":"28.13S","longitude":"48.18W"}
{"date":"2013-09-01","city":"Foggia","latitude":"40.99N","longitude":"14.91E"}
{"date":"2010-02-01","average_temperature":"16.061","city":"Foshan","latitude":"23.31N","longitude":"112.72E"}
{"date":"2012-08-01","average_temperature":"23.021","city":"Fuenlabrada","latitude":"40.99N","longitude":"4.26W"}
{"date":"2013-04-01","average_temperature":"14.461","city":"Fuji","latitude":"34.56N","longitude":"138.16E"}
{"date":"2013-06-01","average_temperature":"21.906999999999996","city":"Fujieda","latitude":"34.56N","longitude":"138.16E"}
{"date":"2013-08-01","average_temperature":"26.364","city":"Fujimi","latitude":"36.17N","longitude":"139.23E"}
{"date":"2011-06-01","average_temperature":"22.88","city":"Fukuyama","latitude":"34.56N","longitude":"134.27E"}
{"date":"2012-03-01","average_temperature":"29.641","city":"Funtua","latitude":"12.05N","longitude":"6.58E"}
{"date":"2010-12-01","average_temperature":"14.054","city":"Gómez Palacio","latitude":"24.92N","longitude":"102.86W"}
{"date":"2010-04-01","average_temperature":"11.082","city":"Galati","latitude":"45.81N","longitude":"28.85E"}
{"date":"2012-12-01","average_temperature":"5.396000000000001","city":"Gaziantep","latitude":"37.78N","longitude":"36.61E"}
{"date":"2012-11-01","average_temperature":"23.766","city":"Gazipur","latitude":"23.31N","longitude":"90.00E"}
{"date":"2010-06-01","average_temperature":"27.382","city":"Gboko","latitude":"7.23N","longitude":"8.92E"}
{"date":"2012-11-01","average_temperature":"15.854000000000001","city":"George","latitude":"34.56S","longitude":"23.35E"}
{"date":"2010-09-01","average_temperature":"28.752","city":"Georgetown","latitude":"7.23N","longitude":"57.57W"}
{"date":"2010-10-01","average_temperature":"7.352","city":"Gera","latitude":"50.63N","longitude":"11.41E"}
{"date":"2011-04-01","average_temperature":"13.499","city":"Getafe","latitude":"40.99N","longitude":"4.26W"}
{"date":"2013-07-01","average_temperature":"19.104","city":"Gijón","latitude":"44.20N","longitude":"6.71W"}
{"date":"2012-12-01","average_temperature":"7.515","city":"Gillingham","latitude":"50.63N","longitude":"1.27E"}
{"date":"2013-01-01","average_temperature":"26.316","city":"Girón","latitude":"7.23N","longitude":"73.78W"}
{"date":"2011-04-01","average_temperature":"10.148","city":"Glasgow","latitude":"55.45N","longitude":"2.83W"}
{"date":"2010-05-01","average_temperature":"18.801","city":"Gold Coast","latitude":"28.13S","longitude":"153.64E"}
{"date":"2011-12-01","average_temperature":"19.166","city":"Goma","latitude":"2.41S","longitude":"29.73E"}
{"date":"2011-12-01","average_temperature":"23.12","city":"Gombe","latitude":"10.45N","longitude":"10.64E"}
{"date":"2010-11-01","average_temperature":"25.076999999999998","city":"Gondal","latitude":"21.70N","longitude":"70.10E"}
{"date":"2013-09-01","city":"Gorontalo","latitude":"0.80N","longitude":"122.95E"}
{"date":"2012-03-01","average_temperature":"6.728","city":"Gorzow Wielkopolski","latitude":"52.24N","longitude":"15.77E"}
{"date":"2010-08-01","average_temperature":"20.859","city":"Governador Valadares","latitude":"18.48S","longitude":"42.25W"}
{"date":"2011-12-01","average_temperature":"25.21","city":"Guacara","latitude":"10.45N","longitude":"67.91W"}
{"date":"2010-08-01","average_temperature":"23.947","city":"Guanare","latitude":"8.84N","longitude":"70.54W"}
{"date":"2011-11-01","average_temperature":"21.586","city":"Guangzhou","latitude":"23.31N","longitude":"112.72E"}
{"date":"2010-12-01","average_temperature":"21.171999999999997","city":"Guarapuava","latitude":"24.92S","longitude":"51.43W"}
{"date":"2010-09-01","average_temperature":"26.328000000000003","city":"Guatire","latitude":"10.45N","longitude":"66.27W"}
{"date":"2013-01-01","average_temperature":"24.430999999999997","city":"Guatire","latitude":"10.45N","longitude":"66.27W"}
{"date":"2011-10-01","average_temperature":"20.487","city":"Guayaquil","latitude":"2.41S","longitude":"79.55W"}
{"date":"2012-08-01","average_temperature":"31.596999999999998","city":"Gudalur","latitude":"12.05N","longitude":"80.55E"}
{"date":"2013-06-01","average_temperature":"26.8","city":"Guilin","latitude":"24.92N","longitude":"109.95E"}
{"date":"2012-12-01","average_temperature":"16.566","city":"Gurgaon","latitude":"28.13N","longitude":"77.27E"}
{"date":"2013-06-01","average_temperature":"32.531","city":"Gwalior","latitude":"26.52N","longitude":"78.81E"}
{"date":"2013-03-01","average_temperature":"3.3960000000000004","city":"Gyor","latitude":"47.42N","longitude":"17.76E"}
{"date":"2012-10-01","average_temperature":"25.48","city":"Hafizabad","latitude":"31.35N","longitude":"73.51E"}
{"date":"2012-03-01","average_temperature":"17.996","city":"Haicheng","latitude":"23.31N","longitude":"114.47E"}
{"date":"2012-05-01","average_temperature":"26.79","city":"Haicheng","latitude":"23.31N","longitude":"114.47E"}
{"date":"2012-11-01","average_temperature":"13.399","city":"Hamamatsu","latitude":"34.56N","longitude":"138.16E"}
{"date":"2010-09-01","average_temperature":"16.873","city":"Hamilton","latitude":"42.59N","longitude":"80.73W"}
{"date":"2012-04-01","average_temperature":"6.829","city":"Hamilton","latitude":"42.59N","longitude":"80.73W"}
{"date":"2012-01-01","average_temperature":"3.97","city":"Hangzhou","latitude":"29.74N","longitude":"120.00E"}
{"date":"2013-01-01","average_temperature":"22.235","city":"Harare","latitude":"18.48S","longitude":"30.42E"}
{"date":"2010-03-01","average_temperature":"26.496","city":"Hardoi","latitude":"26.52N","longitude":"80.60E"}
{"date":"2011-06-01","average_temperature":"31.336","city":"Hardoi","latitude":"26.52N","longitude":"80.60E"}
{"date":"2012-10-01","average_temperature":"25.451","city":"Hardoi","latitude":"26.52N","longitude":"80.60E"}
{"date":"2011-11-01","average_temperature":"23.607","city":"Hassan","latitude":"13.66N","longitude":"76.79E"}
{"date":"2011-03-01","average_temperature":"27.450000000000006","city":"Hat Yai","latitude":"7.23N","longitude":"99.73E"}
{"date":"2010-08-01","average_temperature":"18.807","city":"Heihe","latitude":"50.63N","longitude":"128.03E"}
{"date":"2012-12-01","average_temperature":"6.691","city":"Henderson","latitude":"36.17N","longitude":"115.36W"}
{"date":"2012-02-01","average_temperature":"5.428","city":"Hengyang","latitude":"26.52N","longitude":"112.84E"}
{"date":"2012-02-01","average_temperature":"27.153000000000002","city":"Henzada","latitude":"16.87N","longitude":"95.44E"}
{"date":"2013-01-01","average_temperature":"24.773000000000003","city":"Higüey","latitude":"18.48N","longitude":"69.30W"}
{"date":"2012-06-01","average_temperature":"18.404","city":"Hitachi","latitude":"36.17N","longitude":"141.22E"}
{"date":"2012-04-01","average_temperature":"28.623","city":"Ho Chi Minh City","latitude":"10.45N","longitude":"107.18E"}
{"date":"2013-07-01","average_temperature":"28.425","city":"Ho Chi Minh City","latitude":"10.45N","longitude":"107.18E"}
{"date":"2012-04-01","average_temperature":"9.281","city":"Hohhot","latitude":"40.99N","longitude":"110.77E"}
{"date":"2012-03-01","average_temperature":"19.328","city":"Hsichih","latitude":"24.92N","longitude":"122.36E"}
{"date":"2013-07-01","average_temperature":"30.233","city":"Huainan","latitude":"32.95N","longitude":"117.77E"}
{"date":"2011-03-01","average_temperature":"20.464000000000002","city":"Huambo","latitude":"13.66S","longitude":"15.69E"}
{"date":"2010-12-01","average_temperature":"21.743000000000002","city":"Hue","latitude":"16.87N","longitude":"107.16E"}
{"date":"2011-11-01","average_temperature":"21.011","city":"Huicheng","latitude":"23.31N","longitude":"116.21E"}
{"date":"2013-01-01","average_temperature":"13.404000000000002","city":"Huntington Beach","latitude":"32.95N","longitude":"117.77W"}
{"date":"2011-12-01","average_temperature":"5.606","city":"Huzhou","latitude":"31.35N","longitude":"120.63E"}
{"date":"2012-10-01","average_temperature":"18.979","city":"Huzhou","latitude":"31.35N","longitude":"120.63E"}
{"date":"2013-04-01","average_temperature":"21.213","city":"Ibagué","latitude":"4.02N","longitude":"74.73W"}
{"date":"2012-03-01","average_temperature":"25.988000000000003","city":"Ibb","latitude":"13.66N","longitude":"43.76E"}
{"date":"2011-08-01","average_temperature":"28.834","city":"Idlib","latitude":"36.17N","longitude":"35.80E"}
{"date":"2011-12-01","average_temperature":"11.744000000000002","city":"Idlib","latitude":"36.17N","longitude":"35.80E"}
{"date":"2012-08-01","average_temperature":"26.820999999999998","city":"Iida","latitude":"36.17N","longitude":"137.24E"}
{"date":"2010-05-01","average_temperature":"27.765","city":"Ikare","latitude":"7.23N","longitude":"5.68E"}
{"date":"2011-03-01","average_temperature":"29.572000000000006","city":"Ikare","latitude":"7.23N","longitude":"5.68E"}
{"date":"2013-03-01","average_temperature":"29.465","city":"Ikot Ekpene","latitude":"5.63N","longitude":"8.07E"}
{"date":"2011-07-01","average_temperature":"25.285999999999998","city":"Ila","latitude":"7.23N","longitude":"5.68E"}
{"date":"2012-08-01","average_temperature":"22.379","city":"Ilhéus","latitude":"15.27S","longitude":"39.17W"}
{"date":"2013-02-01","average_temperature":"25.656999999999996","city":"Iligan","latitude":"8.84N","longitude":"124.05E"}
{"date":"2011-08-01","average_temperature":"24.857","city":"Imphal","latitude":"24.92N","longitude":"93.99E"}
{"date":"2011-09-01","average_temperature":"20.16","city":"Indaiatuba","latitude":"23.31S","longitude":"48.06W"}
{"date":"2011-04-01","average_temperature":"27.3","city":"Indramayu","latitude":"5.63S","longitude":"108.16E"}
{"date":"2011-02-01","average_temperature":"3.734","city":"Iruma","latitude":"36.17N","longitude":"139.23E"}
{"date":"2012-01-01","average_temperature":"13.635","city":"Ismailia","latitude":"31.35N","longitude":"32.04E"}
{"date":"2013-05-01","average_temperature":"19.384","city":"Istanbul","latitude":"40.99N","longitude":"29.82E"}
{"date":"2011-01-01","average_temperature":"26.245","city":"Itabuna","latitude":"15.27S","longitude":"39.17W"}
{"date":"2013-04-01","average_temperature":"22.873","city":"Itaguaí","latitude":"23.31S","longitude":"44.56W"}
{"date":"2013-09-01","city":"Itaguaí","latitude":"23.31S","longitude":"44.56W"}
{"date":"2013-08-01","average_temperature":"18.525","city":"Itajaí","latitude":"26.52S","longitude":"48.36W"}
{"date":"2012-06-01","average_temperature":"18.113","city":"Itapecerica Da Serra","latitude":"23.31S","longitude":"46.31W"}
{"date":"2012-07-01","average_temperature":"27.29","city":"Itarsi","latitude":"23.31N","longitude":"77.77E"}
{"date":"2013-09-01","city":"Itu","latitude":"23.31S","longitude":"48.06W"}
{"date":"2011-10-01","average_temperature":"5.417000000000001","city":"Izhevsk","latitude":"57.05N","longitude":"54.59E"}
{"date":"2012-12-01","average_temperature":"5.229","city":"Izumi","latitude":"34.56N","longitude":"136.22E"}
{"date":"2012-03-01","average_temperature":"25.264","city":"Jaú","latitude":"21.70S","longitude":"49.33W"}
{"date":"2011-09-01","average_temperature":"24.761999999999997","city":"Jaboatão","latitude":"8.84S","longitude":"34.86W"}
{"date":"2013-03-01","average_temperature":"10.861","city":"Jackson","latitude":"32.95N","longitude":"90.96W"}
{"date":"2010-03-01","average_temperature":"30.059","city":"Jaffna","latitude":"8.84N","longitude":"80.27E"}
{"date":"2011-03-01","average_temperature":"29.064","city":"Jaffna","latitude":"8.84N","longitude":"80.27E"}
{"date":"2010-09-01","average_temperature":"27.043000000000003","city":"Jagadhri","latitude":"29.74N","longitude":"77.54E"}
{"date":"2012-07-01","average_temperature":"35.038999999999994","city":"Jahrom","latitude":"28.13N","longitude":"53.64E"}
{"date":"2010-10-01","average_temperature":"27.079","city":"Jalingo","latitude":"8.84N","longitude":"12.16E"}
{"date":"2010-02-01","average_temperature":"17.283","city":"Jalpaiguri","latitude":"26.52N","longitude":"89.55E"}
{"date":"2012-08-01","average_temperature":"27.351999999999997","city":"Jalpaiguri","latitude":"26.52N","longitude":"89.55E"}
{"date":"2011-02-01","average_temperature":"20.97","city":"Jamalpur","latitude":"24.92N","longitude":"86.90E"}
{"date":"2012-07-01","average_temperature":"30.291","city":"Jaunpur","latitude":"26.52N","longitude":"82.39E"}
{"date":"2011-11-01","average_temperature":"14.765999999999998","city":"Jerusalem","latitude":"31.35N","longitude":"35.81E"}
{"date":"2012-08-01","average_temperature":"20.756999999999998","city":"Jiamusi","latitude":"47.42N","longitude":"131.45E"}
{"date":"2011-11-01","average_temperature":"14.503","city":"Jiangyou","latitude":"31.35N","longitude":"105.55E"}
{"date":"2013-07-01","average_temperature":"27.248","city":"Jiaozhou","latitude":"36.17N","longitude":"119.34E"}
{"date":"2013-03-01","average_temperature":"19.302","city":"Jiazi","latitude":"23.31N","longitude":"116.21E"}
{"date":"2010-01-01","average_temperature":"20.716","city":"Jimma","latitude":"7.23N","longitude":"36.49E"}
{"date":"2010-04-01","average_temperature":"11.903","city":"Jinan","latitude":"36.17N","longitude":"117.35E"}
{"date":"2010-01-01","average_temperature":"11.484000000000002","city":"Jinchengjiang","latitude":"24.92N","longitude":"108.18E"}
{"date":"2012-12-01","average_temperature":"5.579","city":"Jinhua","latitude":"29.74N","longitude":"120.00E"}
{"date":"2012-03-01","average_temperature":"9.694","city":"Jishou","latitude":"28.13N","longitude":"110.00E"}
{"date":"2010-05-01","average_temperature":"14.200999999999999","city":"Jishu","latitude":"44.20N","longitude":"127.45E"}
{"date":"2012-02-01","average_temperature":"-14.197000000000001","city":"Jixi","latitude":"45.81N","longitude":"130.38E"}
{"date":"2010-04-01","average_temperature":"22.394000000000002","city":"Joinville","latitude":"26.52S","longitude":"48.36W"}
{"date":"2011-07-01","average_temperature":"19.169","city":"Joinville","latitude":"26.52S","longitude":"48.36W"}
{"date":"2010-05-01","average_temperature":"28.798000000000002","city":"Jolo","latitude":"5.63N","longitude":"119.46E"}
{"date":"2010-02-01","average_temperature":"27.483","city":"Jombang","latitude":"7.23S","longitude":"112.70E"}
{"date":"2010-12-01","average_temperature":"6.728","city":"Kütahya","latitude":"39.38N","longitude":"29.13E"}
{"date":"2010-09-01","average_temperature":"23.358","city":"Kabwe","latitude":"13.66S","longitude":"28.90E"}
{"date":"2011-07-01","average_temperature":"16.979","city":"Kabwe","latitude":"13.66S","longitude":"28.90E"}
{"date":"2010-03-01","average_temperature":"8.894","city":"Kadoma","latitude":"34.56N","longitude":"136.22E"}
{"date":"2012-03-01","average_temperature":"22.311","city":"Kaithal","latitude":"29.74N","longitude":"75.69E"}
{"date":"2010-07-01","average_temperature":"22.927","city":"Kaiyuan","latitude":"23.31N","longitude":"103.98E"}
{"date":"2010-10-01","average_temperature":"27.59","city":"Kakinada","latitude":"16.87N","longitude":"82.05E"}
{"date":"2010-01-01","average_temperature":"23.104","city":"Kalemie","latitude":"5.63S","longitude":"29.06E"}
{"date":"2012-12-01","average_temperature":"22.462","city":"Kalemie","latitude":"5.63S","longitude":"29.06E"}
{"date":"2012-08-01","average_temperature":"31.9","city":"Kamoke","latitude":"31.35N","longitude":"73.51E"}
{"date":"2012-09-01","average_temperature":"29.653000000000002","city":"Kanchrapara","latitude":"23.31N","longitude":"88.25E"}
{"date":"2013-03-01","average_temperature":"-9.227","city":"Kansk","latitude":"55.45N","longitude":"96.38E"}
{"date":"2010-08-01","average_temperature":"29.021","city":"Kaohsiung","latitude":"23.31N","longitude":"119.71E"}
{"date":"2010-07-01","average_temperature":"28.505","city":"Kaolack","latitude":"13.66N","longitude":"15.69W"}
{"date":"2011-11-01","average_temperature":"24.921999999999997","city":"Karimnagar","latitude":"18.48N","longitude":"79.44E"}
{"date":"2012-07-01","average_temperature":"26.26","city":"Kariya","latitude":"34.56N","longitude":"136.22E"}
{"date":"2013-06-01","average_temperature":"22.49","city":"Kariya","latitude":"34.56N","longitude":"136.22E"}
{"date":"2011-08-01","average_temperature":"28.951999999999998","city":"Kashan","latitude":"34.56N","longitude":"50.59E"}
{"date":"2013-03-01","average_temperature":"10.33","city":"Kashihara","latitude":"34.56N","longitude":"136.22E"}
{"date":"2010-05-01","average_temperature":"13.245999999999999","city":"Kaunas","latitude":"55.45N","longitude":"22.68E"}
{"date":"2010-03-01","average_temperature":"27.153","city":"Kedungwuni","latitude":"7.23S","longitude":"109.46E"}
{"date":"2011-04-01","average_temperature":"17.004","city":"Kerman","latitude":"29.74N","longitude":"57.23E"}
{"date":"2010-06-01","average_temperature":"35.163000000000004","city":"Khanewal","latitude":"29.74N","longitude":"72.00E"}
{"date":"2010-07-01","average_temperature":"28.924","city":"Khlong Luang","latitude":"13.66N","longitude":"99.91E"}
{"date":"2012-01-01","average_temperature":"25.36","city":"Kimberley","latitude":"28.13S","longitude":"24.55E"}
{"date":"2012-07-01","average_temperature":"23.074","city":"Kindu","latitude":"2.41S","longitude":"26.52E"}
{"date":"2011-05-01","average_temperature":"18.11","city":"Kishiwada","latitude":"34.56N","longitude":"136.22E"}
{"date":"2012-12-01","average_temperature":"-1.003","city":"Kitchener","latitude":"44.20N","longitude":"80.50W"}
{"date":"2013-06-01","average_temperature":"18.196","city":"Kitwe","latitude":"12.05S","longitude":"27.95E"}
{"date":"2011-08-01","average_temperature":"26.55","city":"Klaten","latitude":"7.23S","longitude":"111.08E"}
{"date":"2011-04-01","average_temperature":"16.326999999999998","city":"Klerksdorp","latitude":"26.52S","longitude":"26.87E"}
{"date":"2012-12-01","average_temperature":"26.061","city":"Kluang","latitude":"2.41N","longitude":"103.66E"}
{"date":"2013-05-01","average_temperature":"31.627","city":"Kohat","latitude":"32.95N","longitude":"71.81E"}
{"date":"2013-08-01","average_temperature":"25.281999999999996","city":"Kolhapur","latitude":"16.87N","longitude":"73.67E"}
{"date":"2010-05-01","average_temperature":"28.711","city":"Kollam","latitude":"8.84N","longitude":"77.03E"}
{"date":"2012-02-01","average_temperature":"27.856","city":"Kollam","latitude":"8.84N","longitude":"77.03E"}
{"date":"2010-10-01","average_temperature":"3.5","city":"Kolomna","latitude":"55.45N","longitude":"39.69E"}
{"date":"2013-03-01","average_temperature":"7.1770000000000005","city":"Konya","latitude":"37.78N","longitude":"32.54E"}
{"date":"2012-12-01","average_temperature":"26.393","city":"Korhogo","latitude":"8.84N","longitude":"5.68W"}
{"date":"2010-08-01","average_temperature":"27.191","city":"Koriyama","latitude":"37.78N","longitude":"140.34E"}
{"date":"2010-01-01","average_temperature":"-0.4940000000000001","city":"Kragujevac","latitude":"44.20N","longitude":"20.12E"}
{"date":"2010-03-01","average_temperature":"0.9159999999999999","city":"Kremenchuk","latitude":"49.03N","longitude":"34.29E"}
{"date":"2012-02-01","average_temperature":"22.408","city":"Krishnanagar","latitude":"23.31N","longitude":"88.25E"}
{"date":"2010-06-01","average_temperature":"28.658","city":"Kuala Terengganu","latitude":"5.63N","longitude":"103.32E"}
{"date":"2013-03-01","average_temperature":"27.316999999999997","city":"Kuantan","latitude":"4.02N","longitude":"103.66E"}
{"date":"2013-06-01","average_temperature":"29.264","city":"Kulim","latitude":"5.63N","longitude":"100.09E"}
{"date":"2013-08-01","average_temperature":"28.441999999999997","city":"Kulim","latitude":"5.63N","longitude":"100.09E"}
{"date":"2010-06-01","average_temperature":"21.521","city":"Kumagaya","latitude":"36.17N","longitude":"139.23E"}
{"date":"2011-12-01","average_temperature":"7.715","city":"Kunming","latitude":"24.92N","longitude":"102.86E"}
{"date":"2011-05-01","average_temperature":"19.022000000000002","city":"Kwekwe","latitude":"18.48S","longitude":"30.42E"}
{"date":"2013-05-01","average_temperature":"26.648000000000003","city":"La Ceiba","latitude":"15.27N","longitude":"87.50W"}
{"date":"2013-09-01","average_temperature":"26.566000000000006","city":"La Ceiba","latitude":"15.27N","longitude":"87.50W"}
{"date":"2011-06-01","average_temperature":"7.682","city":"La Paz","latitude":"16.87S","longitude":"68.65W"}
{"date":"2010-10-01","average_temperature":"16.673000000000002","city":"Lalitpur","latitude":"28.13N","longitude":"84.55E"}
{"date":"2013-06-01","average_temperature":"20.181","city":"Lansing","latitude":"42.59N","longitude":"85.09W"}
{"date":"2010-10-01","average_temperature":"16.011","city":"Laohekou","latitude":"32.95N","longitude":"112.02E"}
{"date":"2012-01-01","average_temperature":"3.064","city":"Leghorn","latitude":"44.20N","longitude":"11.18E"}
{"date":"2011-11-01","average_temperature":"3.715","city":"Legnica","latitude":"50.63N","longitude":"16.48E"}
{"date":"2013-08-01","average_temperature":"28.903000000000002","city":"Leiyang","latitude":"26.52N","longitude":"112.84E"}
{"date":"2012-11-01","average_temperature":"11.605","city":"Lengshuijiang","latitude":"28.13N","longitude":"111.82E"}
{"date":"2013-08-01","average_temperature":"16.326999999999998","city":"Leninsk Kuznetskiy","latitude":"53.84N","longitude":"85.91E"}
{"date":"2010-01-01","average_temperature":"26.254","city":"Leuwiliang","latitude":"7.23S","longitude":"106.22E"}
{"date":"2010-03-01","average_temperature":"8.413","city":"Lexington Fayette","latitude":"37.78N","longitude":"85.42W"}
{"date":"2010-09-01","average_temperature":"21.501","city":"Liaocheng","latitude":"36.17N","longitude":"115.36E"}
{"date":"2012-06-01","average_temperature":"26.89","city":"Liaocheng","latitude":"36.17N","longitude":"115.36E"}
{"date":"2011-11-01","average_temperature":"2.014","city":"Liaoyang","latitude":"40.99N","longitude":"123.55E"}
{"date":"2013-06-01","average_temperature":"25.773000000000003","city":"Libreville","latitude":"0.80N","longitude":"8.84E"}
{"date":"2011-04-01","average_temperature":"13.878","city":"Lille","latitude":"50.63N","longitude":"3.80E"}
{"date":"2010-05-01","average_temperature":"19.857","city":"Limeira","latitude":"21.70S","longitude":"47.60W"}
{"date":"2012-01-01","average_temperature":"5.032","city":"Limoges","latitude":"45.81N","longitude":"1.15E"}
{"date":"2010-06-01","average_temperature":"23.72","city":"Linfen","latitude":"36.17N","longitude":"111.38E"}
{"date":"2011-07-01","average_temperature":"24.529","city":"Linfen","latitude":"36.17N","longitude":"111.38E"}
{"date":"2011-01-01","average_temperature":"26.241","city":"Linhares","latitude":"20.09S","longitude":"39.24W"}
{"date":"2013-04-01","average_temperature":"8.115","city":"Linz","latitude":"49.03N","longitude":"14.69E"}
{"date":"2013-03-01","average_temperature":"16.685000000000002","city":"Liuzhou","latitude":"24.92N","longitude":"109.95E"}
{"date":"2011-08-01","average_temperature":"19.962","city":"Lobito","latitude":"12.05S","longitude":"13.15E"}
{"date":"2012-11-01","average_temperature":"6.827999999999999","city":"London","latitude":"52.24N","longitude":"0.00W"}
{"date":"2011-02-01","average_temperature":"12.449000000000002","city":"Long Beach","latitude":"32.95N","longitude":"117.77W"}
{"date":"2012-03-01","average_temperature":"26.046999999999997","city":"Loum","latitude":"5.63N","longitude":"9.69E"}
{"date":"2012-07-01","average_temperature":"22.336","city":"Loum","latitude":"5.63N","longitude":"9.69E"}
{"date":"2012-07-01","average_temperature":"29.678","city":"Luan","latitude":"31.35N","longitude":"116.86E"}
{"date":"2010-08-01","average_temperature":"19.769000000000002","city":"Lublin","latitude":"50.63N","longitude":"21.55E"}
{"date":"2012-07-01","average_temperature":"18.179","city":"Ludwigshafen","latitude":"49.03N","longitude":"7.35E"}
{"date":"2010-03-01","average_temperature":"27.366999999999997","city":"Lumajang","latitude":"8.84S","longitude":"112.70E"}
{"date":"2011-07-01","average_temperature":"28.351","city":"Luqiao","latitude":"28.13N","longitude":"120.91E"}
{"date":"2013-03-01","average_temperature":"3.2319999999999998","city":"Luton","latitude":"52.24N","longitude":"0.00W"}
{"date":"2010-01-01","average_temperature":"16.149","city":"Luxor","latitude":"26.52N","longitude":"32.24E"}
{"date":"2010-08-01","average_temperature":"28.545","city":"Médéa","latitude":"36.17N","longitude":"1.99E"}
{"date":"2011-12-01","average_temperature":"4.686","city":"Mönchengladbach","latitude":"50.63N","longitude":"6.34E"}
{"date":"2012-01-01","average_temperature":"3.466","city":"Mülheim","latitude":"50.63N","longitude":"6.34E"}
{"date":"2011-09-01","average_temperature":"23.147","city":"Maanshan","latitude":"31.35N","longitude":"118.74E"}
{"date":"2011-05-01","average_temperature":"30.522","city":"Madanapalle","latitude":"13.66N","longitude":"78.44E"}
{"date":"2011-01-01","average_temperature":"17.864","city":"Madhyamgram","latitude":"23.31N","longitude":"88.25E"}
{"date":"2013-09-01","city":"Magnitogorsk","latitude":"53.84N","longitude":"58.64E"}
{"date":"2011-08-01","average_temperature":"26.353","city":"Mahajanga","latitude":"15.27S","longitude":"45.83E"}
{"date":"2010-04-01","average_temperature":"33.126000000000005","city":"Mahesana","latitude":"23.31N","longitude":"72.52E"}
{"date":"2012-09-01","average_temperature":"13.655","city":"Mainz","latitude":"50.63N","longitude":"8.87E"}
{"date":"2011-09-01","average_temperature":"27.412","city":"Malang","latitude":"7.23S","longitude":"112.70E"}
{"date":"2012-01-01","average_temperature":"26.756","city":"Malang","latitude":"7.23S","longitude":"112.70E"}
{"date":"2012-03-01","average_temperature":"19.709","city":"Mandi Bahauddin","latitude":"32.95N","longitude":"73.72E"}
{"date":"2011-01-01","average_temperature":"6.68","city":"Manisa","latitude":"39.38N","longitude":"27.05E"}
{"date":"2013-05-01","average_temperature":"21.293000000000003","city":"Manisa","latitude":"39.38N","longitude":"27.05E"}
{"date":"2012-10-01","average_temperature":"15.390999999999998","city":"Mar Del Plata","latitude":"37.78S","longitude":"56.95W"}
{"date":"2010-10-01","average_temperature":"19.009","city":"Marbella","latitude":"36.17N","longitude":"3.98W"}
{"date":"2012-11-01","average_temperature":"14.597","city":"Marrakesh","latitude":"31.35N","longitude":"7.54W"}
{"date":"2012-10-01","average_temperature":"16.145","city":"Maseru","latitude":"29.74S","longitude":"27.69E"}
{"date":"2013-07-01","average_temperature":"8.793","city":"Maseru","latitude":"29.74S","longitude":"27.69E"}
{"date":"2012-02-01","average_temperature":"26.910999999999998","city":"Mataram","latitude":"8.84S","longitude":"115.95E"}
{"date":"2012-09-01","average_temperature":"23.275","city":"Matsudo","latitude":"36.17N","longitude":"139.23E"}
{"date":"2011-06-01","average_temperature":"18.805","city":"Mbeya","latitude":"8.84S","longitude":"33.24E"}
{"date":"2012-11-01","average_temperature":"19.366","city":"Medellín","latitude":"5.63N","longitude":"75.87W"}
{"date":"2011-12-01","average_temperature":"-2.289","city":"Mentougou","latitude":"39.38N","longitude":"116.53E"}
{"date":"2011-10-01","average_temperature":"17.85","city":"Midrand","latitude":"26.52S","longitude":"28.66E"}
{"date":"2013-03-01","average_temperature":"1.274","city":"Milan","latitude":"45.81N","longitude":"8.08E"}
{"date":"2011-05-01","average_temperature":"28.565","city":"Minatitlán","latitude":"18.48N","longitude":"94.65W"}
{"date":"2011-09-01","average_temperature":"27.217","city":"Minatitlán","latitude":"18.48N","longitude":"94.65W"}
{"date":"2011-06-01","average_temperature":"27.944000000000006","city":"Miramar","latitude":"26.52N","longitude":"80.60W"}
{"date":"2011-05-01","average_temperature":"16.471","city":"Miskolc","latitude":"47.42N","longitude":"20.13E"}
{"date":"2010-08-01","average_temperature":"27.265","city":"Misratah","latitude":"32.95N","longitude":"14.36E"}
{"date":"2011-01-01","average_temperature":"15.53","city":"Misratah","latitude":"32.95N","longitude":"14.36E"}
{"date":"2013-01-01","average_temperature":"1.288","city":"Mitaka","latitude":"36.17N","longitude":"139.23E"}
{"date":"2013-06-01","average_temperature":"28.891","city":"Mokolo","latitude":"10.45N","longitude":"13.91E"}
{"date":"2013-09-01","city":"Monrovia","latitude":"7.23N","longitude":"10.54W"}
{"date":"2013-02-01","average_temperature":"17.896","city":"Monterrey","latitude":"26.52N","longitude":"100.30W"}
{"date":"2011-10-01","average_temperature":"15.75","city":"Montevideo","latitude":"34.56S","longitude":"56.43W"}
{"date":"2012-03-01","average_temperature":"8.888","city":"Monza","latitude":"45.81N","longitude":"10.38E"}
{"date":"2010-10-01","average_temperature":"26.675","city":"Moradabad","latitude":"28.13N","longitude":"79.09E"}
{"date":"2012-04-01","average_temperature":"19.985","city":"Morelia","latitude":"20.09N","longitude":"100.66W"}
{"date":"2011-03-01","average_temperature":"31.733","city":"Mubi","latitude":"10.45N","longitude":"13.91E"}
{"date":"2011-05-01","average_temperature":"31.606","city":"Mubi","latitude":"10.45N","longitude":"13.91E"}
{"date":"2011-08-01","average_temperature":"16.032","city":"Munich","latitude":"47.42N","longitude":"10.66E"}
{"date":"2011-08-01","average_temperature":"27.068","city":"Murcia","latitude":"37.78N","longitude":"2.03W"}
{"date":"2012-04-01","average_temperature":"24.58","city":"Mwene Ditu","latitude":"7.23S","longitude":"23.51E"}
{"date":"2012-09-01","average_temperature":"25.131","city":"Nacala","latitude":"15.27S","longitude":"40.83E"}
{"date":"2012-02-01","average_temperature":"21.224","city":"Nadiad","latitude":"23.31N","longitude":"72.52E"}
{"date":"2010-12-01","average_temperature":"22.234","city":"Nalgonda","latitude":"16.87N","longitude":"78.70E"}
{"date":"2012-10-01","average_temperature":"26.236","city":"Nalgonda","latitude":"16.87N","longitude":"78.70E"}
{"date":"2013-06-01","average_temperature":"29.204","city":"Nam Dinh","latitude":"20.09N","longitude":"105.78E"}
{"date":"2011-07-01","average_temperature":"16.689","city":"Nancy","latitude":"49.03N","longitude":"7.35E"}
{"date":"2013-09-01","city":"Nantes","latitude":"47.42N","longitude":"1.18W"}
{"date":"2012-12-01","average_temperature":"19.438","city":"Narsingdi","latitude":"23.31N","longitude":"90.00E"}
{"date":"2012-11-01","average_temperature":"14.009","city":"Naucalpan","latitude":"20.09N","longitude":"98.96W"}
{"date":"2011-07-01","average_temperature":"29.634","city":"Navoi","latitude":"39.38N","longitude":"64.51E"}
{"date":"2010-05-01","average_temperature":"31.918000000000003","city":"Navsari","latitude":"20.09N","longitude":"73.36E"}
{"date":"2010-02-01","average_temperature":"19.06","city":"Nawabshah","latitude":"26.52N","longitude":"68.06E"}
{"date":"2013-03-01","average_temperature":"16.912","city":"Neijiang","latitude":"29.74N","longitude":"105.23E"}
{"date":"2011-07-01","average_temperature":"15.847000000000001","city":"Neuss","latitude":"50.63N","longitude":"6.34E"}
{"date":"2012-11-01","average_temperature":"6.9380000000000015","city":"Newport News","latitude":"37.78N","longitude":"77.29W"}
{"date":"2013-02-01","average_temperature":"3.5380000000000003","city":"Newport News","latitude":"37.78N","longitude":"77.29W"}
{"date":"2013-04-01","average_temperature":"13.207","city":"Neyshabur","latitude":"36.17N","longitude":"59.67E"}
{"date":"2010-09-01","average_temperature":"24.976999999999997","city":"Nha Trang","latitude":"12.05N","longitude":"108.49E"}
{"date":"2011-12-01","average_temperature":"2.863","city":"Nice","latitude":"44.20N","longitude":"6.71E"}
{"date":"2012-09-01","average_temperature":"15.450999999999999","city":"Nice","latitude":"44.20N","longitude":"6.71E"}
{"date":"2010-09-01","average_temperature":"23.115","city":"Niigata","latitude":"37.78N","longitude":"138.31E"}
{"date":"2013-05-01","average_temperature":"15.614","city":"Niigata","latitude":"37.78N","longitude":"138.31E"}
{"date":"2012-12-01","average_temperature":"26.051","city":"Nilópolis","latitude":"23.31S","longitude":"42.82W"}
{"date":"2013-05-01","average_temperature":"17.328","city":"Nis","latitude":"42.59N","longitude":"21.82E"}
{"date":"2011-02-01","average_temperature":"28.462","city":"Nnewi","latitude":"5.63N","longitude":"6.46E"}
{"date":"2013-08-01","average_temperature":"18.24","city":"Noginsk","latitude":"55.45N","longitude":"39.69E"}
{"date":"2013-03-01","average_temperature":"3.2319999999999998","city":"Northampton","latitude":"52.24N","longitude":"0.00W"}
{"date":"2012-03-01","average_temperature":"7.9639999999999995","city":"Norwich","latitude":"52.24N","longitude":"0.00W"}
{"date":"2013-09-01","city":"Nova Iguaçu","latitude":"23.31S","longitude":"42.82W"}
{"date":"2010-04-01","average_temperature":"7.524999999999999","city":"Novara","latitude":"45.81N","longitude":"8.08E"}
{"date":"2010-09-01","average_temperature":"19.262","city":"Novocherkassk","latitude":"47.42N","longitude":"39.08E"}
{"date":"2011-04-01","average_temperature":"7.097","city":"Novokuznetsk","latitude":"53.84N","longitude":"85.91E"}
{"date":"2013-06-01","average_temperature":"26.406","city":"Nsukka","latitude":"7.23N","longitude":"7.30E"}
{"date":"2013-02-01","average_temperature":"2.046","city":"Odawara","latitude":"36.17N","longitude":"139.23E"}
{"date":"2012-04-01","average_temperature":"6.707999999999999","city":"Odense","latitude":"55.45N","longitude":"11.34E"}
{"date":"2010-12-01","average_temperature":"4.5470000000000015","city":"Odesa","latitude":"45.81N","longitude":"31.15E"}
{"date":"2012-06-01","average_temperature":"26.497000000000003","city":"Ogbomosho","latitude":"8.84N","longitude":"4.05E"}
{"date":"2012-05-01","average_temperature":"33.013000000000005","city":"Okara","latitude":"31.35N","longitude":"73.51E"}
{"date":"2010-03-01","average_temperature":"9.594","city":"Oklahoma City","latitude":"36.17N","longitude":"97.46W"}
{"date":"2012-07-01","average_temperature":"21.49","city":"Oktyabrskiy","latitude":"53.84N","longitude":"53.18E"}
{"date":"2013-07-01","average_temperature":"25.129","city":"Olathe","latitude":"39.38N","longitude":"95.72W"}
{"date":"2012-01-01","average_temperature":"4.225","city":"Oldham","latitude":"53.84N","longitude":"1.36W"}
{"date":"2012-05-01","average_temperature":"33.32","city":"Ongole","latitude":"15.27N","longitude":"80.83E"}
{"date":"2012-12-01","average_temperature":"-2.334","city":"Opole","latitude":"50.63N","longitude":"19.01E"}
{"date":"2011-05-01","average_temperature":"15.501","city":"Orange","latitude":"32.95N","longitude":"117.77W"}
{"date":"2010-12-01","average_temperature":"10.843","city":"Ordu","latitude":"40.99N","longitude":"38.34E"}
{"date":"2011-07-01","average_temperature":"18.118","city":"Orléans","latitude":"47.42N","longitude":"1.18E"}
{"date":"2013-06-01","average_temperature":"20.636999999999997","city":"Orsk","latitude":"50.63N","longitude":"59.58E"}
{"date":"2012-01-01","average_temperature":"11.427","city":"Oruro","latitude":"18.48S","longitude":"67.61W"}
{"date":"2012-02-01","average_temperature":"28.872","city":"Oshogbo","latitude":"7.23N","longitude":"4.05E"}
{"date":"2010-02-01","average_temperature":"6.863","city":"Osmaniye","latitude":"37.78N","longitude":"36.61E"}
{"date":"2010-07-01","average_temperature":"21.178","city":"Ottawa","latitude":"45.81N","longitude":"75.00W"}
{"date":"2013-02-01","average_temperature":"28.603","city":"Ouagadougou","latitude":"12.05N","longitude":"1.64W"}
{"date":"2013-06-01","average_temperature":"25.591","city":"Owo","latitude":"7.23N","longitude":"5.68E"}
{"date":"2011-01-01","average_temperature":"0.8170000000000001","city":"Oyama","latitude":"36.17N","longitude":"139.23E"}
{"date":"2011-09-01","average_temperature":"25.77","city":"Oyo","latitude":"7.23N","longitude":"4.05E"}
{"date":"2013-08-01","average_temperature":"25.945999999999998","city":"Pôrto Velho","latitude":"8.84S","longitude":"64.05W"}
{"date":"2010-08-01","average_temperature":"29.761","city":"Pabna","latitude":"23.31N","longitude":"90.00E"}
{"date":"2012-07-01","average_temperature":"17.677","city":"Paderborn","latitude":"52.24N","longitude":"7.88E"}
{"date":"2012-03-01","average_temperature":"24.213","city":"Palhoça","latitude":"28.13S","longitude":"48.18W"}
{"date":"2010-09-01","average_temperature":"29.842","city":"Palmas","latitude":"10.45S","longitude":"48.27W"}
{"date":"2012-01-01","average_temperature":"24.886","city":"Palmas","latitude":"10.45S","longitude":"48.27W"}
{"date":"2013-06-01","average_temperature":"22.434","city":"Palmdale","latitude":"34.56N","longitude":"118.70W"}
{"date":"2013-09-01","city":"Palmira","latitude":"4.02N","longitude":"76.34W"}
{"date":"2012-08-01","average_temperature":"27.049","city":"Pamulang","latitude":"5.63S","longitude":"106.55E"}
{"date":"2010-09-01","average_temperature":"11.258","city":"Panevezys","latitude":"55.45N","longitude":"25.51E"}
{"date":"2011-02-01","average_temperature":"29.302","city":"Parakou","latitude":"8.84N","longitude":"2.43E"}
{"date":"2012-10-01","average_temperature":"26.386","city":"Parbhani","latitude":"20.09N","longitude":"76.78E"}
{"date":"2012-03-01","average_temperature":"9.721","city":"Paris","latitude":"49.03N","longitude":"2.45E"}
{"date":"2012-03-01","average_temperature":"27.058000000000003","city":"Pasir Gudang","latitude":"0.80N","longitude":"103.66E"}
{"date":"2013-09-01","city":"Pasto","latitude":"0.80N","longitude":"77.95W"}
{"date":"2012-03-01","average_temperature":"25.087","city":"Patna","latitude":"24.92N","longitude":"85.12E"}
{"date":"2013-01-01","average_temperature":"15.056","city":"Patna","latitude":"24.92N","longitude":"85.12E"}
{"date":"2012-04-01","average_temperature":"23.232","city":"Patos De Minas","latitude":"18.48S","longitude":"47.32W"}
{"date":"2011-10-01","average_temperature":"13.928","city":"Perpignan","latitude":"42.59N","longitude":"2.18E"}
{"date":"2011-08-01","average_temperature":"27.443","city":"Petaling Jaya","latitude":"2.41N","longitude":"102.05E"}
{"date":"2012-01-01","average_temperature":"5.3130000000000015","city":"Peterborough","latitude":"52.24N","longitude":"0.00W"}
{"date":"2011-08-01","average_temperature":"23.325","city":"Petrópolis","latitude":"23.31S","longitude":"42.82W"}
{"date":"2012-10-01","average_temperature":"28.441000000000006","city":"Petrolina","latitude":"8.84S","longitude":"39.73W"}
{"date":"2010-07-01","average_temperature":"21.039","city":"Pforzheim","latitude":"49.03N","longitude":"9.80E"}
{"date":"2011-08-01","average_temperature":"27.572","city":"Phnum Pénh","latitude":"12.05N","longitude":"105.21E"}
{"date":"2013-03-01","average_temperature":"19.825","city":"Pingshan","latitude":"23.31N","longitude":"114.47E"}
{"date":"2010-02-01","average_temperature":"4.924","city":"Plano","latitude":"32.95N","longitude":"96.70W"}
{"date":"2010-12-01","average_temperature":"-2.787","city":"Ploiesti","latitude":"45.81N","longitude":"26.54E"}
{"date":"2010-08-01","average_temperature":"25.756999999999998","city":"Plumbon","latitude":"7.23S","longitude":"107.84E"}
{"date":"2012-02-01","average_temperature":"25.362","city":"Plumbon","latitude":"7.23S","longitude":"107.84E"}
{"date":"2012-09-01","average_temperature":"14.752","city":"Plzen","latitude":"50.63N","longitude":"13.94E"}
{"date":"2013-09-01","average_temperature":"23.301","city":"Pomona","latitude":"34.56N","longitude":"118.70W"}
{"date":"2010-07-01","average_temperature":"27.941999999999997","city":"Ponce","latitude":"18.48N","longitude":"65.92W"}
{"date":"2012-05-01","average_temperature":"32.62","city":"Pondicherry","latitude":"12.05N","longitude":"80.55E"}
{"date":"2010-08-01","average_temperature":"14.785","city":"Ponta Grossa","latitude":"24.92S","longitude":"49.66W"}
{"date":"2010-12-01","average_temperature":"26.328000000000003","city":"Pontianak","latitude":"0.80S","longitude":"110.09E"}
{"date":"2012-08-01","average_temperature":"28.608","city":"Port Saint Lucie","latitude":"26.52N","longitude":"80.60W"}
{"date":"2010-12-01","average_temperature":"24.741999999999997","city":"Portmore","latitude":"18.48N","longitude":"76.06W"}
{"date":"2010-06-01","average_temperature":"14.228000000000002","city":"Porto Alegre","latitude":"29.74S","longitude":"51.69W"}
{"date":"2010-02-01","average_temperature":"26.855","city":"Portoviejo","latitude":"0.80S","longitude":"81.16W"}
{"date":"2012-12-01","average_temperature":"7.862","city":"Portsmouth","latitude":"50.63N","longitude":"1.27W"}
{"date":"2012-05-01","average_temperature":"18.724","city":"Posadas","latitude":"28.13S","longitude":"55.45W"}
{"date":"2012-02-01","average_temperature":"22.916","city":"Potchefstroom","latitude":"26.52S","longitude":"26.87E"}
{"date":"2010-06-01","average_temperature":"5.632000000000001","city":"Potosí","latitude":"20.09S","longitude":"66.54W"}
{"date":"2012-01-01","average_temperature":"12.017000000000001","city":"Potosí","latitude":"20.09S","longitude":"66.54W"}
{"date":"2010-12-01","average_temperature":"-4.412","city":"Potsdam","latitude":"52.24N","longitude":"13.14E"}
{"date":"2011-02-01","average_temperature":"25.575","city":"Prabumulih","latitude":"4.02S","longitude":"103.66E"}
{"date":"2012-01-01","average_temperature":"1.394","city":"Prague","latitude":"50.63N","longitude":"13.94E"}
{"date":"2010-06-01","average_temperature":"18.861","city":"Pristina","latitude":"42.59N","longitude":"21.82E"}
{"date":"2010-09-01","average_temperature":"25.123","city":"Puqi","latitude":"29.74N","longitude":"114.46E"}
{"date":"2011-07-01","average_temperature":"28.5","city":"Puri","latitude":"20.09N","longitude":"85.31E"}
{"date":"2010-07-01","average_temperature":"28.743","city":"Puyang","latitude":"36.17N","longitude":"115.36E"}
{"date":"2012-01-01","average_temperature":"23.066","city":"Pyay","latitude":"18.48N","longitude":"94.65E"}
{"date":"2010-02-01","average_temperature":"6.912000000000001","city":"Qom","latitude":"34.56N","longitude":"50.59E"}
{"date":"2013-05-01","average_temperature":"24.910999999999998","city":"Quelimane","latitude":"18.48S","longitude":"37.18E"}
{"date":"2010-06-01","average_temperature":"22.415","city":"Rabat","latitude":"34.56N","longitude":"5.84W"}
{"date":"2012-01-01","average_temperature":"-2.4039999999999995","city":"Radom","latitude":"50.63N","longitude":"21.55E"}
{"date":"2011-10-01","average_temperature":"25.973000000000003","city":"Rae Bareli","latitude":"26.52N","longitude":"80.60E"}
{"date":"2011-04-01","average_temperature":"30.829","city":"Raichur","latitude":"16.87N","longitude":"77.02E"}
{"date":"2010-05-01","average_temperature":"34.733000000000004","city":"Raipur","latitude":"21.70N","longitude":"82.21E"}
{"date":"2010-08-01","average_temperature":"27.908","city":"Rajkot","latitude":"21.70N","longitude":"70.10E"}
{"date":"2011-02-01","average_temperature":"22.566","city":"Rajpur","latitude":"23.31N","longitude":"88.25E"}
{"date":"2013-07-01","average_temperature":"30.159000000000002","city":"Rajshahi","latitude":"24.92N","longitude":"88.67E"}
{"date":"2010-05-01","average_temperature":"21.307","city":"Raleigh","latitude":"36.17N","longitude":"79.56W"}
{"date":"2013-03-01","average_temperature":"6.556","city":"Raleigh","latitude":"36.17N","longitude":"79.56W"}
{"date":"2013-02-01","average_temperature":"27.75","city":"Rangoon","latitude":"16.87N","longitude":"95.44E"}
{"date":"2011-10-01","average_temperature":"26.377","city":"Raurkela","latitude":"21.70N","longitude":"85.67E"}
{"date":"2011-11-01","average_temperature":"23.135","city":"Raurkela","latitude":"21.70N","longitude":"85.67E"}
{"date":"2010-12-01","average_temperature":"2.8020000000000005","city":"Reading","latitude":"50.63N","longitude":"1.27W"}
{"date":"2011-01-01","average_temperature":"4.763","city":"Reno","latitude":"39.38N","longitude":"120.69W"}
{"date":"2010-02-01","average_temperature":"19.178","city":"Rewari","latitude":"28.13N","longitude":"77.27E"}
{"date":"2013-03-01","average_temperature":"26.116","city":"Rio Branco","latitude":"10.45S","longitude":"67.91W"}
{"date":"2013-03-01","average_temperature":"21.24","city":"Rio Grande","latitude":"31.35S","longitude":"52.77W"}
{"date":"2012-12-01","average_temperature":"7.8519999999999985","city":"Riverside","latitude":"34.56N","longitude":"116.76W"}
{"date":"2011-10-01","average_temperature":"27.267","city":"Riyadh","latitude":"24.92N","longitude":"46.11E"}
{"date":"2011-09-01","average_temperature":"27.295","city":"Robertsonpet","latitude":"13.66N","longitude":"78.44E"}
{"date":"2012-03-01","average_temperature":"21.688000000000002","city":"Rosario","latitude":"32.95S","longitude":"60.32W"}
{"date":"2012-02-01","average_temperature":"-1.213","city":"Rostock","latitude":"53.84N","longitude":"12.27E"}
{"date":"2010-02-01","average_temperature":"1.1819999999999995","city":"Rotterdam","latitude":"52.24N","longitude":"5.26E"}
{"date":"2012-08-01","average_temperature":"29.275","city":"Roxas","latitude":"12.05N","longitude":"123.29E"}
{"date":"2011-05-01","average_temperature":"12.809","city":"Rubtsovsk","latitude":"52.24N","longitude":"81.46E"}
{"date":"2012-02-01","average_temperature":"-22.858","city":"Rubtsovsk","latitude":"52.24N","longitude":"81.46E"}
{"date":"2010-12-01","average_temperature":"23.216","city":"São Bernardo Do Campo","latitude":"23.31S","longitude":"46.31W"}
{"date":"2012-07-01","average_temperature":"23.735","city":"São Gonçalo","latitude":"23.31S","longitude":"42.82W"}
{"date":"2012-12-01","average_temperature":"22.816","city":"São José Dos Pinhais","latitude":"24.92S","longitude":"49.66W"}
{"date":"2011-02-01","average_temperature":"9.817","city":"Sacramento","latitude":"37.78N","longitude":"122.03W"}
{"date":"2013-03-01","average_temperature":"7.955","city":"Sagamihara","latitude":"36.17N","longitude":"139.23E"}
{"date":"2010-06-01","average_temperature":"30.267","city":"Saharsa","latitude":"26.52N","longitude":"85.97E"}
{"date":"2010-09-01","average_temperature":"29.824","city":"Saint Louis","latitude":"16.87N","longitude":"16.74W"}
{"date":"2013-09-01","city":"Saint Louis","latitude":"16.87N","longitude":"16.74W"}
{"date":"2011-08-01","average_temperature":"29.011999999999997","city":"Saint Petersburg","latitude":"28.13N","longitude":"82.73W"}
{"date":"2012-04-01","average_temperature":"11.296","city":"Salt Lake City","latitude":"40.99N","longitude":"112.90W"}
{"date":"2011-10-01","average_temperature":"15.74","city":"Salta","latitude":"24.92S","longitude":"65.62W"}
{"date":"2013-08-01","average_temperature":"27.735","city":"Sambalpur","latitude":"21.70N","longitude":"83.94E"}
{"date":"2012-05-01","average_temperature":"5.299","city":"San Carlos De Bariloche","latitude":"40.99S","longitude":"70.30W"}
{"date":"2012-12-01","average_temperature":"25.839000000000002","city":"San Cristóbal","latitude":"18.48N","longitude":"69.30W"}
{"date":"2012-12-01","average_temperature":"8.95","city":"San Jose","latitude":"37.78N","longitude":"122.03W"}
{"date":"2011-08-01","average_temperature":"10.997","city":"San Juan","latitude":"31.35S","longitude":"67.85W"}
{"date":"2011-08-01","average_temperature":"27.744","city":"San Juan","latitude":"18.48N","longitude":"65.92W"}
{"date":"2010-11-01","average_temperature":"18.254","city":"San Juan Sacatepéquez","latitude":"15.27N","longitude":"90.83W"}
{"date":"2011-07-01","average_temperature":"29.947","city":"San Nicolás De Los Garza","latitude":"26.52N","longitude":"100.30W"}
{"date":"2011-06-01","average_temperature":"27.546","city":"San Pablo","latitude":"13.66N","longitude":"121.38E"}
{"date":"2010-06-01","average_temperature":"19.589","city":"San Pablo De Las Salinas","latitude":"20.09N","longitude":"98.96W"}
{"date":"2010-03-01","average_temperature":"11.44","city":"Sanandaj","latitude":"34.56N","longitude":"46.70E"}
{"date":"2012-06-01","average_temperature":"24.64","city":"Sanming","latitude":"26.52N","longitude":"118.21E"}
{"date":"2012-12-01","average_temperature":"24.761999999999997","city":"Santa Luzia","latitude":"20.09S","longitude":"44.36W"}
{"date":"2012-11-01","average_temperature":"27.355999999999998","city":"Santa Rosa","latitude":"13.66N","longitude":"121.38E"}
{"date":"2011-05-01","average_temperature":"25.996","city":"Santa Teresa","latitude":"10.45N","longitude":"66.27W"}
{"date":"2011-12-01","average_temperature":"26.609","city":"Santiago Del Estero","latitude":"28.13S","longitude":"64.55W"}
{"date":"2010-06-01","average_temperature":"22.000999999999998","city":"Santo Domingo","latitude":"0.80S","longitude":"79.55W"}
{"date":"2010-09-01","average_temperature":"20.063","city":"Santos","latitude":"23.31S","longitude":"46.31W"}
{"date":"2012-11-01","average_temperature":"21.811999999999998","city":"Santos","latitude":"23.31S","longitude":"46.31W"}
{"date":"2012-04-01","average_temperature":"10.35","city":"Saransk","latitude":"53.84N","longitude":"45.00E"}
{"date":"2013-06-01","average_temperature":"27.357","city":"Sarh","latitude":"8.84N","longitude":"18.65E"}
{"date":"2013-07-01","average_temperature":"29.206000000000003","city":"Sari","latitude":"36.17N","longitude":"53.70E"}
{"date":"2013-04-01","average_temperature":"30.435","city":"Satkhira","latitude":"23.31N","longitude":"88.25E"}
{"date":"2012-10-01","average_temperature":"8.671000000000001","city":"Seattle","latitude":"47.42N","longitude":"121.97W"}
{"date":"2010-11-01","average_temperature":"27.1","city":"Seremban","latitude":"2.41N","longitude":"102.05E"}
{"date":"2013-04-01","average_temperature":"27.956999999999997","city":"Seremban","latitude":"2.41N","longitude":"102.05E"}
{"date":"2013-07-01","average_temperature":"27.584","city":"Seremban","latitude":"2.41N","longitude":"102.05E"}
{"date":"2012-10-01","average_temperature":"19.055","city":"Sevilla","latitude":"37.78N","longitude":"6.10W"}
{"date":"2011-12-01","average_temperature":"26.605","city":"Shaki","latitude":"8.84N","longitude":"4.05E"}
{"date":"2013-09-01","city":"Shanghai","latitude":"31.35N","longitude":"120.63E"}
{"date":"2012-01-01","average_temperature":"3.97","city":"Shaoxing","latitude":"29.74N","longitude":"120.00E"}
{"date":"2012-12-01","average_temperature":"3.809","city":"Sheffield","latitude":"53.84N","longitude":"1.36W"}
{"date":"2010-04-01","average_temperature":"25.838","city":"Shiliguri","latitude":"26.52N","longitude":"87.76E"}
{"date":"2012-04-01","average_temperature":"24.303","city":"Shillong","latitude":"24.92N","longitude":"92.22E"}
{"date":"2010-03-01","average_temperature":"1.5759999999999998","city":"Shizuishan","latitude":"39.38N","longitude":"106.13E"}
{"date":"2010-09-01","average_temperature":"26.463","city":"Sholapur","latitude":"18.48N","longitude":"76.06E"}
{"date":"2010-11-01","average_temperature":"-5.303999999999999","city":"Shuangyashan","latitude":"47.42N","longitude":"131.45E"}
{"date":"2012-04-01","average_temperature":"26.611","city":"Sibu","latitude":"2.41N","longitude":"111.70E"}
{"date":"2011-05-01","average_temperature":"29.502","city":"Sikasso","latitude":"10.45N","longitude":"5.73W"}
{"date":"2011-09-01","average_temperature":"27.410999999999998","city":"Silchar","latitude":"24.92N","longitude":"92.22E"}
{"date":"2010-04-01","average_temperature":"10.9","city":"Skopje","latitude":"42.59N","longitude":"21.82E"}
{"date":"2011-07-01","average_temperature":"15.992","city":"Slough","latitude":"52.24N","longitude":"0.00W"}
{"date":"2011-03-01","average_temperature":"-1.85","city":"Smolensk","latitude":"55.45N","longitude":"31.18E"}
{"date":"2012-11-01","average_temperature":"28.05","city":"Soc Trang","latitude":"8.84N","longitude":"106.22E"}
{"date":"2011-11-01","average_temperature":"17.852999999999998","city":"Sohag","latitude":"26.52N","longitude":"32.24E"}
{"date":"2012-01-01","average_temperature":"-16.815","city":"Solikamsk","latitude":"60.27N","longitude":"58.38E"}
{"date":"2011-10-01","average_temperature":"26.184","city":"Soreang","latitude":"7.23S","longitude":"107.84E"}
{"date":"2012-05-01","average_temperature":"19.54","city":"South Bend","latitude":"40.99N","longitude":"85.21W"}
{"date":"2011-11-01","average_temperature":"19.573","city":"Soweto","latitude":"26.52S","longitude":"28.66E"}
{"date":"2011-03-01","average_temperature":"3.8810000000000002","city":"Spokane","latitude":"47.42N","longitude":"117.24W"}
{"date":"2011-05-01","average_temperature":"12.193","city":"Springs","latitude":"26.52S","longitude":"28.66E"}
{"date":"2012-11-01","average_temperature":"19.05","city":"Springs","latitude":"26.52S","longitude":"28.66E"}
{"date":"2012-11-01","average_temperature":"6.162000000000001","city":"Srinagar","latitude":"34.56N","longitude":"73.95E"}
{"date":"2010-01-01","average_temperature":"-2.359","city":"Stamford","latitude":"40.99N","longitude":"74.56W"}
{"date":"2012-10-01","average_temperature":"8.940000000000003","city":"Stuttgart","latitude":"49.03N","longitude":"9.80E"}
{"date":"2012-02-01","average_temperature":"13.224","city":"Sucre","latitude":"18.48S","longitude":"65.92W"}
{"date":"2011-03-01","average_temperature":"-4.027","city":"Sudbury","latitude":"45.81N","longitude":"81.92W"}
{"date":"2010-10-01","average_temperature":"17.837999999999994","city":"Suining","latitude":"29.74N","longitude":"105.23E"}
{"date":"2012-02-01","average_temperature":"-8.049000000000001","city":"Sujiatun","latitude":"40.99N","longitude":"123.55E"}
{"date":"2011-03-01","average_temperature":"25.195999999999998","city":"Sultanpur","latitude":"26.52N","longitude":"82.39E"}
{"date":"2010-06-01","average_temperature":"27.362","city":"Sunrise Manor","latitude":"36.17N","longitude":"115.36W"}
{"date":"2013-04-01","average_temperature":"27.615","city":"Surabaya","latitude":"7.23S","longitude":"112.70E"}
{"date":"2010-10-01","average_temperature":"2.3669999999999995","city":"Surgut","latitude":"61.88N","longitude":"73.02E"}
{"date":"2012-06-01","average_temperature":"12.993","city":"Swindon","latitude":"52.24N","longitude":"2.63W"}
{"date":"2013-09-01","city":"Swindon","latitude":"52.24N","longitude":"2.63W"}
{"date":"2011-05-01","average_temperature":"15.384","city":"Syracuse","latitude":"42.59N","longitude":"76.36W"}
{"date":"2011-12-01","average_temperature":"3.663","city":"Szczecin","latitude":"53.84N","longitude":"15.00E"}
{"date":"2010-05-01","average_temperature":"21.249000000000002","city":"Taian","latitude":"36.17N","longitude":"117.35E"}
{"date":"2012-02-01","average_temperature":"17.61","city":"Taitung","latitude":"23.31N","longitude":"121.46E"}
{"date":"2013-05-01","average_temperature":"16.239","city":"Takaoka","latitude":"36.17N","longitude":"137.24E"}
{"date":"2013-08-01","average_temperature":"26.587","city":"Takaoka","latitude":"36.17N","longitude":"137.24E"}
{"date":"2013-01-01","average_temperature":"1.288","city":"Takasaki","latitude":"36.17N","longitude":"139.23E"}
{"date":"2013-06-01","average_temperature":"20.927","city":"Takasaki","latitude":"36.17N","longitude":"139.23E"}
{"date":"2011-02-01","average_temperature":"26.997","city":"Talisay","latitude":"10.45N","longitude":"123.55E"}
{"date":"2011-01-01","average_temperature":"19.303","city":"Tampico","latitude":"21.70N","longitude":"97.79W"}
{"date":"2010-06-01","average_temperature":"25.45","city":"Tanga","latitude":"5.63S","longitude":"38.74E"}
{"date":"2012-03-01","average_temperature":"27.691000000000006","city":"Tangerang","latitude":"5.63S","longitude":"106.55E"}
{"date":"2010-01-01","average_temperature":"16.259","city":"Tanta","latitude":"31.35N","longitude":"30.16E"}
{"date":"2011-03-01","average_temperature":"16.533","city":"Tanta","latitude":"31.35N","longitude":"30.16E"}
{"date":"2012-09-01","average_temperature":"16.212","city":"Taonan","latitude":"45.81N","longitude":"123.46E"}
{"date":"2010-09-01","average_temperature":"12.785","city":"Taraz","latitude":"42.59N","longitude":"72.00E"}
{"date":"2010-11-01","average_temperature":"13.656","city":"Tarragona","latitude":"40.99N","longitude":"2.13E"}
{"date":"2012-01-01","average_temperature":"-5.4910000000000005","city":"Tartu","latitude":"58.66N","longitude":"27.69E"}
{"date":"2010-03-01","average_temperature":"5.019","city":"Tbilisi","latitude":"40.99N","longitude":"44.73E"}
{"date":"2012-04-01","average_temperature":"23.58","city":"Tete","latitude":"16.87S","longitude":"33.49E"}
{"date":"2012-05-01","average_temperature":"23.111","city":"Tete","latitude":"16.87S","longitude":"33.49E"}
{"date":"2013-01-01","average_temperature":"26.861","city":"Thanyaburi","latitude":"13.66N","longitude":"101.56E"}
{"date":"2011-07-01","average_temperature":"25.706","city":"Thiruvananthapuram","latitude":"8.84N","longitude":"77.03E"}
{"date":"2013-06-01","average_temperature":"25.706999999999997","city":"Thiruvananthapuram","latitude":"8.84N","longitude":"77.03E"}
{"date":"2013-05-01","average_temperature":"19.028","city":"Thousand Oaks","latitude":"34.56N","longitude":"118.70W"}
{"date":"2012-07-01","average_temperature":"27.183000000000003","city":"Thrissur","latitude":"10.45N","longitude":"76.09E"}
{"date":"2010-11-01","average_temperature":"13.275","city":"Tianmen","latitude":"31.35N","longitude":"113.09E"}
{"date":"2012-06-01","average_temperature":"18.316","city":"Tieli","latitude":"47.42N","longitude":"129.08E"}
{"date":"2012-02-01","average_temperature":"-5.6530000000000005","city":"Timisoara","latitude":"45.81N","longitude":"21.92E"}
{"date":"2013-03-01","average_temperature":"27.428","city":"Timon","latitude":"5.63S","longitude":"43.59W"}
{"date":"2011-07-01","average_temperature":"24.754","city":"Tirana","latitude":"40.99N","longitude":"19.17E"}
{"date":"2011-08-01","average_temperature":"26.02","city":"Tirunelveli","latitude":"8.84N","longitude":"77.03E"}
{"date":"2010-06-01","average_temperature":"21.521","city":"Toda","latitude":"36.17N","longitude":"139.23E"}
{"date":"2010-09-01","average_temperature":"21.002","city":"Tokat","latitude":"40.99N","longitude":"36.21E"}
{"date":"2012-08-01","average_temperature":"26.680999999999997","city":"Tokorozawa","latitude":"36.17N","longitude":"139.23E"}
{"date":"2013-08-01","average_temperature":"26.364","city":"Tokorozawa","latitude":"36.17N","longitude":"139.23E"}
{"date":"2011-11-01","average_temperature":"25.064","city":"Toliary","latitude":"23.31S","longitude":"42.82E"}
{"date":"2010-06-01","average_temperature":"16.509999999999998","city":"Tomakomai","latitude":"42.59N","longitude":"141.82E"}
{"date":"2012-07-01","average_temperature":"26.995","city":"Tongzhou","latitude":"39.38N","longitude":"116.53E"}
{"date":"2012-04-01","average_temperature":"9.11","city":"Tours","latitude":"47.42N","longitude":"1.18E"}
{"date":"2010-02-01","average_temperature":"7.752000000000001","city":"Trabzon","latitude":"40.99N","longitude":"40.47E"}
{"date":"2011-10-01","average_temperature":"12.165","city":"Trieste","latitude":"45.81N","longitude":"12.69E"}
{"date":"2012-04-01","average_temperature":"8.468","city":"Tula","latitude":"53.84N","longitude":"36.82E"}
{"date":"2012-11-01","average_temperature":"4.367","city":"Turin","latitude":"45.81N","longitude":"8.08E"}
{"date":"2012-01-01","average_temperature":"-8.29","city":"Tver","latitude":"57.05N","longitude":"36.89E"}
{"date":"2011-12-01","average_temperature":"23.283","city":"Uberlândia","latitude":"18.48S","longitude":"49.01W"}
{"date":"2013-09-01","city":"Udon Thani","latitude":"16.87N","longitude":"102.14E"}
{"date":"2010-05-01","average_temperature":"29.065","city":"Udupi","latitude":"13.66N","longitude":"75.14E"}
{"date":"2010-09-01","average_temperature":"13.58","city":"Ulyanovsk","latitude":"53.84N","longitude":"47.73E"}
{"date":"2011-06-01","average_temperature":"31.336","city":"Unnao","latitude":"26.52N","longitude":"80.60E"}
{"date":"2010-04-01","average_temperature":"29.326999999999998","city":"Uromi","latitude":"7.23N","longitude":"5.68E"}
{"date":"2010-02-01","average_temperature":"26.699","city":"Várzea Grande","latitude":"15.27S","longitude":"55.83W"}
{"date":"2012-08-01","average_temperature":"19.069000000000006","city":"Várzea Paulista","latitude":"23.31S","longitude":"46.31W"}
{"date":"2012-09-01","average_temperature":"9.846","city":"Valdivia","latitude":"39.38S","longitude":"72.83W"}
{"date":"2010-05-01","average_temperature":"17.660999999999998","city":"Van","latitude":"37.78N","longitude":"42.71E"}
{"date":"2012-02-01","average_temperature":"-5.625","city":"Vanadzor","latitude":"40.99N","longitude":"44.73E"}
{"date":"2010-01-01","average_temperature":"19.507","city":"Verwoerdburg","latitude":"26.52S","longitude":"28.66E"}
{"date":"2013-01-01","average_temperature":"0.01100000000000001","city":"Victoria","latitude":"49.03N","longitude":"122.45W"}
{"date":"2013-09-01","city":"Vidisha","latitude":"23.31N","longitude":"77.77E"}
{"date":"2013-03-01","average_temperature":"0.8689999999999998","city":"Vienna","latitude":"49.03N","longitude":"17.14E"}
{"date":"2012-08-01","average_temperature":"30.888","city":"Viransehir","latitude":"37.78N","longitude":"40.68E"}
{"date":"2010-11-01","average_temperature":"10.338","city":"Visalia","latitude":"36.17N","longitude":"119.34W"}
{"date":"2011-02-01","average_temperature":"-7.727","city":"Volgodonsk","latitude":"47.42N","longitude":"41.45E"}
{"date":"2010-10-01","average_temperature":"4.155","city":"Voronezh","latitude":"52.24N","longitude":"39.42E"}
{"date":"2012-12-01","average_temperature":"-7.667999999999999","city":"Voronezh","latitude":"52.24N","longitude":"39.42E"}
{"date":"2013-03-01","average_temperature":"3.0730000000000004","city":"Walsall","latitude":"52.24N","longitude":"2.63W"}
{"date":"2010-09-01","average_temperature":"20.023000000000003","city":"Waterbury","latitude":"40.99N","longitude":"72.43W"}
{"date":"2013-09-01","average_temperature":"14.599","city":"Waterloo","latitude":"44.20N","longitude":"80.50W"}
{"date":"2010-06-01","average_temperature":"23.131999999999998","city":"Weifang","latitude":"36.17N","longitude":"119.34E"}
{"date":"2010-08-01","average_temperature":"10.674000000000001","city":"Wellington","latitude":"40.99S","longitude":"174.67E"}
{"date":"2013-06-01","average_temperature":"21.723000000000003","city":"West Valley City","latitude":"40.99N","longitude":"112.90W"}
{"date":"2012-12-01","average_temperature":"21.840999999999998","city":"Westonaria","latitude":"26.52S","longitude":"26.87E"}
{"date":"2011-03-01","average_temperature":"0.41","city":"Windsor","latitude":"42.59N","longitude":"82.91W"}
{"date":"2012-08-01","average_temperature":"18.795","city":"Winnipeg","latitude":"50.63N","longitude":"97.61W"}
{"date":"2011-06-01","average_temperature":"8.582","city":"Witbank","latitude":"26.52S","longitude":"28.66E"}
{"date":"2012-12-01","average_temperature":"2.025","city":"Wolfsburg","latitude":"52.24N","longitude":"10.51E"}
{"date":"2010-08-01","average_temperature":"17.57","city":"Wroclaw","latitude":"50.63N","longitude":"16.48E"}
{"date":"2011-05-01","average_temperature":"21.901","city":"Wuhu","latitude":"31.35N","longitude":"118.74E"}
{"date":"2011-12-01","average_temperature":"17.177","city":"Xalapa","latitude":"20.09N","longitude":"97.25W"}
{"date":"2012-04-01","average_temperature":"18.57","city":"Xiangdong","latitude":"28.13N","longitude":"113.64E"}
{"date":"2011-12-01","average_temperature":"13.915999999999999","city":"Xiaolan","latitude":"23.31N","longitude":"112.72E"}
{"date":"2013-05-01","average_temperature":"25.978","city":"Xiaolan","latitude":"23.31N","longitude":"112.72E"}
{"date":"2010-11-01","average_temperature":"6.337000000000001","city":"Xingtai","latitude":"37.78N","longitude":"113.90E"}
{"date":"2013-03-01","average_temperature":"8.47","city":"Xintai","latitude":"36.17N","longitude":"117.35E"}
{"date":"2010-06-01","average_temperature":"22.305000000000003","city":"Xinzhou","latitude":"37.78N","longitude":"111.86E"}
{"date":"2013-08-01","average_temperature":"27.215","city":"Xuchang","latitude":"34.56N","longitude":"112.86E"}
{"date":"2012-04-01","average_temperature":"17.258","city":"Xuzhou","latitude":"34.56N","longitude":"116.76E"}
{"date":"2012-03-01","average_temperature":"10.264","city":"Yaan","latitude":"29.74N","longitude":"103.38E"}
{"date":"2013-09-01","city":"Yaan","latitude":"29.74N","longitude":"103.38E"}
{"date":"2010-06-01","average_temperature":"19.492","city":"Yantai","latitude":"37.78N","longitude":"122.03E"}
{"date":"2011-07-01","average_temperature":"26.44","city":"Yao","latitude":"34.56N","longitude":"136.22E"}
{"date":"2010-11-01","average_temperature":"25.805999999999997","city":"Yavatmal","latitude":"20.09N","longitude":"78.48E"}
{"date":"2012-11-01","average_temperature":"23.851999999999997","city":"Yelahanka","latitude":"13.66N","longitude":"76.79E"}
{"date":"2010-09-01","average_temperature":"14.477","city":"Yelets","latitude":"52.24N","longitude":"39.42E"}
{"date":"2010-11-01","average_temperature":"4.922","city":"Yelets","latitude":"52.24N","longitude":"39.42E"}
{"date":"2010-07-01","average_temperature":"28.68","city":"Yenangyaung","latitude":"20.09N","longitude":"95.55E"}
{"date":"2011-05-01","average_temperature":"13.610999999999999","city":"Yerevan","latitude":"40.99N","longitude":"44.73E"}
{"date":"2013-03-01","average_temperature":"4.518000000000002","city":"Yining","latitude":"44.20N","longitude":"80.50E"}
{"date":"2010-08-01","average_temperature":"22.859","city":"Yuncheng","latitude":"34.56N","longitude":"110.92E"}
{"date":"2010-11-01","average_temperature":"-5.023","city":"Yushu","latitude":"44.20N","longitude":"127.45E"}
{"date":"2010-09-01","average_temperature":"20.415","city":"Zamora","latitude":"20.09N","longitude":"102.37W"}
{"date":"2012-02-01","average_temperature":"28.747","city":"Zaria","latitude":"10.45N","longitude":"7.36E"}
{"date":"2013-06-01","average_temperature":"26.639","city":"Zhangzhou","latitude":"24.92N","longitude":"117.04E"}
{"date":"2010-12-01","average_temperature":"-17.757","city":"Zhaodong","latitude":"45.81N","longitude":"125.77E"}
{"date":"2012-12-01","average_temperature":"-20.079","city":"Zhaodong","latitude":"45.81N","longitude":"125.77E"}
{"date":"2013-04-01","average_temperature":"4.061","city":"Zhaodong","latitude":"45.81N","longitude":"125.77E"}
{"date":"2010-10-01","average_temperature":"23.156","city":"Zhaoqing","latitude":"23.31N","longitude":"112.72E"}
{"date":"2012-06-01","average_temperature":"17.142","city":"Zhaotong","latitude":"26.52N","longitude":"103.88E"}
{"date":"2011-08-01","average_temperature":"25.504","city":"Zhoukou","latitude":"32.95N","longitude":"113.94E"}
{"date":"2012-07-01","average_temperature":"26.878","city":"Zhucheng","latitude":"36.17N","longitude":"119.34E"}
{"date":"2010-02-01","average_temperature":"26.197","city":"Ziguinchor","latitude":"12.05N","longitude":"16.44W"}
{"date":"2010-04-01","average_temperature":"26.971999999999998","city":"Ziguinchor","latitude":"12.05N","longitude":"16.44W"}
{"date":"2013-09-01","city":"Zuwarah","latitude":"32.95N","longitude":"12.45E"}
