{"date":"2011-12-01","average_temperature":"-14.672","city":"Öskemen","latitude":"50.63N","longitude":"82.39E"}
{"date":"2010-04-01","average_temperature":"29.248","city":"Abengourou","latitude":"7.23N","longitude":"4.05W"}
{"date":"2010-10-01","average_temperature":"10.203","city":"Aberdeen","latitude":"57.05N","longitude":"1.48W"}
{"date":"2013-07-01","average_temperature":"30.555999999999997","city":"Abha","latitude":"18.48N","longitude":"42.25E"}
{"date":"2013-07-01","average_temperature":"24.951","city":"Abidjan","latitude":"5.63N","longitude":"3.23W"}
{"date":"2012-01-01","average_temperature":"25.62","city":"Acapulco","latitude":"16.87N","longitude":"100.47W"}
{"date":"2012-09-01","average_temperature":"27.825","city":"Acapulco","latitude":"16.87N","longitude":"100.47W"}
{"date":"2011-11-01","average_temperature":"27.676","city":"Acarigua","latitude":"8.84N","longitude":"68.92W"}
{"date":"2011-10-01","average_temperature":"4.819","city":"Achinsk","latitude":"57.05N","longitude":"90.00E"}
{"date":"2011-08-01","average_temperature":"22.524","city":"Afyonkarahisar","latitude":"39.38N","longitude":"31.21E"}
{"date":"2011-04-01","average_temperature":"29.634","city":"Agra","latitude":"26.52N","longitude":"78.81E"}
{"date":"2010-08-01","average_temperature":"38.295","city":"Ahvaz","latitude":"31.35N","longitude":"49.01E"}
{"date":"2011-11-01","average_temperature":"3.45","city":"Aksaray","latitude":"37.78N","longitude":"34.58E"}
{"date":"2012-09-01","average_temperature":"19.282","city":"Aksu","latitude":"40.99N","longitude":"80.95E"}
{"date":"2011-05-01","average_temperature":"19.731","city":"Aktau","latitude":"44.20N","longitude":"51.43E"}
{"date":"2010-07-01","average_temperature":"30.188000000000002","city":"Alandur","latitude":"13.66N","longitude":"80.09E"}
{"date":"2010-12-01","average_temperature":"24.689","city":"Alandur","latitude":"13.66N","longitude":"80.09E"}
{"date":"2013-09-01","city":"Albacete","latitude":"39.38N","longitude":"2.08W"}
{"date":"2012-03-01","average_temperature":"19.097","city":"Alberton","latitude":"26.52S","longitude":"28.66E"}
{"date":"2010-08-01","average_temperature":"22.934","city":"Alcorcón","latitude":"40.99N","longitude":"4.26W"}
{"date":"2010-01-01","average_temperature":"14.303","city":"Allahabad","latitude":"24.92N","longitude":"81.58E"}
{"date":"2011-04-01","average_temperature":"10.555","city":"Allentown","latitude":"40.99N","longitude":"74.56W"}
{"date":"2011-07-01","average_temperature":"19.644000000000002","city":"Almaty","latitude":"42.59N","longitude":"76.36E"}
{"date":"2012-08-01","average_temperature":"26.863000000000003","city":"Almería","latitude":"36.17N","longitude":"1.99W"}
{"date":"2010-08-01","average_temperature":"18.564","city":"Americana","latitude":"23.31S","longitude":"48.06W"}
{"date":"2011-11-01","average_temperature":"23.546","city":"Amravati","latitude":"21.70N","longitude":"77.02E"}
{"date":"2012-08-01","average_temperature":"24.581","city":"Andijon","latitude":"40.99N","longitude":"72.43E"}
{"date":"2012-02-01","average_temperature":"26.764","city":"Angeles","latitude":"15.27N","longitude":"120.83E"}
{"date":"2011-05-01","average_temperature":"19.226","city":"Anqiu","latitude":"36.17N","longitude":"119.34E"}
{"date":"2012-10-01","average_temperature":"15.557","city":"Anqiu","latitude":"36.17N","longitude":"119.34E"}
{"date":"2013-02-01","average_temperature":"9.371","city":"Anshun","latitude":"26.52N","longitude":"105.67E"}
{"date":"2013-01-01","average_temperature":"22.183000000000003","city":"Antananarivo","latitude":"18.48S","longitude":"47.32E"}
{"date":"2012-07-01","average_temperature":"19.632","city":"Antioch","latitude":"37.78N","longitude":"122.03W"}
{"date":"2012-03-01","average_temperature":"25.087","city":"Ara","latitude":"24.92N","longitude":"85.12E"}
{"date":"2010-05-01","average_temperature":"15.597","city":"Arad","latitude":"45.81N","longitude":"21.92E"}
{"date":"2012-03-01","average_temperature":"26.377","city":"Araguaína","latitude":"7.23S","longitude":"47.84W"}
{"date":"2013-05-01","average_temperature":"20.125999999999998","city":"Araraquara","latitude":"21.70S","longitude":"47.60W"}
{"date":"2012-06-01","average_temperature":"25.409000000000002","city":"Arjawinangun","latitude":"7.23S","longitude":"107.84E"}
{"date":"2012-05-01","average_temperature":"23.523000000000003","city":"Asgabat","latitude":"37.78N","longitude":"58.98E"}
{"date":"2012-12-01","average_temperature":"2.207","city":"Asgabat","latitude":"37.78N","longitude":"58.98E"}
{"date":"2010-03-01","average_temperature":"-7.544","city":"Astana","latitude":"50.63N","longitude":"72.25E"}
{"date":"2013-05-01","average_temperature":"25.855","city":"Astanajapura","latitude":"7.23S","longitude":"107.84E"}
{"date":"2011-02-01","average_temperature":"7.707000000000002","city":"Atlanta","latitude":"34.56N","longitude":"83.68W"}
{"date":"2013-09-01","city":"Auckland","latitude":"36.17S","longitude":"175.03E"}
{"date":"2010-03-01","average_temperature":"5.974","city":"Aurora","latitude":"40.99N","longitude":"87.34W"}
{"date":"2010-09-01","average_temperature":"29.561","city":"Avadi","latitude":"13.66N","longitude":"80.09E"}
{"date":"2012-03-01","average_temperature":"29.594","city":"Awka","latitude":"5.63N","longitude":"6.46E"}
{"date":"2011-07-01","average_temperature":"10.072","city":"Ayacucho","latitude":"13.66S","longitude":"73.49W"}
{"date":"2012-10-01","average_temperature":"11.048","city":"Bacau","latitude":"45.81N","longitude":"26.54E"}
{"date":"2011-04-01","average_temperature":"27.910999999999998","city":"Bacolod","latitude":"10.45N","longitude":"123.55E"}
{"date":"2010-08-01","average_temperature":"22.938000000000002","city":"Bafoussam","latitude":"5.63N","longitude":"9.69E"}
{"date":"2011-01-01","average_temperature":"14.562999999999999","city":"Bagaha","latitude":"26.52N","longitude":"84.18E"}
{"date":"2012-05-01","average_temperature":"34.309","city":"Bahawalpur","latitude":"29.74N","longitude":"72.00E"}
{"date":"2010-10-01","average_temperature":"25.305999999999997","city":"Bahraich","latitude":"28.13N","longitude":"80.91E"}
{"date":"2012-06-01","average_temperature":"31.959","city":"Baidyabati","latitude":"23.31N","longitude":"88.25E"}
{"date":"2011-04-01","average_temperature":"13.655","city":"Bakersfield","latitude":"36.17N","longitude":"119.34W"}
{"date":"2010-06-01","average_temperature":"23.116","city":"Balakovo","latitude":"52.24N","longitude":"47.30E"}
{"date":"2012-07-01","average_temperature":"24.749","city":"Balti","latitude":"47.42N","longitude":"27.24E"}
{"date":"2012-06-01","average_temperature":"30.489","city":"Balurghat","latitude":"24.92N","longitude":"88.67E"}
{"date":"2012-11-01","average_temperature":"26.969","city":"Bandar Maharani","latitude":"2.41N","longitude":"102.05E"}
{"date":"2011-11-01","average_temperature":"4.926","city":"Baneh","latitude":"36.17N","longitude":"45.75E"}
{"date":"2010-11-01","average_temperature":"25.436999999999998","city":"Bangaon","latitude":"23.31N","longitude":"88.25E"}
{"date":"2010-04-01","average_temperature":"32.318000000000005","city":"Baranagar","latitude":"23.31N","longitude":"88.25E"}
{"date":"2011-10-01","average_temperature":"27.173","city":"Barcelona","latitude":"10.45N","longitude":"64.64W"}
{"date":"2010-03-01","average_temperature":"26.386","city":"Bareli","latitude":"28.13N","longitude":"79.09E"}
{"date":"2011-08-01","average_temperature":"25.687","city":"Barquisimeto","latitude":"10.45N","longitude":"69.55W"}
{"date":"2013-05-01","average_temperature":"22.738000000000003","city":"Bat Yam","latitude":"31.35N","longitude":"33.93E"}
{"date":"2013-06-01","average_temperature":"26.228","city":"Batman","latitude":"37.78N","longitude":"40.68E"}
{"date":"2010-02-01","average_temperature":"21.397","city":"Beawar","latitude":"26.52N","longitude":"73.43E"}
{"date":"2010-12-01","average_temperature":"-20.326","city":"Beian","latitude":"47.42N","longitude":"126.71E"}
{"date":"2011-01-01","average_temperature":"10.158","city":"Beihai","latitude":"21.70N","longitude":"109.90E"}
{"date":"2010-03-01","average_temperature":"27.899","city":"Bekasi","latitude":"5.63S","longitude":"106.55E"}
{"date":"2011-10-01","average_temperature":"21.109","city":"Bene Beraq","latitude":"32.95N","longitude":"35.43E"}
{"date":"2010-06-01","average_temperature":"16.175","city":"Berezniki","latitude":"58.66N","longitude":"55.38E"}
{"date":"2010-12-01","average_temperature":"-2.841","city":"Bern","latitude":"47.42N","longitude":"8.29E"}
{"date":"2013-03-01","average_temperature":"24.226","city":"Bettiah","latitude":"26.52N","longitude":"84.18E"}
{"date":"2012-07-01","average_temperature":"25.066999999999997","city":"Bhadravati","latitude":"13.66N","longitude":"75.14E"}
{"date":"2013-04-01","average_temperature":"30.435","city":"Bhadreswar","latitude":"23.31N","longitude":"88.25E"}
{"date":"2012-07-01","average_temperature":"28.491","city":"Bhairab Bazar","latitude":"24.92N","longitude":"90.44E"}
{"date":"2013-04-01","average_temperature":"30.375999999999998","city":"Bhavnagar","latitude":"21.70N","longitude":"71.83E"}
{"date":"2013-09-01","city":"Bhiwani","latitude":"28.13N","longitude":"75.45E"}
{"date":"2010-11-01","average_temperature":"28.278000000000002","city":"Bida","latitude":"8.84N","longitude":"5.68E"}
{"date":"2011-04-01","average_temperature":"29.596","city":"Bikaner","latitude":"28.13N","longitude":"73.64E"}
{"date":"2010-08-01","average_temperature":"20.916","city":"Bilbao","latitude":"42.59N","longitude":"2.18W"}
{"date":"2011-01-01","average_temperature":"4.779","city":"Bilbao","latitude":"42.59N","longitude":"2.18W"}
{"date":"2011-09-01","average_temperature":"27.305999999999997","city":"Binangonan","latitude":"13.66N","longitude":"121.38E"}
{"date":"2011-01-01","average_temperature":"25.904","city":"Bissau","latitude":"12.05N","longitude":"14.79W"}
{"date":"2013-06-01","average_temperature":"15.943","city":"Biysk","latitude":"52.24N","longitude":"84.09E"}
{"date":"2011-03-01","average_temperature":"24.868000000000002","city":"Blantyre","latitude":"15.27S","longitude":"35.83E"}
{"date":"2010-08-01","average_temperature":"25.562","city":"Blitar","latitude":"8.84S","longitude":"112.70E"}
{"date":"2012-06-01","average_temperature":"7.831","city":"Bloemfontein","latitude":"29.74S","longitude":"25.85E"}
{"date":"2013-09-01","city":"Bochum","latitude":"52.24N","longitude":"7.88E"}
{"date":"2011-10-01","average_temperature":"26.787","city":"Bohicon","latitude":"7.23N","longitude":"2.43E"}
{"date":"2010-05-01","average_temperature":"31.695","city":"Bokaro","latitude":"23.31N","longitude":"86.50E"}
{"date":"2010-09-01","average_temperature":"28.349","city":"Bokaro","latitude":"23.31N","longitude":"86.50E"}
{"date":"2011-07-01","average_temperature":"22.239","city":"Boma","latitude":"5.63S","longitude":"12.91E"}
{"date":"2010-08-01","average_temperature":"28.849","city":"Brahmapur","latitude":"18.48N","longitude":"84.51E"}
{"date":"2013-02-01","average_temperature":"1.5589999999999995","city":"Breda","latitude":"52.24N","longitude":"5.26E"}
{"date":"2011-10-01","average_temperature":"19.028","city":"Brisbane","latitude":"28.13S","longitude":"153.64E"}
{"date":"2012-12-01","average_temperature":"4.947","city":"Brussels","latitude":"50.63N","longitude":"3.80E"}
{"date":"2012-12-01","average_temperature":"-0.78","city":"Bucharest","latitude":"44.20N","longitude":"26.83E"}
{"date":"2010-04-01","average_temperature":"10.118","city":"Buffalo","latitude":"42.59N","longitude":"78.55W"}
{"date":"2012-04-01","average_temperature":"20.831999999999997","city":"Bujumbura","latitude":"4.02S","longitude":"29.73E"}
{"date":"2010-02-01","average_temperature":"18.365","city":"Buraydah","latitude":"26.52N","longitude":"44.78E"}
{"date":"2011-04-01","average_temperature":"27.75","city":"Burewala","latitude":"29.74N","longitude":"72.00E"}
{"date":"2013-02-01","average_temperature":"12.095","city":"Bushehr","latitude":"29.74N","longitude":"51.69E"}
{"date":"2011-09-01","average_temperature":"15.770999999999999","city":"Bytom","latitude":"50.63N","longitude":"19.01E"}
{"date":"2012-10-01","average_temperature":"26.264","city":"Cúa","latitude":"10.45N","longitude":"66.27W"}
{"date":"2011-06-01","average_temperature":"23.433000000000003","city":"Cadiz","latitude":"36.17N","longitude":"5.97W"}
{"date":"2010-11-01","average_temperature":"25.436999999999998","city":"Calcutta","latitude":"23.31N","longitude":"88.25E"}
{"date":"2013-07-01","average_temperature":"27.454","city":"Camagüey","latitude":"21.70N","longitude":"78.75W"}
{"date":"2013-08-01","average_temperature":"27.773000000000003","city":"Camagüey","latitude":"21.70N","longitude":"78.75W"}
{"date":"2011-12-01","average_temperature":"5.707999999999999","city":"Cambridge","latitude":"52.24N","longitude":"0.00W"}
{"date":"2012-06-01","average_temperature":"25.427","city":"Campos","latitude":"21.70S","longitude":"40.67W"}
{"date":"2012-04-01","average_temperature":"27.337000000000003","city":"Carúpano","latitude":"10.45N","longitude":"63.00W"}
{"date":"2012-03-01","average_temperature":"17.529","city":"Carrollton","latitude":"32.95N","longitude":"96.70W"}
{"date":"2013-07-01","average_temperature":"28.49","city":"Carrollton","latitude":"32.95N","longitude":"96.70W"}
{"date":"2010-03-01","average_temperature":"26.541","city":"Caruaru","latitude":"8.84S","longitude":"36.49W"}
{"date":"2010-05-01","average_temperature":"22.211","city":"Celaya","latitude":"20.09N","longitude":"100.66W"}
{"date":"2011-03-01","average_temperature":"18.69","city":"Celaya","latitude":"20.09N","longitude":"100.66W"}
{"date":"2010-05-01","average_temperature":"31.171","city":"Chakwal","latitude":"32.95N","longitude":"73.72E"}
{"date":"2010-11-01","average_temperature":"13.654000000000002","city":"Chalco","latitude":"20.09N","longitude":"98.96W"}
{"date":"2012-10-01","average_temperature":"27.427","city":"Champdani","latitude":"23.31N","longitude":"88.25E"}
{"date":"2010-12-01","average_temperature":"-14.81","city":"Changchun","latitude":"44.20N","longitude":"125.22E"}
{"date":"2013-09-01","city":"Changji","latitude":"44.20N","longitude":"87.20E"}
{"date":"2012-02-01","average_temperature":"0.879","city":"Charleroi","latitude":"50.63N","longitude":"3.80E"}
{"date":"2013-01-01","average_temperature":"26.794","city":"Chavakachcheri","latitude":"8.84N","longitude":"80.27E"}
{"date":"2011-02-01","average_temperature":"6.5440000000000005","city":"Cheltenham","latitude":"52.24N","longitude":"2.63W"}
{"date":"2010-11-01","average_temperature":"5.272","city":"Chemnitz","latitude":"50.63N","longitude":"13.94E"}
{"date":"2013-09-01","city":"Chengdu","latitude":"31.35N","longitude":"103.66E"}
{"date":"2010-10-01","average_temperature":"2.895","city":"Cherepovets","latitude":"58.66N","longitude":"36.92E"}
{"date":"2011-04-01","average_temperature":"4.284","city":"Cherepovets","latitude":"58.66N","longitude":"36.92E"}
{"date":"2011-05-01","average_temperature":"30.903000000000002","city":"Chhapra","latitude":"26.52N","longitude":"84.18E"}
{"date":"2010-05-01","average_temperature":"17.111","city":"Chifeng","latitude":"42.59N","longitude":"120.00E"}
{"date":"2010-06-01","average_temperature":"25.776999999999997","city":"Chihuahua","latitude":"28.13N","longitude":"106.36W"}
{"date":"2011-02-01","average_temperature":"14.557","city":"Chimalhuacán","latitude":"20.09N","longitude":"98.96W"}
{"date":"2010-02-01","average_temperature":"25.659000000000002","city":"Chimoio","latitude":"18.48S","longitude":"33.80E"}
{"date":"2010-05-01","average_temperature":"20.009","city":"Chincha Alta","latitude":"13.66S","longitude":"76.79W"}
{"date":"2010-01-01","average_temperature":"11.81","city":"Chiniot","latitude":"31.35N","longitude":"73.51E"}
{"date":"2012-08-01","average_temperature":"31.9","city":"Chiniot","latitude":"31.35N","longitude":"73.51E"}
{"date":"2011-09-01","average_temperature":"22.526","city":"Chizhou","latitude":"31.35N","longitude":"116.86E"}
{"date":"2010-09-01","average_temperature":"12.595999999999998","city":"Chorzow","latitude":"50.63N","longitude":"19.01E"}
{"date":"2010-12-01","average_temperature":"17.206999999999994","city":"Chosica","latitude":"12.05S","longitude":"77.26W"}
{"date":"2011-08-01","average_temperature":"27.091","city":"Cisarua","latitude":"5.63S","longitude":"106.55E"}
{"date":"2010-05-01","average_temperature":"28.49","city":"Citeureup","latitude":"5.63S","longitude":"106.55E"}
{"date":"2010-06-01","average_temperature":"27.048000000000002","city":"Ciudad Guayana","latitude":"8.84N","longitude":"62.43W"}
{"date":"2013-05-01","average_temperature":"25.188000000000002","city":"Ciudad Valles","latitude":"21.70N","longitude":"99.52W"}
{"date":"2012-02-01","average_temperature":"14.095999999999998","city":"Coacalco","latitude":"20.09N","longitude":"98.96W"}
{"date":"2011-11-01","average_temperature":"24.726","city":"Coatzacoalcos","latitude":"18.48N","longitude":"94.65W"}
{"date":"2010-12-01","average_temperature":"8.809000000000003","city":"Coimbra","latitude":"40.99N","longitude":"8.52W"}
{"date":"2011-10-01","average_temperature":"15.926999999999998","city":"Columbus","latitude":"32.95N","longitude":"85.21W"}
{"date":"2012-04-01","average_temperature":"22.683000000000003","city":"Conselheiro Lafaiete","latitude":"20.09S","longitude":"44.36W"}
{"date":"2010-03-01","average_temperature":"17.578","city":"Coral Springs","latitude":"26.52N","longitude":"80.60W"}
{"date":"2011-10-01","average_temperature":"17.741999999999994","city":"Cordoba","latitude":"31.35S","longitude":"64.08W"}
{"date":"2013-02-01","average_temperature":"22.989","city":"Cordoba","latitude":"31.35S","longitude":"64.08W"}
{"date":"2013-05-01","average_temperature":"28.569000000000003","city":"Coro","latitude":"12.05N","longitude":"69.04W"}
{"date":"2012-02-01","average_temperature":"13.664000000000001","city":"Corona","latitude":"32.95N","longitude":"117.77W"}
{"date":"2011-02-01","average_temperature":"25.945","city":"Corrientes","latitude":"28.13S","longitude":"59.09W"}
{"date":"2013-02-01","average_temperature":"25.994","city":"Corrientes","latitude":"28.13S","longitude":"59.09W"}
{"date":"2012-12-01","average_temperature":"24.51","city":"Cotia","latitude":"23.31S","longitude":"46.31W"}
{"date":"2011-09-01","average_temperature":"26.346","city":"Cotonou","latitude":"7.23N","longitude":"2.43E"}
{"date":"2013-05-01","average_temperature":"14.139","city":"Cottbus","latitude":"52.24N","longitude":"13.14E"}
{"date":"2012-07-01","average_temperature":"26.901","city":"Craiova","latitude":"44.20N","longitude":"24.60E"}
{"date":"2012-06-01","average_temperature":"33.122","city":"Cuddapah","latitude":"15.27N","longitude":"79.17E"}
{"date":"2012-10-01","average_temperature":"21.954","city":"Cuernavaca","latitude":"18.48N","longitude":"99.72W"}
{"date":"2013-07-01","average_temperature":"29.641","city":"Culiacán","latitude":"24.92N","longitude":"108.18W"}
{"date":"2010-12-01","average_temperature":"26.233","city":"Cumaná","latitude":"10.45N","longitude":"64.64W"}
{"date":"2010-11-01","average_temperature":"19.44","city":"Curitiba","latitude":"24.92S","longitude":"49.66W"}
{"date":"2010-11-01","average_temperature":"26.879","city":"Curug","latitude":"5.63S","longitude":"106.55E"}
{"date":"2011-10-01","average_temperature":"12.300999999999998","city":"Cusco","latitude":"13.66S","longitude":"71.83W"}
{"date":"2012-09-01","average_temperature":"15.085","city":"Czestochowa","latitude":"50.63N","longitude":"19.01E"}
{"date":"2010-05-01","average_temperature":"21.793000000000003","city":"Daan","latitude":"29.74N","longitude":"105.23E"}
{"date":"2013-09-01","city":"Dahuk","latitude":"36.17N","longitude":"43.76E"}
{"date":"2011-02-01","average_temperature":"-1.449","city":"Dalian","latitude":"39.38N","longitude":"120.69E"}
{"date":"2011-09-01","average_temperature":"25.664","city":"Daloa","latitude":"7.23N","longitude":"5.68W"}
{"date":"2010-02-01","average_temperature":"13.738","city":"Damascus","latitude":"32.95N","longitude":"35.43E"}
{"date":"2013-05-01","average_temperature":"33.058","city":"Damaturu","latitude":"12.05N","longitude":"11.51E"}
{"date":"2012-02-01","average_temperature":"20.18","city":"Damoh","latitude":"23.31N","longitude":"79.51E"}
{"date":"2012-09-01","average_temperature":"13.655","city":"Darmstadt","latitude":"50.63N","longitude":"8.87E"}
{"date":"2013-02-01","average_temperature":"1.853","city":"Debrecen","latitude":"47.42N","longitude":"22.50E"}
{"date":"2010-05-01","average_temperature":"27.926","city":"Delmas","latitude":"18.48N","longitude":"72.68W"}
{"date":"2012-01-01","average_temperature":"26.913","city":"Depok","latitude":"5.63S","longitude":"106.55E"}
{"date":"2013-04-01","average_temperature":"25.747","city":"Dese","latitude":"10.45N","longitude":"40.09E"}
{"date":"2011-08-01","average_temperature":"26.306","city":"Dindigul","latitude":"10.45N","longitude":"77.73E"}
{"date":"2011-05-01","average_temperature":"15.487","city":"Dingzhou","latitude":"39.38N","longitude":"114.45E"}
{"date":"2013-04-01","average_temperature":"28.473000000000003","city":"Diourbel","latitude":"15.27N","longitude":"15.83W"}
{"date":"2010-12-01","average_temperature":"7.842","city":"Do Rud","latitude":"32.95N","longitude":"48.83E"}
{"date":"2013-09-01","city":"Dodoma","latitude":"5.63S","longitude":"35.52E"}
{"date":"2011-11-01","average_temperature":"21.011","city":"Donghai","latitude":"23.31N","longitude":"116.21E"}
{"date":"2013-03-01","average_temperature":"-0.14","city":"Dongling","latitude":"40.99N","longitude":"123.55E"}
{"date":"2012-07-01","average_temperature":"24.771","city":"Drobeta Turnu Severin","latitude":"44.20N","longitude":"22.36E"}
{"date":"2012-05-01","average_temperature":"9.134","city":"Dundee","latitude":"57.05N","longitude":"4.43W"}
{"date":"2013-09-01","city":"Duque De Caxias","latitude":"23.31S","longitude":"42.82W"}
{"date":"2011-04-01","average_temperature":"21.109","city":"Durban","latitude":"29.74S","longitude":"31.38E"}
{"date":"2012-05-01","average_temperature":"13.954","city":"Dushanbe","latitude":"39.38N","longitude":"68.67E"}
{"date":"2013-06-01","average_temperature":"20.927","city":"Ebina","latitude":"36.17N","longitude":"139.23E"}
{"date":"2013-01-01","average_temperature":"1.479","city":"Eindhoven","latitude":"52.24N","longitude":"5.26E"}
{"date":"2011-01-01","average_temperature":"15.732999999999999","city":"El Mahalla El Kubra","latitude":"31.35N","longitude":"32.04E"}
{"date":"2011-11-01","average_temperature":"8.013","city":"Elizabeth","latitude":"40.99N","longitude":"74.56W"}
{"date":"2010-09-01","average_temperature":"17.489","city":"Engels","latitude":"50.63N","longitude":"46.90E"}
{"date":"2012-01-01","average_temperature":"3.377","city":"Enschede","latitude":"52.24N","longitude":"7.88E"}
{"date":"2011-05-01","average_temperature":"19.947","city":"Envigado","latitude":"5.63N","longitude":"75.87W"}
{"date":"2011-03-01","average_temperature":"4.784","city":"Erfurt","latitude":"50.63N","longitude":"11.41E"}
{"date":"2010-05-01","average_temperature":"28.441000000000006","city":"Erode","latitude":"12.05N","longitude":"77.26E"}
{"date":"2011-07-01","average_temperature":"23.894000000000002","city":"Erzincan","latitude":"39.38N","longitude":"39.54E"}
{"date":"2013-02-01","average_temperature":"-5.275","city":"Erzurum","latitude":"39.38N","longitude":"41.62E"}
{"date":"2010-01-01","average_temperature":"17.265","city":"Escuintla","latitude":"15.27N","longitude":"90.83W"}
{"date":"2010-12-01","average_temperature":"8.588999999999999","city":"Esenyurt","latitude":"40.99N","longitude":"27.69E"}
{"date":"2012-11-01","average_temperature":"7.443","city":"Esfahan","latitude":"32.95N","longitude":"50.74E"}
{"date":"2010-05-01","average_temperature":"22.225","city":"Ezhou","latitude":"29.74N","longitude":"114.46E"}
{"date":"2012-03-01","average_temperature":"10.557","city":"Ezhou","latitude":"29.74N","longitude":"114.46E"}
{"date":"2013-06-01","average_temperature":"31.468000000000004","city":"Farrukhabad","latitude":"28.13N","longitude":"79.09E"}
{"date":"2011-01-01","average_temperature":"3.823","city":"Fayetteville","latitude":"34.56N","longitude":"79.78W"}
{"date":"2012-06-01","average_temperature":"23.803","city":"Feira De Santana","latitude":"12.05S","longitude":"39.45W"}
{"date":"2012-05-01","average_temperature":"26.59","city":"Fengshan","latitude":"23.31N","longitude":"119.71E"}
{"date":"2013-03-01","average_temperature":"14.713","city":"Fez","latitude":"34.56N","longitude":"5.84W"}
{"date":"2012-10-01","average_temperature":"22.785999999999998","city":"Fianarantsoa","latitude":"21.70S","longitude":"47.60E"}
{"date":"2012-06-01","average_temperature":"21.209","city":"Forlì","latitude":"44.20N","longitude":"11.18E"}
{"date":"2013-02-01","average_temperature":"3.4190000000000005","city":"Forlì","latitude":"44.20N","longitude":"11.18E"}
{"date":"2011-06-01","average_temperature":"22.206999999999997","city":"Fort Wayne","latitude":"40.99N","longitude":"85.21W"}
{"date":"2012-11-01","average_temperature":"14.470999999999998","city":"Fort Worth","latitude":"32.95N","longitude":"96.70W"}
{"date":"2013-09-01","average_temperature":"27.986","city":"Fort Worth","latitude":"32.95N","longitude":"96.70W"}
{"date":"2011-09-01","average_temperature":"19.023","city":"Francisco Morato","latitude":"23.31S","longitude":"46.31W"}
{"date":"2012-11-01","average_temperature":"21.811999999999998","city":"Franco Da Rocha","latitude":"23.31S","longitude":"46.31W"}
{"date":"2012-07-01","average_temperature":"19.632","city":"Fremont","latitude":"37.78N","longitude":"122.03W"}
{"date":"2010-10-01","average_temperature":"11.684000000000001","city":"Fuenlabrada","latitude":"40.99N","longitude":"4.26W"}
{"date":"2010-02-01","average_temperature":"3.306","city":"Funabashi","latitude":"36.17N","longitude":"139.23E"}
{"date":"2013-03-01","average_temperature":"7.955","city":"Funabashi","latitude":"36.17N","longitude":"139.23E"}
{"date":"2012-11-01","average_temperature":"-2.499","city":"Fuxin","latitude":"42.59N","longitude":"122.18E"}
{"date":"2010-12-01","average_temperature":"5.851","city":"Fuyang","latitude":"32.95N","longitude":"115.85E"}
{"date":"2011-05-01","average_temperature":"21.916","city":"Fuyang","latitude":"32.95N","longitude":"115.85E"}
{"date":"2010-12-01","average_temperature":"12.689","city":"Fuzhou","latitude":"26.52N","longitude":"120.00E"}
{"date":"2012-12-01","average_temperature":"-1.649","city":"Galati","latitude":"45.81N","longitude":"28.85E"}
{"date":"2011-06-01","average_temperature":"32.501000000000005","city":"Gandhidham","latitude":"23.31N","longitude":"70.78E"}
{"date":"2010-02-01","average_temperature":"26.241999999999997","city":"Garanhuns","latitude":"8.84S","longitude":"36.49W"}
{"date":"2011-12-01","average_temperature":"25.669","city":"Garut","latitude":"7.23S","longitude":"107.84E"}
{"date":"2010-02-01","average_temperature":"12.970999999999998","city":"Garza García","latitude":"26.52N","longitude":"100.30W"}
{"date":"2012-06-01","average_temperature":"23.708000000000002","city":"Gaziantep","latitude":"37.78N","longitude":"36.61E"}
{"date":"2010-05-01","average_temperature":"29.03","city":"Gboko","latitude":"7.23N","longitude":"8.92E"}
{"date":"2011-02-01","average_temperature":"-4.565","city":"Gdansk","latitude":"53.84N","longitude":"17.73E"}
{"date":"2011-09-01","average_temperature":"20.523000000000003","city":"Gejiu","latitude":"23.31N","longitude":"103.98E"}
{"date":"2011-10-01","average_temperature":"17.112000000000002","city":"Gejiu","latitude":"23.31N","longitude":"103.98E"}
{"date":"2011-08-01","average_temperature":"14.622","city":"George","latitude":"34.56S","longitude":"23.35E"}
{"date":"2012-06-01","average_temperature":"20.234","city":"Getafe","latitude":"40.99N","longitude":"4.26W"}
{"date":"2011-06-01","average_temperature":"26.217","city":"Girón","latitude":"7.23N","longitude":"73.78W"}
{"date":"2011-08-01","average_temperature":"24.566999999999997","city":"Glendale","latitude":"34.56N","longitude":"118.70W"}
{"date":"2010-01-01","average_temperature":"-6.533","city":"Gliwice","latitude":"50.63N","longitude":"19.01E"}
{"date":"2011-12-01","average_temperature":"22.639","city":"Goiânia","latitude":"16.87S","longitude":"48.56W"}
{"date":"2010-09-01","average_temperature":"29.305","city":"Gorakhpur","latitude":"26.52N","longitude":"84.18E"}
{"date":"2010-12-01","average_temperature":"8.174","city":"Gorgan","latitude":"36.17N","longitude":"53.70E"}
{"date":"2012-10-01","average_temperature":"24.16","city":"Governador Valadares","latitude":"18.48S","longitude":"42.25W"}
{"date":"2010-07-01","average_temperature":"26.873","city":"Greensboro","latitude":"36.17N","longitude":"79.56W"}
{"date":"2010-07-01","average_temperature":"13.441","city":"Guaíba","latitude":"29.74S","longitude":"51.69W"}
{"date":"2011-03-01","average_temperature":"22.455","city":"Guaíba","latitude":"29.74S","longitude":"51.69W"}
{"date":"2013-03-01","average_temperature":"20.804","city":"Guadalajara","latitude":"20.09N","longitude":"104.08W"}
{"date":"2012-07-01","average_temperature":"17.577","city":"Guarujá","latitude":"23.31S","longitude":"46.31W"}
{"date":"2010-03-01","average_temperature":"20.754","city":"Guaymas","latitude":"28.13N","longitude":"110.00W"}
{"date":"2010-10-01","average_temperature":"26.421","city":"Gulbarga","latitude":"16.87N","longitude":"77.02E"}
{"date":"2013-07-01","average_temperature":"27.848000000000006","city":"Guna","latitude":"24.92N","longitude":"78.03E"}
{"date":"2013-05-01","average_temperature":"25.012","city":"Guwahati","latitude":"26.52N","longitude":"91.34E"}
{"date":"2012-03-01","average_temperature":"18.395","city":"Ha Noi","latitude":"21.70N","longitude":"106.44E"}
{"date":"2010-09-01","average_temperature":"24.894","city":"Habikino","latitude":"34.56N","longitude":"136.22E"}
{"date":"2012-08-01","average_temperature":"24.497","city":"Hachinohe","latitude":"40.99N","longitude":"140.59E"}
{"date":"2010-06-01","average_temperature":"21.521","city":"Hadano","latitude":"36.17N","longitude":"139.23E"}
{"date":"2011-08-01","average_temperature":"31.273000000000003","city":"Hafizabad","latitude":"31.35N","longitude":"73.51E"}
{"date":"2013-02-01","average_temperature":"17.105999999999998","city":"Haicheng","latitude":"23.31N","longitude":"114.47E"}
{"date":"2012-03-01","average_temperature":"10.225","city":"Hangzhou","latitude":"29.74N","longitude":"120.00E"}
{"date":"2012-06-01","average_temperature":"24.09","city":"Hangzhou","latitude":"29.74N","longitude":"120.00E"}
{"date":"2013-06-01","average_temperature":"35.018","city":"Hanumangarh","latitude":"29.74N","longitude":"73.85E"}
{"date":"2012-10-01","average_temperature":"14.319","city":"Hanzhong","latitude":"32.95N","longitude":"106.28E"}
{"date":"2013-07-01","average_temperature":"16.299","city":"Harare","latitude":"18.48S","longitude":"30.42E"}
{"date":"2010-01-01","average_temperature":"-22.542","city":"Heihe","latitude":"50.63N","longitude":"128.03E"}
{"date":"2010-02-01","average_temperature":"0.5860000000000001","city":"Heilbronn","latitude":"49.03N","longitude":"9.80E"}
{"date":"2013-07-01","average_temperature":"17.48","city":"Helsinki","latitude":"60.27N","longitude":"25.95E"}
{"date":"2011-09-01","average_temperature":"19.938","city":"Hengshui","latitude":"37.78N","longitude":"115.93E"}
{"date":"2010-03-01","average_temperature":"30.045","city":"Henzada","latitude":"16.87N","longitude":"95.44E"}
{"date":"2011-08-01","average_temperature":"17.794","city":"Herne","latitude":"52.24N","longitude":"7.88E"}
{"date":"2012-03-01","average_temperature":"8.017999999999999","city":"Herne","latitude":"52.24N","longitude":"7.88E"}
{"date":"2013-08-01","average_temperature":"28.180999999999997","city":"Hikone","latitude":"34.56N","longitude":"136.22E"}
{"date":"2011-10-01","average_temperature":"25.155","city":"Hindupur","latitude":"13.66N","longitude":"76.79E"}
{"date":"2010-09-01","average_temperature":"29.061","city":"Hisar","latitude":"29.74N","longitude":"75.69E"}
{"date":"2013-06-01","average_temperature":"22.918000000000003","city":"Hofu","latitude":"34.56N","longitude":"132.32E"}
{"date":"2010-06-01","average_temperature":"23.248","city":"Horlivka","latitude":"49.03N","longitude":"39.18E"}
{"date":"2010-11-01","average_temperature":"23.873","city":"Hoshangabad","latitude":"23.31N","longitude":"77.77E"}
{"date":"2010-02-01","average_temperature":"18.69","city":"Hsichih","latitude":"24.92N","longitude":"122.36E"}
{"date":"2013-04-01","average_temperature":"17.136000000000006","city":"Huangzhou","latitude":"29.74N","longitude":"114.46E"}
{"date":"2011-02-01","average_temperature":"24.906","city":"Hubli","latitude":"15.27N","longitude":"75.83E"}
{"date":"2011-08-01","average_temperature":"15.155999999999999","city":"Huddersfield","latitude":"53.84N","longitude":"1.36W"}
{"date":"2013-01-01","average_temperature":"13.348","city":"Humen","latitude":"23.31N","longitude":"114.47E"}
{"date":"2012-05-01","average_temperature":"33.48800000000001","city":"Hyderabad","latitude":"24.92N","longitude":"69.16E"}
{"date":"2010-08-01","average_temperature":"25.265","city":"Ikole","latitude":"7.23N","longitude":"5.68E"}
{"date":"2012-06-01","average_temperature":"25.911","city":"Ilawe","latitude":"7.23N","longitude":"5.68E"}
{"date":"2010-07-01","average_temperature":"28.41","city":"Iloilo","latitude":"10.45N","longitude":"121.91E"}
{"date":"2010-05-01","average_temperature":"17.619","city":"Inazawa","latitude":"34.56N","longitude":"136.22E"}
{"date":"2010-11-01","average_temperature":"6.696000000000001","city":"Indianapolis","latitude":"39.38N","longitude":"85.32W"}
{"date":"2011-02-01","average_temperature":"-0.141","city":"Ingolstadt","latitude":"49.03N","longitude":"12.24E"}
{"date":"2012-06-01","average_temperature":"30.489","city":"Ingraj Bazar","latitude":"24.92N","longitude":"88.67E"}
{"date":"2012-03-01","average_temperature":"23.113000000000003","city":"Ipatinga","latitude":"20.09S","longitude":"42.65W"}
{"date":"2012-06-01","average_temperature":"19.406","city":"Ipatinga","latitude":"20.09S","longitude":"42.65W"}
{"date":"2013-06-01","average_temperature":"15.147","city":"Iquique","latitude":"20.09S","longitude":"69.95W"}
{"date":"2013-09-01","city":"Irkutsk","latitude":"52.24N","longitude":"105.11E"}
{"date":"2011-04-01","average_temperature":"15.062000000000001","city":"Irvine","latitude":"32.95N","longitude":"117.77W"}
{"date":"2013-07-01","average_temperature":"24.645000000000003","city":"Isehara","latitude":"36.17N","longitude":"139.23E"}
{"date":"2011-01-01","average_temperature":"-2.2230000000000003","city":"Ishinomaki","latitude":"39.38N","longitude":"141.50E"}
{"date":"2012-04-01","average_temperature":"20.15","city":"Ismailia","latitude":"31.35N","longitude":"32.04E"}
{"date":"2013-02-01","average_temperature":"29.679000000000002","city":"Iwo","latitude":"7.23N","longitude":"4.05E"}
{"date":"2011-02-01","average_temperature":"11.137","city":"Izmir","latitude":"37.78N","longitude":"26.44E"}
{"date":"2012-01-01","average_temperature":"10.626","city":"Jackson","latitude":"32.95N","longitude":"90.96W"}
{"date":"2012-10-01","average_temperature":"24.886000000000006","city":"Jalandhar","latitude":"31.35N","longitude":"75.39E"}
{"date":"2012-08-01","average_temperature":"28.999000000000002","city":"Jamalpur","latitude":"24.92N","longitude":"90.44E"}
{"date":"2011-07-01","average_temperature":"29.566999999999997","city":"Jamalpur","latitude":"24.92N","longitude":"86.90E"}
{"date":"2010-01-01","average_temperature":"23.738000000000003","city":"Jandira","latitude":"23.31S","longitude":"46.31W"}
{"date":"2012-01-01","average_temperature":"15.019","city":"Jaunpur","latitude":"26.52N","longitude":"82.39E"}
{"date":"2010-10-01","average_temperature":"26.871","city":"Ji Paraná","latitude":"10.45S","longitude":"61.36W"}
{"date":"2011-10-01","average_temperature":"6.4270000000000005","city":"Jiaohe","latitude":"44.20N","longitude":"127.45E"}
{"date":"2010-06-01","average_temperature":"26.296999999999997","city":"Jiazi","latitude":"23.31N","longitude":"116.21E"}
{"date":"2013-05-01","average_temperature":"28.826","city":"Jimeta","latitude":"8.84N","longitude":"12.16E"}
{"date":"2010-02-01","average_temperature":"2.306","city":"Jinan","latitude":"36.17N","longitude":"117.35E"}
{"date":"2010-03-01","average_temperature":"19.372","city":"Johannesburg","latitude":"26.52S","longitude":"28.66E"}
{"date":"2012-09-01","average_temperature":"27.551","city":"Johor Bahru","latitude":"0.80N","longitude":"103.66E"}
{"date":"2012-01-01","average_temperature":"28.582","city":"Juàzeiro","latitude":"8.84S","longitude":"39.73W"}
{"date":"2011-12-01","average_temperature":"18.307000000000002","city":"Jujuy","latitude":"24.92S","longitude":"65.62W"}
{"date":"2010-07-01","average_temperature":"16.163999999999998","city":"Kadoma","latitude":"18.48S","longitude":"30.42E"}
{"date":"2013-04-01","average_temperature":"15.3","city":"Kaifeng","latitude":"34.56N","longitude":"114.81E"}
{"date":"2013-08-01","average_temperature":"26.587","city":"Kakamigahara","latitude":"36.17N","longitude":"137.24E"}
{"date":"2012-09-01","average_temperature":"24.296","city":"Kakogawa","latitude":"34.56N","longitude":"134.27E"}
{"date":"2012-02-01","average_temperature":"14.18","city":"Kamalia","latitude":"31.35N","longitude":"73.51E"}
{"date":"2012-03-01","average_temperature":"31.084","city":"Kandi","latitude":"10.45N","longitude":"2.45E"}
{"date":"2013-07-01","average_temperature":"26.19","city":"Kandi","latitude":"10.45N","longitude":"2.45E"}
{"date":"2012-10-01","average_temperature":"25.747","city":"Kandy","latitude":"7.23N","longitude":"80.27E"}
{"date":"2012-05-01","average_temperature":"30.982","city":"Kaolack","latitude":"13.66N","longitude":"15.69W"}
{"date":"2013-06-01","average_temperature":"32.673","city":"Karachi","latitude":"24.92N","longitude":"67.39E"}
{"date":"2011-06-01","average_temperature":"24.258000000000003","city":"Karamay","latitude":"45.81N","longitude":"84.23E"}
{"date":"2012-11-01","average_temperature":"24.601999999999997","city":"Karimnagar","latitude":"18.48N","longitude":"79.44E"}
{"date":"2010-07-01","average_temperature":"20.837","city":"Karlsruhe","latitude":"49.03N","longitude":"7.35E"}
{"date":"2010-11-01","average_temperature":"9.693","city":"Kashan","latitude":"34.56N","longitude":"50.59E"}
{"date":"2010-06-01","average_temperature":"22.649","city":"Kashihara","latitude":"34.56N","longitude":"136.22E"}
{"date":"2010-04-01","average_temperature":"34.175","city":"Kassala","latitude":"15.27N","longitude":"35.83E"}
{"date":"2011-05-01","average_temperature":"19.195","city":"Kasuga","latitude":"32.95N","longitude":"131.17E"}
{"date":"2010-06-01","average_temperature":"22.649","city":"Kasugai","latitude":"34.56N","longitude":"136.22E"}
{"date":"2012-01-01","average_temperature":"0.7150000000000001","city":"Kasukabe","latitude":"36.17N","longitude":"139.23E"}
{"date":"2013-01-01","average_temperature":"21.839000000000002","city":"Katumba","latitude":"8.84S","longitude":"33.24E"}
{"date":"2011-11-01","average_temperature":"10.802999999999999","city":"Kawasaki","latitude":"36.17N","longitude":"139.23E"}
{"date":"2013-06-01","average_temperature":"26.935","city":"Kebumen","latitude":"7.23S","longitude":"109.46E"}
{"date":"2013-06-01","average_temperature":"20.253","city":"Kecskemét","latitude":"47.42N","longitude":"20.13E"}
{"date":"2010-10-01","average_temperature":"27.654","city":"Kediri","latitude":"7.23S","longitude":"112.70E"}
{"date":"2010-11-01","average_temperature":"27.24","city":"Kedungwuni","latitude":"7.23S","longitude":"109.46E"}
{"date":"2011-11-01","average_temperature":"10.720999999999998","city":"Kerman","latitude":"29.74N","longitude":"57.23E"}
{"date":"2011-09-01","average_temperature":"26.794","city":"Khandwa","latitude":"21.70N","longitude":"77.02E"}
{"date":"2010-06-01","average_temperature":"35.23","city":"Khanpur","latitude":"28.13N","longitude":"70.00E"}
{"date":"2013-04-01","average_temperature":"30.309","city":"Khartoum","latitude":"15.27N","longitude":"32.50E"}
{"date":"2013-07-01","average_temperature":"28.155","city":"Khlong Luang","latitude":"13.66N","longitude":"99.91E"}
{"date":"2013-04-01","average_temperature":"29.011999999999997","city":"Khulna","latitude":"23.31N","longitude":"90.00E"}
{"date":"2012-03-01","average_temperature":"7.848","city":"Kingston Upon Hull","latitude":"53.84N","longitude":"1.36W"}
{"date":"2012-04-01","average_temperature":"11.355","city":"Kiryu","latitude":"36.17N","longitude":"139.23E"}
{"date":"2010-03-01","average_temperature":"2.5580000000000003","city":"Kislovodsk","latitude":"44.20N","longitude":"42.48E"}
{"date":"2011-01-01","average_temperature":"22.840999999999998","city":"Kisumu","latitude":"0.80S","longitude":"34.55E"}
{"date":"2012-02-01","average_temperature":"4.932","city":"Kitakyushu","latitude":"34.56N","longitude":"130.38E"}
{"date":"2011-03-01","average_temperature":"21.504","city":"Kitwe","latitude":"12.05S","longitude":"27.95E"}
{"date":"2011-07-01","average_temperature":"27.877","city":"Klang","latitude":"2.41N","longitude":"102.05E"}
{"date":"2011-11-01","average_temperature":"13.82","city":"Kobe","latitude":"34.56N","longitude":"134.27E"}
{"date":"2012-02-01","average_temperature":"-13.002","city":"Kolomna","latitude":"55.45N","longitude":"39.69E"}
{"date":"2012-10-01","average_temperature":"14.913","city":"Komatsu","latitude":"36.17N","longitude":"137.24E"}
{"date":"2012-09-01","average_temperature":"19.412","city":"Konya","latitude":"37.78N","longitude":"32.54E"}
{"date":"2011-07-01","average_temperature":"17.672","city":"Koszalin","latitude":"53.84N","longitude":"15.00E"}
{"date":"2013-04-01","average_temperature":"31.183000000000003","city":"Kota","latitude":"24.92N","longitude":"76.26E"}
{"date":"2012-03-01","average_temperature":"26.588","city":"Kota Bahru","latitude":"5.63N","longitude":"101.70E"}
{"date":"2010-01-01","average_temperature":"25.717","city":"Kotte","latitude":"7.23N","longitude":"80.27E"}
{"date":"2010-10-01","average_temperature":"26.622","city":"Kotte","latitude":"7.23N","longitude":"80.27E"}
{"date":"2010-12-01","average_temperature":"5.3389999999999995","city":"Krasnodar","latitude":"45.81N","longitude":"38.08E"}
{"date":"2010-01-01","average_temperature":"-25.741999999999997","city":"Krasnoyarsk","latitude":"55.45N","longitude":"93.54E"}
{"date":"2013-07-01","average_temperature":"19.869","city":"Krefeld","latitude":"50.63N","longitude":"6.34E"}
{"date":"2010-11-01","average_temperature":"19.022000000000002","city":"Krugersdorp","latitude":"26.52S","longitude":"28.66E"}
{"date":"2010-10-01","average_temperature":"7.298999999999999","city":"Kryvyy Rih","latitude":"47.42N","longitude":"34.34E"}
{"date":"2012-10-01","average_temperature":"13.207999999999998","city":"Kryvyy Rih","latitude":"47.42N","longitude":"34.34E"}
{"date":"2010-12-01","average_temperature":"26.338","city":"Kumba","latitude":"4.02N","longitude":"8.84E"}
{"date":"2010-03-01","average_temperature":"-7.79","city":"Kurgan","latitude":"55.45N","longitude":"65.20E"}
{"date":"2013-05-01","average_temperature":"34.315","city":"Kusti","latitude":"13.66N","longitude":"32.20E"}
{"date":"2011-10-01","average_temperature":"5.962999999999999","city":"Kuytun","latitude":"44.20N","longitude":"84.97E"}
{"date":"2010-10-01","average_temperature":"25.224","city":"Kwekwe","latitude":"18.48S","longitude":"30.42E"}
{"date":"2010-07-01","average_temperature":"15.513","city":"Kyzyl","latitude":"52.24N","longitude":"94.60E"}
{"date":"2011-06-01","average_temperature":"23.702","city":"Lárisa","latitude":"39.38N","longitude":"22.89E"}
{"date":"2012-08-01","average_temperature":"18.175","city":"Lübeck","latitude":"53.84N","longitude":"9.55E"}
{"date":"2013-06-01","average_temperature":"6.654000000000001","city":"La Paz","latitude":"16.87S","longitude":"68.65W"}
{"date":"2010-06-01","average_temperature":"28.731","city":"Lafayette","latitude":"29.74N","longitude":"92.31W"}
{"date":"2011-02-01","average_temperature":"-7.233","city":"Lasa","latitude":"29.74N","longitude":"90.46E"}
{"date":"2010-03-01","average_temperature":"25.329","city":"Lashio","latitude":"23.31N","longitude":"96.99E"}
{"date":"2013-01-01","average_temperature":"17.723","city":"Lashio","latitude":"23.31N","longitude":"96.99E"}
{"date":"2010-01-01","average_temperature":"27.545","city":"León","latitude":"12.05N","longitude":"87.12W"}
{"date":"2011-10-01","average_temperature":"13.239","city":"Leghorn","latitude":"44.20N","longitude":"11.18E"}
{"date":"2011-02-01","average_temperature":"13.128","city":"Lemesos","latitude":"34.56N","longitude":"33.08E"}
{"date":"2013-09-01","city":"Liège","latitude":"50.63N","longitude":"6.34E"}
{"date":"2011-04-01","average_temperature":"22.703000000000003","city":"Licheng","latitude":"23.31N","longitude":"114.47E"}
{"date":"2011-06-01","average_temperature":"28.231","city":"Licheng","latitude":"23.31N","longitude":"114.47E"}
{"date":"2013-01-01","average_temperature":"22.448","city":"Likasi","latitude":"10.45S","longitude":"27.00E"}
{"date":"2011-03-01","average_temperature":"8.73","city":"Limoges","latitude":"45.81N","longitude":"1.15E"}
{"date":"2013-09-01","city":"Linfen","latitude":"36.17N","longitude":"111.38E"}
{"date":"2012-04-01","average_temperature":"17.83","city":"Linhai","latitude":"28.13N","longitude":"120.91E"}
{"date":"2013-06-01","average_temperature":"25.910999999999998","city":"Linqing","latitude":"36.17N","longitude":"115.36E"}
{"date":"2011-01-01","average_temperature":"25.025","city":"Lipa","latitude":"13.66N","longitude":"121.38E"}
{"date":"2011-12-01","average_temperature":"24.587","city":"Lobito","latitude":"12.05S","longitude":"13.15E"}
{"date":"2012-08-01","average_temperature":"22.143","city":"Longfeng","latitude":"45.81N","longitude":"125.77E"}
{"date":"2012-08-01","average_temperature":"28.679000000000002","city":"Louga","latitude":"15.27N","longitude":"15.83W"}
{"date":"2013-03-01","average_temperature":"4.343999999999999","city":"Louisville","latitude":"37.78N","longitude":"85.42W"}
{"date":"2011-02-01","average_temperature":"24.647","city":"Loum","latitude":"5.63N","longitude":"9.69E"}
{"date":"2012-04-01","average_temperature":"25.938000000000002","city":"Luanda","latitude":"8.84S","longitude":"13.78E"}
{"date":"2012-12-01","average_temperature":"16.13","city":"Luchou","latitude":"24.92N","longitude":"120.59E"}
{"date":"2011-10-01","average_temperature":"10.602","city":"Mülheim","latitude":"50.63N","longitude":"6.34E"}
{"date":"2013-05-01","average_temperature":"11.463","city":"Mülheim","latitude":"50.63N","longitude":"6.34E"}
{"date":"2011-12-01","average_temperature":"4.686","city":"Maastricht","latitude":"50.63N","longitude":"6.34E"}
{"date":"2013-05-01","average_temperature":"11.463","city":"Maastricht","latitude":"50.63N","longitude":"6.34E"}
{"date":"2010-09-01","average_temperature":"21.039","city":"Macaé","latitude":"21.70S","longitude":"42.40W"}
{"date":"2013-07-01","average_temperature":"27.292","city":"Macapá","latitude":"0.80N","longitude":"50.63W"}
{"date":"2011-09-01","average_temperature":"24.393","city":"Maceió","latitude":"10.45S","longitude":"35.18W"}
{"date":"2011-08-01","average_temperature":"25.201999999999998","city":"Machida","latitude":"36.17N","longitude":"139.23E"}
{"date":"2010-03-01","average_temperature":"27.217","city":"Machilipatnam","latitude":"15.27N","longitude":"80.83E"}
{"date":"2013-02-01","average_temperature":"-6.007000000000001","city":"Madison","latitude":"42.59N","longitude":"89.45W"}
{"date":"2010-12-01","average_temperature":"25.99","city":"Madiun","latitude":"7.23S","longitude":"111.08E"}
{"date":"2013-03-01","average_temperature":"27.081999999999997","city":"Magelang","latitude":"7.23S","longitude":"109.46E"}
{"date":"2010-01-01","average_temperature":"25.454","city":"Malolos","latitude":"15.27N","longitude":"120.83E"}
{"date":"2010-06-01","average_temperature":"35.63800000000001","city":"Manama","latitude":"26.52N","longitude":"50.15E"}
{"date":"2012-01-01","average_temperature":"26.154","city":"Manaus","latitude":"2.41S","longitude":"60.27W"}
{"date":"2011-03-01","average_temperature":"12.356","city":"Manbij","latitude":"36.17N","longitude":"37.79E"}
{"date":"2012-05-01","average_temperature":"22.418000000000003","city":"Manbij","latitude":"36.17N","longitude":"37.79E"}
{"date":"2013-08-01","average_temperature":"29.029","city":"Mandalay","latitude":"21.70N","longitude":"96.06E"}
{"date":"2012-07-01","average_temperature":"18.179","city":"Mannheim","latitude":"49.03N","longitude":"7.35E"}
{"date":"2013-01-01","average_temperature":"25.39","city":"Manzini","latitude":"26.52S","longitude":"32.24E"}
{"date":"2012-05-01","average_temperature":"27.334","city":"Maoming","latitude":"21.70N","longitude":"111.63E"}
{"date":"2010-07-01","average_temperature":"17.229","city":"Maputo","latitude":"26.52S","longitude":"32.24E"}
{"date":"2013-07-01","average_temperature":"17.171","city":"Maputo","latitude":"26.52S","longitude":"32.24E"}
{"date":"2012-01-01","average_temperature":"26.1","city":"Marabá","latitude":"5.63S","longitude":"48.43W"}
{"date":"2010-09-01","average_temperature":"20.791","city":"Maragheh","latitude":"37.78N","longitude":"46.78E"}
{"date":"2010-04-01","average_temperature":"16.588","city":"Marbella","latitude":"36.17N","longitude":"3.98W"}
{"date":"2013-08-01","average_temperature":"28.543000000000003","city":"Matamoros","latitude":"26.52N","longitude":"96.72W"}
{"date":"2013-09-01","average_temperature":"28.648000000000003","city":"Matamoros","latitude":"26.52N","longitude":"96.72W"}
{"date":"2011-08-01","average_temperature":"25.351000000000006","city":"Mataram","latitude":"8.84S","longitude":"115.95E"}
{"date":"2010-08-01","average_temperature":"18.191000000000006","city":"Matola","latitude":"26.52S","longitude":"32.24E"}
{"date":"2012-12-01","average_temperature":"5.229","city":"Matsubara","latitude":"34.56N","longitude":"136.22E"}
{"date":"2012-12-01","average_temperature":"2.9609999999999994","city":"Matsudo","latitude":"36.17N","longitude":"139.23E"}
{"date":"2011-02-01","average_temperature":"-7.204","city":"Mazyr","latitude":"52.24N","longitude":"28.91E"}
{"date":"2010-12-01","average_temperature":"25.385","city":"Mbandaka","latitude":"0.80N","longitude":"18.48E"}
{"date":"2010-05-01","average_temperature":"20.409000000000002","city":"Mbeya","latitude":"8.84S","longitude":"33.24E"}
{"date":"2012-01-01","average_temperature":"21.365","city":"Mbeya","latitude":"8.84S","longitude":"33.24E"}
{"date":"2011-11-01","average_temperature":"26.953000000000003","city":"Mbour","latitude":"13.66N","longitude":"17.34W"}
{"date":"2011-07-01","average_temperature":"28.261","city":"Medan","latitude":"4.02N","longitude":"98.84E"}
{"date":"2012-03-01","average_temperature":"11.357999999999999","city":"Mersin","latitude":"36.17N","longitude":"33.81E"}
{"date":"2011-08-01","average_temperature":"27.901999999999997","city":"Mianyang","latitude":"31.35N","longitude":"105.55E"}
{"date":"2010-03-01","average_temperature":"23.445","city":"Milagro","latitude":"2.41S","longitude":"79.55W"}
{"date":"2011-11-01","average_temperature":"4.143","city":"Milan","latitude":"45.81N","longitude":"8.08E"}
{"date":"2012-03-01","average_temperature":"6.3229999999999995","city":"Milan","latitude":"45.81N","longitude":"8.08E"}
{"date":"2010-10-01","average_temperature":"27.024","city":"Miri","latitude":"4.02N","longitude":"113.30E"}
{"date":"2012-09-01","average_temperature":"20.915","city":"Mixco","latitude":"15.27N","longitude":"90.83W"}
{"date":"2013-01-01","average_temperature":"28.136","city":"Modakeke","latitude":"7.23N","longitude":"4.05E"}
{"date":"2012-10-01","average_temperature":"14.723","city":"Modesto","latitude":"37.78N","longitude":"120.00W"}
{"date":"2012-07-01","average_temperature":"21.348000000000003","city":"Montpellier","latitude":"44.20N","longitude":"4.47E"}
{"date":"2010-06-01","average_temperature":"18.895","city":"Monza","latitude":"45.81N","longitude":"10.38E"}
{"date":"2012-02-01","average_temperature":"24.526999999999997","city":"Mopti","latitude":"15.27N","longitude":"4.17W"}
{"date":"2013-06-01","average_temperature":"25.987","city":"Mormugao","latitude":"15.27N","longitude":"74.17E"}
{"date":"2011-11-01","average_temperature":"22.106","city":"Motihari","latitude":"26.52N","longitude":"84.18E"}
{"date":"2011-08-01","average_temperature":"25.985","city":"Mubi","latitude":"10.45N","longitude":"13.91E"}
{"date":"2010-02-01","average_temperature":"22.040000000000006","city":"Mufulira","latitude":"12.05S","longitude":"27.95E"}
{"date":"2011-02-01","average_temperature":"0.8909999999999999","city":"Mulhouse","latitude":"47.42N","longitude":"8.29E"}
{"date":"2013-03-01","average_temperature":"-13.205000000000002","city":"Murmansk","latitude":"68.31N","longitude":"34.70E"}
{"date":"2010-02-01","average_temperature":"20.538","city":"Murwara","latitude":"23.31N","longitude":"81.26E"}
{"date":"2011-06-01","average_temperature":"21.878","city":"Musoma","latitude":"0.80S","longitude":"34.55E"}
{"date":"2011-02-01","average_temperature":"17.044999999999998","city":"Muzaffargarh","latitude":"29.74N","longitude":"72.00E"}
{"date":"2011-08-01","average_temperature":"24.4","city":"Mwene Ditu","latitude":"7.23S","longitude":"23.51E"}
{"date":"2011-12-01","average_temperature":"21.778000000000002","city":"Nadiad","latitude":"23.31N","longitude":"72.52E"}
{"date":"2012-07-01","average_temperature":"26.401999999999997","city":"Nagercoil","latitude":"8.84N","longitude":"77.03E"}
{"date":"2012-05-01","average_temperature":"16.135","city":"Nairobi","latitude":"0.80S","longitude":"36.16E"}
{"date":"2011-04-01","average_temperature":"28.915","city":"Nakhon Pathom","latitude":"13.66N","longitude":"99.91E"}
{"date":"2012-05-01","average_temperature":"14.437","city":"Namur","latitude":"50.63N","longitude":"3.80E"}
{"date":"2010-05-01","average_temperature":"22.746","city":"Nanchang","latitude":"28.13N","longitude":"115.45E"}
{"date":"2013-06-01","average_temperature":"27.026","city":"Nanchang","latitude":"28.13N","longitude":"115.45E"}
{"date":"2010-08-01","average_temperature":"30.031","city":"Nangloi Jat","latitude":"28.13N","longitude":"77.27E"}
{"date":"2011-01-01","average_temperature":"13.376","city":"Nangloi Jat","latitude":"28.13N","longitude":"77.27E"}
{"date":"2011-12-01","average_temperature":"16.203","city":"Nangloi Jat","latitude":"28.13N","longitude":"77.27E"}
{"date":"2013-06-01","average_temperature":"26.182","city":"Nantou","latitude":"23.31N","longitude":"121.46E"}
{"date":"2013-06-01","average_temperature":"25.89","city":"Nanyang","latitude":"32.95N","longitude":"112.02E"}
{"date":"2011-08-01","average_temperature":"27.151999999999997","city":"Negombo","latitude":"7.23N","longitude":"80.27E"}
{"date":"2011-10-01","average_temperature":"4.98","city":"Nehe","latitude":"49.03N","longitude":"124.90E"}
{"date":"2010-10-01","average_temperature":"23.869","city":"Netanya","latitude":"32.95N","longitude":"35.43E"}
{"date":"2011-09-01","average_temperature":"10.92","city":"Neuquen","latitude":"39.38S","longitude":"68.67W"}
{"date":"2013-07-01","average_temperature":"31.053","city":"New Delhi","latitude":"28.13N","longitude":"77.27E"}
{"date":"2010-05-01","average_temperature":"15.530999999999999","city":"New Haven","latitude":"40.99N","longitude":"72.43W"}
{"date":"2010-09-01","average_temperature":"19.172","city":"Newark","latitude":"40.99N","longitude":"74.56W"}
{"date":"2011-02-01","average_temperature":"20.604","city":"Newcastle","latitude":"28.13S","longitude":"30.00E"}
{"date":"2011-03-01","average_temperature":"6.607","city":"Newport","latitude":"52.24N","longitude":"2.63W"}
{"date":"2010-03-01","average_temperature":"10.476","city":"Neyshabur","latitude":"36.17N","longitude":"59.67E"}
{"date":"2013-09-01","city":"Nha Trang","latitude":"12.05N","longitude":"108.49E"}
{"date":"2012-06-01","average_temperature":"17.189999999999998","city":"Nice","latitude":"44.20N","longitude":"6.71E"}
{"date":"2012-02-01","average_temperature":"27.449","city":"Nilópolis","latitude":"23.31S","longitude":"42.82W"}
{"date":"2013-03-01","average_temperature":"5.4","city":"Nis","latitude":"42.59N","longitude":"21.82E"}
{"date":"2011-10-01","average_temperature":"6.053","city":"Nizhnekamsk","latitude":"55.45N","longitude":"51.02E"}
{"date":"2013-07-01","average_temperature":"19.931","city":"Nizhnevartovsk","latitude":"60.27N","longitude":"77.84E"}
{"date":"2010-04-01","average_temperature":"29.527","city":"Nkpor","latitude":"5.63N","longitude":"6.46E"}
{"date":"2011-11-01","average_temperature":"27.621","city":"Nnewi","latitude":"5.63N","longitude":"6.46E"}
{"date":"2012-05-01","average_temperature":"23.836","city":"North Las Vegas","latitude":"36.17N","longitude":"115.36W"}
{"date":"2010-09-01","average_temperature":"16.644000000000002","city":"Novo Hamburgo","latitude":"29.74S","longitude":"51.69W"}
{"date":"2012-05-01","average_temperature":"11.144","city":"Novokuznetsk","latitude":"53.84N","longitude":"85.91E"}
{"date":"2010-06-01","average_temperature":"22.767000000000003","city":"Novorossiysk","latitude":"44.20N","longitude":"38.01E"}
{"date":"2011-02-01","average_temperature":"8.667","city":"Numazu","latitude":"34.56N","longitude":"138.16E"}
{"date":"2011-02-01","average_temperature":"-2.7099999999999995","city":"Obihiro","latitude":"42.59N","longitude":"144.00E"}
{"date":"2012-01-01","average_temperature":"27.65","city":"Obosi","latitude":"5.63N","longitude":"6.46E"}
{"date":"2012-07-01","average_temperature":"24.866","city":"Obuasi","latitude":"5.63N","longitude":"1.61W"}
{"date":"2012-01-01","average_temperature":"1.104","city":"Odesa","latitude":"45.81N","longitude":"31.15E"}
{"date":"2012-03-01","average_temperature":"-3.467","city":"Odintsovo","latitude":"55.45N","longitude":"36.85E"}
{"date":"2013-04-01","average_temperature":"5.353","city":"Odintsovo","latitude":"55.45N","longitude":"36.85E"}
{"date":"2011-01-01","average_temperature":"26.508000000000003","city":"Ogbomosho","latitude":"8.84N","longitude":"4.05E"}
{"date":"2010-04-01","average_temperature":"30.534000000000002","city":"Okara","latitude":"31.35N","longitude":"73.51E"}
{"date":"2011-12-01","average_temperature":"14.259","city":"Okara","latitude":"31.35N","longitude":"73.51E"}
{"date":"2010-11-01","average_temperature":"0.6610000000000005","city":"Oktyabrskiy","latitude":"53.84N","longitude":"53.18E"}
{"date":"2013-07-01","average_temperature":"24.645000000000003","city":"Ome","latitude":"36.17N","longitude":"139.23E"}
{"date":"2012-02-01","average_temperature":"28.603","city":"Onitsha","latitude":"5.63N","longitude":"6.46E"}
{"date":"2010-10-01","average_temperature":"26.642000000000003","city":"Opobo","latitude":"4.02N","longitude":"7.23E"}
{"date":"2012-11-01","average_temperature":"5.8130000000000015","city":"Opole","latitude":"50.63N","longitude":"19.01E"}
{"date":"2011-05-01","average_temperature":"15.83","city":"Orël","latitude":"52.24N","longitude":"36.79E"}
{"date":"2012-04-01","average_temperature":"15.094000000000001","city":"Orange","latitude":"32.95N","longitude":"117.77W"}
{"date":"2013-01-01","average_temperature":"13.404000000000002","city":"Orange","latitude":"32.95N","longitude":"117.77W"}
{"date":"2013-04-01","average_temperature":"15.380999999999998","city":"Orange","latitude":"32.95N","longitude":"117.77W"}
{"date":"2013-07-01","average_temperature":"20.861","city":"Ordu","latitude":"40.99N","longitude":"38.34E"}
{"date":"2013-08-01","average_temperature":"12.903","city":"Oslo","latitude":"60.27N","longitude":"9.73E"}
{"date":"2011-09-01","average_temperature":"22.199","city":"Ota","latitude":"36.17N","longitude":"139.23E"}
{"date":"2012-10-01","average_temperature":"11.902999999999999","city":"Otaru","latitude":"42.59N","longitude":"141.82E"}
{"date":"2010-02-01","average_temperature":"29.638","city":"Owerri","latitude":"5.63N","longitude":"6.46E"}
{"date":"2010-02-01","average_temperature":"10.353","city":"Oxnard","latitude":"34.56N","longitude":"118.70W"}
{"date":"2013-07-01","average_temperature":"13.095999999999998","city":"Paarl","latitude":"34.56S","longitude":"19.46E"}
{"date":"2013-02-01","average_temperature":"28.648000000000003","city":"Pak Kret","latitude":"13.66N","longitude":"99.91E"}
{"date":"2012-03-01","average_temperature":"27.183000000000003","city":"Pakokku","latitude":"21.70N","longitude":"94.33E"}
{"date":"2010-05-01","average_temperature":"18.13","city":"Palma","latitude":"39.38N","longitude":"2.08E"}
{"date":"2010-08-01","average_temperature":"19.37","city":"Panevezys","latitude":"55.45N","longitude":"25.51E"}
{"date":"2012-10-01","average_temperature":"22.531999999999996","city":"Paranaguá","latitude":"24.92S","longitude":"47.88W"}
{"date":"2013-07-01","average_temperature":"25.051","city":"Parnamirim","latitude":"5.63S","longitude":"35.52W"}
{"date":"2010-04-01","average_temperature":"11.784","city":"Parsabad","latitude":"39.38N","longitude":"47.86E"}
{"date":"2010-05-01","average_temperature":"15.895","city":"Pasadena","latitude":"34.56N","longitude":"118.70W"}
{"date":"2011-01-01","average_temperature":"26.558000000000003","city":"Pasarkemis","latitude":"5.63S","longitude":"106.55E"}
{"date":"2013-02-01","average_temperature":"25.502","city":"Paseh","latitude":"7.23S","longitude":"107.84E"}
{"date":"2012-02-01","average_temperature":"27.11","city":"Pasuruan","latitude":"7.23S","longitude":"112.70E"}
{"date":"2011-01-01","average_temperature":"24.601","city":"Pathein","latitude":"16.87N","longitude":"95.44E"}
{"date":"2010-06-01","average_temperature":"34.624","city":"Patiala","latitude":"29.74N","longitude":"75.69E"}
{"date":"2013-07-01","average_temperature":"26.174","city":"Pekalongan","latitude":"7.23S","longitude":"109.46E"}
{"date":"2010-03-01","average_temperature":"14.86","city":"Peoria","latitude":"32.95N","longitude":"112.02W"}
{"date":"2010-09-01","average_temperature":"24.164","city":"Peristérion","latitude":"37.78N","longitude":"24.41E"}
{"date":"2013-09-01","city":"Perpignan","latitude":"42.59N","longitude":"2.18E"}
{"date":"2010-09-01","average_temperature":"10.364","city":"Pervouralsk","latitude":"57.05N","longitude":"60.49E"}
{"date":"2010-05-01","average_temperature":"27.474","city":"Petrolina","latitude":"8.84S","longitude":"39.73W"}
{"date":"2012-08-01","average_temperature":"29.145","city":"Pilibhit","latitude":"28.13N","longitude":"79.09E"}
{"date":"2013-08-01","average_temperature":"24.444000000000003","city":"Pimpri","latitude":"18.48N","longitude":"74.37E"}
{"date":"2013-04-01","average_temperature":"19.538","city":"Pingchen","latitude":"24.92N","longitude":"120.59E"}
{"date":"2013-02-01","average_temperature":"19.396","city":"Pingtung","latitude":"23.31N","longitude":"119.71E"}
{"date":"2011-05-01","average_temperature":"17.008999999999997","city":"Pitesti","latitude":"44.20N","longitude":"24.60E"}
{"date":"2012-10-01","average_temperature":"8.773","city":"Plock","latitude":"52.24N","longitude":"18.39E"}
{"date":"2013-05-01","average_temperature":"15.282","city":"Plock","latitude":"52.24N","longitude":"18.39E"}
{"date":"2012-05-01","average_temperature":"19.45","city":"Poltava","latitude":"49.03N","longitude":"34.29E"}
{"date":"2013-09-01","city":"Pondicherry","latitude":"12.05N","longitude":"80.55E"}
{"date":"2012-01-01","average_temperature":"25.713","city":"Port Au Prince","latitude":"18.48N","longitude":"72.68W"}
{"date":"2012-04-01","average_temperature":"26.608","city":"Portoviejo","latitude":"0.80S","longitude":"81.16W"}
{"date":"2011-01-01","average_temperature":"21.096999999999998","city":"Potchefstroom","latitude":"26.52S","longitude":"26.87E"}
{"date":"2013-07-01","average_temperature":"5.75","city":"Potosí","latitude":"20.09S","longitude":"66.54W"}
{"date":"2012-10-01","average_temperature":"26.145000000000003","city":"Prabumulih","latitude":"4.02S","longitude":"103.66E"}
{"date":"2012-03-01","average_temperature":"6.93","city":"Prague","latitude":"50.63N","longitude":"13.94E"}
{"date":"2010-06-01","average_temperature":"15.26","city":"Preston","latitude":"53.84N","longitude":"1.36W"}
{"date":"2010-01-01","average_temperature":"-0.4079999999999999","city":"Pristina","latitude":"42.59N","longitude":"21.82E"}
{"date":"2011-10-01","average_temperature":"28.154","city":"Pudukkottai","latitude":"10.45N","longitude":"79.36E"}
{"date":"2010-12-01","average_temperature":"26.014","city":"Puerto Cabello","latitude":"10.45N","longitude":"67.91W"}
{"date":"2010-07-01","average_temperature":"27.916999999999998","city":"Puerto Princesa","latitude":"10.45N","longitude":"118.64E"}
{"date":"2011-10-01","average_temperature":"13.527999999999999","city":"Pulandian","latitude":"39.38N","longitude":"122.77E"}
{"date":"2012-12-01","average_temperature":"21.747","city":"Pune","latitude":"18.48N","longitude":"74.37E"}
{"date":"2011-10-01","average_temperature":"5.726","city":"Puno","latitude":"15.27S","longitude":"70.83W"}
{"date":"2011-01-01","average_temperature":"27.517","city":"Punto Fijo","latitude":"12.05N","longitude":"70.68W"}
{"date":"2012-02-01","average_temperature":"25.08","city":"Puri","latitude":"20.09N","longitude":"85.31E"}
{"date":"2012-02-01","average_temperature":"27.11","city":"Purworejo","latitude":"7.23S","longitude":"112.70E"}
{"date":"2012-03-01","average_temperature":"16.461","city":"Qalyub","latitude":"29.74N","longitude":"31.38E"}
{"date":"2012-12-01","average_temperature":"15.522","city":"Qalyub","latitude":"29.74N","longitude":"31.38E"}
{"date":"2012-01-01","average_temperature":"3.4590000000000005","city":"Qianjiang","latitude":"29.74N","longitude":"112.62E"}
{"date":"2010-08-01","average_temperature":"28.849","city":"Qingyuan","latitude":"23.31N","longitude":"112.72E"}
{"date":"2010-10-01","average_temperature":"23.156","city":"Qingyuan","latitude":"23.31N","longitude":"112.72E"}
{"date":"2013-05-01","average_temperature":"26.919","city":"Qinzhou","latitude":"21.70N","longitude":"108.17E"}
{"date":"2011-06-01","average_temperature":"26.54","city":"Quanzhou","latitude":"24.92N","longitude":"118.82E"}
{"date":"2012-12-01","average_temperature":"20.898000000000003","city":"Queenstown","latitude":"31.35S","longitude":"26.39E"}
{"date":"2011-01-01","average_temperature":"27.229","city":"Queimados","latitude":"23.31S","longitude":"42.82W"}
{"date":"2010-03-01","average_temperature":"19.928","city":"Quetta","latitude":"29.74N","longitude":"66.46E"}
{"date":"2010-04-01","average_temperature":"33.35","city":"Rabak","latitude":"13.66N","longitude":"32.20E"}
{"date":"2010-09-01","average_temperature":"29.536","city":"Rajpur","latitude":"23.31N","longitude":"88.25E"}
{"date":"2012-12-01","average_temperature":"25.456","city":"Rancaekek","latitude":"7.23S","longitude":"107.84E"}
{"date":"2011-09-01","average_temperature":"27.276999999999997","city":"Raurkela","latitude":"21.70N","longitude":"85.67E"}
{"date":"2010-04-01","average_temperature":"9.498","city":"Recklinghausen","latitude":"52.24N","longitude":"7.88E"}
{"date":"2011-12-01","average_temperature":"13.163","city":"Reggio Di Calabria","latitude":"37.78N","longitude":"16.27E"}
{"date":"2012-11-01","average_temperature":"5.905","city":"Remscheid","latitude":"50.63N","longitude":"6.34E"}
{"date":"2010-10-01","average_temperature":"12.145","city":"Rennes","latitude":"47.42N","longitude":"1.18W"}
{"date":"2012-03-01","average_temperature":"23.686","city":"Rewari","latitude":"28.13N","longitude":"77.27E"}
{"date":"2012-12-01","average_temperature":"-3.5440000000000005","city":"Reykjavík","latitude":"65.09N","longitude":"21.06W"}
{"date":"2011-09-01","average_temperature":"25.499","city":"Rialto","latitude":"34.56N","longitude":"116.76W"}
{"date":"2010-10-01","average_temperature":"19.387999999999998","city":"Richardson","latitude":"32.95N","longitude":"96.70W"}
{"date":"2012-05-01","average_temperature":"19.215999999999998","city":"Rio Claro","latitude":"21.70S","longitude":"47.60W"}
{"date":"2011-09-01","average_temperature":"21.9","city":"Rio De Janeiro","latitude":"23.31S","longitude":"42.82W"}
{"date":"2010-08-01","average_temperature":"21.458000000000002","city":"Riobamba","latitude":"2.41S","longitude":"77.95W"}
{"date":"2011-11-01","average_temperature":"24.205","city":"Robertsonpet","latitude":"13.66N","longitude":"78.44E"}
{"date":"2012-06-01","average_temperature":"21.79","city":"Rockford","latitude":"42.59N","longitude":"89.45W"}
{"date":"2013-04-01","average_temperature":"6.941000000000002","city":"Rockford","latitude":"42.59N","longitude":"89.45W"}
{"date":"2012-06-01","average_temperature":"21.56","city":"Rome","latitude":"42.59N","longitude":"13.09E"}
{"date":"2011-09-01","average_temperature":"23.01","city":"Rongcheng","latitude":"29.74N","longitude":"112.62E"}
{"date":"2013-03-01","average_temperature":"-0.5209999999999999","city":"Rostock","latitude":"53.84N","longitude":"12.27E"}
{"date":"2012-09-01","average_temperature":"12.663","city":"Rotherham","latitude":"53.84N","longitude":"1.36W"}
{"date":"2013-06-01","average_temperature":"22.215","city":"Ruse","latitude":"44.20N","longitude":"26.83E"}
{"date":"2011-07-01","average_temperature":"20.180999999999997","city":"São Carlos","latitude":"21.70S","longitude":"47.60W"}
{"date":"2011-11-01","average_temperature":"20.407","city":"São José","latitude":"28.13S","longitude":"48.18W"}
{"date":"2012-06-01","average_temperature":"18.113","city":"São Vicente","latitude":"23.31S","longitude":"46.31W"}
{"date":"2012-01-01","average_temperature":"11.107","city":"Sabha","latitude":"26.52N","longitude":"14.33E"}
{"date":"2011-08-01","average_temperature":"29.511999999999997","city":"Sabzevar","latitude":"36.17N","longitude":"57.68E"}
{"date":"2013-05-01","average_temperature":"33.457","city":"Sahiwal","latitude":"31.35N","longitude":"73.51E"}
{"date":"2013-08-01","average_temperature":"23.645","city":"Saint Louis","latitude":"39.38N","longitude":"89.48W"}
{"date":"2011-10-01","average_temperature":"15.23","city":"Salamanca","latitude":"40.99N","longitude":"6.39W"}
{"date":"2013-06-01","average_temperature":"21.122","city":"Salerno","latitude":"40.99N","longitude":"14.91E"}
{"date":"2011-10-01","average_temperature":"5.598","city":"Salzburg","latitude":"47.42N","longitude":"13.03E"}
{"date":"2010-08-01","average_temperature":"29.494","city":"Sambhal","latitude":"28.13N","longitude":"79.09E"}
{"date":"2010-08-01","average_temperature":"28.144","city":"Samut Prakan","latitude":"13.66N","longitude":"99.91E"}
{"date":"2013-03-01","average_temperature":"15.243","city":"San Bernardino","latitude":"34.56N","longitude":"116.76W"}
{"date":"2011-06-01","average_temperature":"21.638","city":"San Cristóbal","latitude":"7.23N","longitude":"72.16W"}
{"date":"2010-04-01","average_temperature":"29.412","city":"San Fernando","latitude":"15.27N","longitude":"120.83E"}
{"date":"2012-07-01","average_temperature":"16.842000000000002","city":"San Lorenzo","latitude":"24.92S","longitude":"56.75W"}
{"date":"2013-03-01","average_temperature":"28.264","city":"San Mateo","latitude":"15.27N","longitude":"120.83E"}
{"date":"2010-05-01","average_temperature":"29.434","city":"San Pablo","latitude":"13.66N","longitude":"121.38E"}
{"date":"2010-09-01","average_temperature":"25.956","city":"San Pedro Sula","latitude":"15.27N","longitude":"87.50W"}
{"date":"2010-08-01","average_temperature":"7.988999999999999","city":"San Rafael","latitude":"34.56S","longitude":"68.11W"}
{"date":"2010-05-01","average_temperature":"23.761000000000006","city":"Sanchung","latitude":"24.92N","longitude":"120.59E"}
{"date":"2011-02-01","average_temperature":"10.377","city":"Sanming","latitude":"26.52N","longitude":"118.21E"}
{"date":"2012-01-01","average_temperature":"15.25","city":"Santa Catarina","latitude":"26.52N","longitude":"100.30W"}
{"date":"2013-02-01","average_temperature":"10.229","city":"Santa Clara","latitude":"37.78N","longitude":"122.03W"}
{"date":"2012-05-01","average_temperature":"21.84","city":"Santa Cruz De Tenerife","latitude":"28.13N","longitude":"15.45W"}
{"date":"2012-12-01","average_temperature":"26.851","city":"Santa Rita","latitude":"7.23S","longitude":"34.86W"}
{"date":"2013-06-01","average_temperature":"18.124000000000002","city":"Santo André","latitude":"23.31S","longitude":"46.31W"}
{"date":"2011-01-01","average_temperature":"-13.866","city":"Sarapul","latitude":"57.05N","longitude":"54.59E"}
{"date":"2011-10-01","average_temperature":"26.775","city":"Sarh","latitude":"8.84N","longitude":"18.65E"}
{"date":"2012-05-01","average_temperature":"29.309","city":"Satara","latitude":"16.87N","longitude":"73.67E"}
{"date":"2012-01-01","average_temperature":"14.45","city":"Sawai Madhopur","latitude":"26.52N","longitude":"77.01E"}
{"date":"2011-04-01","average_temperature":"21.127","city":"Scottsdale","latitude":"32.95N","longitude":"112.02W"}
{"date":"2010-08-01","average_temperature":"25.323","city":"Sekondi","latitude":"5.63N","longitude":"1.61W"}
{"date":"2011-08-01","average_temperature":"27.443","city":"Shah Alam","latitude":"2.41N","longitude":"102.05E"}
{"date":"2010-03-01","average_temperature":"12.853","city":"Shangrao","latitude":"28.13N","longitude":"117.27E"}
{"date":"2012-02-01","average_temperature":"4.6720000000000015","city":"Shaoyang","latitude":"26.52N","longitude":"111.04E"}
{"date":"2013-04-01","average_temperature":"17.081","city":"Shashi","latitude":"29.74N","longitude":"112.62E"}
{"date":"2012-09-01","average_temperature":"12.663","city":"Sheffield","latitude":"53.84N","longitude":"1.36W"}
{"date":"2010-12-01","average_temperature":"19.363","city":"Sherpur","latitude":"24.92N","longitude":"90.44E"}
{"date":"2011-11-01","average_temperature":"21.601999999999997","city":"Shillong","latitude":"24.92N","longitude":"92.22E"}
{"date":"2013-04-01","average_temperature":"17.081","city":"Shishou","latitude":"29.74N","longitude":"112.62E"}
{"date":"2011-09-01","average_temperature":"19.480999999999998","city":"Shiyan","latitude":"32.95N","longitude":"110.11E"}
{"date":"2010-05-01","average_temperature":"24.283","city":"Shreveport","latitude":"32.95N","longitude":"92.87W"}
{"date":"2012-07-01","average_temperature":"22.119","city":"Shuangyashan","latitude":"47.42N","longitude":"131.45E"}
{"date":"2010-12-01","average_temperature":"-0.28","city":"Shymkent","latitude":"42.59N","longitude":"69.82E"}
{"date":"2013-08-01","average_temperature":"24.232000000000006","city":"Simi Valley","latitude":"34.56N","longitude":"118.70W"}
{"date":"2012-03-01","average_temperature":"29.537","city":"Sincelejo","latitude":"8.84N","longitude":"75.41W"}
{"date":"2011-01-01","average_temperature":"11.725999999999999","city":"Sirsa","latitude":"29.74N","longitude":"75.69E"}
{"date":"2013-06-01","average_temperature":"34.119","city":"Sirsa","latitude":"29.74N","longitude":"75.69E"}
{"date":"2012-02-01","average_temperature":"-6.356","city":"Sivas","latitude":"39.38N","longitude":"37.46E"}
{"date":"2013-02-01","average_temperature":"0.7000000000000002","city":"Sivas","latitude":"39.38N","longitude":"37.46E"}
{"date":"2013-02-01","average_temperature":"2.634","city":"Skopje","latitude":"42.59N","longitude":"21.82E"}
{"date":"2012-05-01","average_temperature":"14.007","city":"Smolensk","latitude":"55.45N","longitude":"31.18E"}
{"date":"2010-10-01","average_temperature":"20.249","city":"Soacha","latitude":"4.02N","longitude":"74.73W"}
{"date":"2010-10-01","average_temperature":"27.175","city":"Soc Trang","latitude":"8.84N","longitude":"106.22E"}
{"date":"2011-06-01","average_temperature":"19.049","city":"Sochi","latitude":"44.20N","longitude":"40.25E"}
{"date":"2010-05-01","average_temperature":"13.707","city":"Sofia","latitude":"42.59N","longitude":"24.00E"}
{"date":"2012-05-01","average_temperature":"29.842","city":"Sohag","latitude":"26.52N","longitude":"32.24E"}
{"date":"2013-08-01","average_temperature":"26.776999999999997","city":"Sokoto","latitude":"13.66N","longitude":"5.78E"}
{"date":"2010-11-01","average_temperature":"-7.066000000000002","city":"Solikamsk","latitude":"60.27N","longitude":"58.38E"}
{"date":"2012-09-01","average_temperature":"8.375","city":"Solikamsk","latitude":"60.27N","longitude":"58.38E"}
{"date":"2010-09-01","average_temperature":"13.204","city":"Solingen","latitude":"50.63N","longitude":"6.34E"}
{"date":"2012-08-01","average_temperature":"19.212","city":"Songea","latitude":"10.45S","longitude":"35.18E"}
{"date":"2010-11-01","average_temperature":"25.781","city":"Soreang","latitude":"7.23S","longitude":"107.84E"}
{"date":"2012-04-01","average_temperature":"21.869","city":"Sorocaba","latitude":"23.31S","longitude":"48.06W"}
{"date":"2013-05-01","average_temperature":"28.142","city":"Sorong","latitude":"0.80S","longitude":"130.98E"}
{"date":"2011-04-01","average_temperature":"9.924","city":"South Bend","latitude":"40.99N","longitude":"85.21W"}
{"date":"2012-07-01","average_temperature":"26.467","city":"South Bend","latitude":"40.99N","longitude":"85.21W"}
{"date":"2013-08-01","average_temperature":"28.831","city":"Spring Valley","latitude":"36.17N","longitude":"115.36W"}
{"date":"2012-01-01","average_temperature":"3.466","city":"Springfield","latitude":"37.78N","longitude":"93.56W"}
{"date":"2010-04-01","average_temperature":"11.873","city":"Stara Zagora","latitude":"42.59N","longitude":"26.18E"}
{"date":"2013-07-01","average_temperature":"22.732000000000006","city":"Sterling Heights","latitude":"42.59N","longitude":"82.91W"}
{"date":"2010-02-01","average_temperature":"2.696","city":"Stoke On Trent","latitude":"52.24N","longitude":"2.63W"}
{"date":"2012-01-01","average_temperature":"5.2139999999999995","city":"Stoke On Trent","latitude":"52.24N","longitude":"2.63W"}
{"date":"2011-05-01","average_temperature":"15.262","city":"Stuttgart","latitude":"49.03N","longitude":"9.80E"}
{"date":"2012-12-01","average_temperature":"-11.968","city":"Sujiatun","latitude":"40.99N","longitude":"123.55E"}
{"date":"2013-09-01","city":"Sukabumi","latitude":"7.23S","longitude":"106.22E"}
{"date":"2012-05-01","average_temperature":"26.951999999999998","city":"Suleja","latitude":"8.84N","longitude":"7.30E"}
{"date":"2010-02-01","average_temperature":"25.281999999999996","city":"Sumaré","latitude":"23.31S","longitude":"48.06W"}
{"date":"2010-03-01","average_temperature":"-0.664","city":"Sumy","latitude":"50.63N","longitude":"34.23E"}
{"date":"2013-07-01","average_temperature":"27.305999999999997","city":"Surat","latitude":"21.70N","longitude":"73.56E"}
{"date":"2013-09-01","city":"Suriapet","latitude":"16.87N","longitude":"80.37E"}
{"date":"2012-12-01","average_temperature":"4.785","city":"Sutton Coldfield","latitude":"52.24N","longitude":"2.63W"}
{"date":"2010-09-01","average_temperature":"13.578","city":"Swindon","latitude":"52.24N","longitude":"2.63W"}
{"date":"2011-02-01","average_temperature":"-1.7009999999999998","city":"Szczecin","latitude":"53.84N","longitude":"15.00E"}
{"date":"2010-08-01","average_temperature":"28.037","city":"Türkmenabat","latitude":"39.38N","longitude":"64.51E"}
{"date":"2010-06-01","average_temperature":"21.521","city":"Tachikawa","latitude":"36.17N","longitude":"139.23E"}
{"date":"2010-07-01","average_temperature":"27.401","city":"Tacloban","latitude":"12.05N","longitude":"124.93E"}
{"date":"2010-10-01","average_temperature":"16.942","city":"Tacna","latitude":"18.48S","longitude":"70.99W"}
{"date":"2010-06-01","average_temperature":"11.722999999999999","city":"Tacoma","latitude":"47.42N","longitude":"121.97W"}
{"date":"2010-10-01","average_temperature":"8.746","city":"Tacoma","latitude":"47.42N","longitude":"121.97W"}
{"date":"2012-10-01","average_temperature":"23.851999999999997","city":"Taipei","latitude":"24.92N","longitude":"122.36E"}
{"date":"2012-07-01","average_temperature":"27.998","city":"Taiping","latitude":"4.02N","longitude":"100.45E"}
{"date":"2012-10-01","average_temperature":"17.692","city":"Taizhou","latitude":"32.95N","longitude":"119.68E"}
{"date":"2013-01-01","average_temperature":"-0.462","city":"Tajimi","latitude":"36.17N","longitude":"137.24E"}
{"date":"2010-11-01","average_temperature":"11.601","city":"Takarazuka","latitude":"34.56N","longitude":"136.22E"}
{"date":"2013-06-01","average_temperature":"22.49","city":"Takarazuka","latitude":"34.56N","longitude":"136.22E"}
{"date":"2013-08-01","average_temperature":"6.688","city":"Talca","latitude":"36.17S","longitude":"71.60W"}
{"date":"2011-01-01","average_temperature":"12.314","city":"Tali","latitude":"24.92N","longitude":"120.59E"}
{"date":"2010-05-01","average_temperature":"25.21","city":"Tallahassee","latitude":"29.74N","longitude":"84.92W"}
{"date":"2012-09-01","average_temperature":"12.978000000000002","city":"Tallinn","latitude":"58.66N","longitude":"24.62E"}
{"date":"2012-12-01","average_temperature":"-3.551","city":"Tangshan","latitude":"37.78N","longitude":"113.90E"}
{"date":"2010-11-01","average_temperature":"23.899","city":"Tapachula","latitude":"15.27N","longitude":"92.50W"}
{"date":"2010-10-01","average_temperature":"13.56","city":"Tarsus","latitude":"37.78N","longitude":"34.58E"}
{"date":"2013-08-01","average_temperature":"22.621","city":"Tarsus","latitude":"37.78N","longitude":"34.58E"}
{"date":"2013-06-01","average_temperature":"26.279","city":"Taunggyi","latitude":"20.09N","longitude":"97.25E"}
{"date":"2012-06-01","average_temperature":"26.622","city":"Tegal","latitude":"7.23S","longitude":"109.46E"}
{"date":"2011-02-01","average_temperature":"27.034000000000002","city":"Teluknaga","latitude":"5.63S","longitude":"106.55E"}
{"date":"2011-11-01","average_temperature":"27.179","city":"Teluknaga","latitude":"5.63S","longitude":"106.55E"}
{"date":"2010-07-01","average_temperature":"19.012","city":"Temirtau","latitude":"50.63N","longitude":"72.25E"}
{"date":"2011-09-01","average_temperature":"20.715","city":"Tengzhou","latitude":"34.56N","longitude":"116.76E"}
{"date":"2010-07-01","average_temperature":"25.434","city":"Terrassa","latitude":"40.99N","longitude":"2.13E"}
{"date":"2012-08-01","average_temperature":"27.405","city":"Thana","latitude":"18.48N","longitude":"72.68E"}
{"date":"2011-10-01","average_temperature":"23.526999999999997","city":"Thanh Hóa","latitude":"20.09N","longitude":"105.78E"}
{"date":"2010-08-01","average_temperature":"27.52","city":"Thanyaburi","latitude":"13.66N","longitude":"101.56E"}
{"date":"2013-07-01","average_temperature":"18.775","city":"The Hague","latitude":"52.24N","longitude":"5.26E"}
{"date":"2013-03-01","average_temperature":"2.4019999999999997","city":"Thornton","latitude":"39.38N","longitude":"104.05W"}
{"date":"2011-08-01","average_temperature":"26.802","city":"Tianmen","latitude":"31.35N","longitude":"113.09E"}
{"date":"2010-08-01","average_temperature":"22.171","city":"Tieling","latitude":"42.59N","longitude":"124.36E"}
{"date":"2012-04-01","average_temperature":"15.094000000000001","city":"Tijuana","latitude":"32.95N","longitude":"117.77W"}
{"date":"2011-07-01","average_temperature":"31.358","city":"Tiruvottiyur","latitude":"13.66N","longitude":"80.09E"}
{"date":"2010-11-01","average_temperature":"24.048","city":"Toamasina","latitude":"18.48S","longitude":"49.01E"}
{"date":"2010-05-01","average_temperature":"17.357","city":"Tolyatti","latitude":"53.84N","longitude":"50.45E"}
{"date":"2012-09-01","average_temperature":"20.506","city":"Tongzhou","latitude":"39.38N","longitude":"116.53E"}
{"date":"2013-08-01","average_temperature":"18.52","city":"Toronto","latitude":"44.20N","longitude":"80.50W"}
{"date":"2012-07-01","average_temperature":"20.559","city":"Torun","latitude":"52.24N","longitude":"18.39E"}
{"date":"2012-09-01","average_temperature":"24.296","city":"Tottori","latitude":"34.56N","longitude":"134.27E"}
{"date":"2011-06-01","average_temperature":"28.441999999999997","city":"Touliu","latitude":"23.31N","longitude":"119.71E"}
{"date":"2011-03-01","average_temperature":"6.9849999999999985","city":"Toyonaka","latitude":"34.56N","longitude":"136.22E"}
{"date":"2010-06-01","average_temperature":"20.565","city":"Trieste","latitude":"45.81N","longitude":"12.69E"}
{"date":"2013-01-01","average_temperature":"3.5010000000000003","city":"Trieste","latitude":"45.81N","longitude":"12.69E"}
{"date":"2011-04-01","average_temperature":"4.989000000000001","city":"Trois Rivières","latitude":"45.81N","longitude":"72.69W"}
{"date":"2011-07-01","average_temperature":"24.166","city":"Tshikapa","latitude":"5.63S","longitude":"20.99E"}
{"date":"2011-03-01","average_temperature":"4.674","city":"Tsuchiura","latitude":"36.17N","longitude":"139.23E"}
{"date":"2010-02-01","average_temperature":"9.727","city":"Tucson","latitude":"31.35N","longitude":"111.20W"}
{"date":"2012-10-01","average_temperature":"20.014000000000006","city":"Tucson","latitude":"31.35N","longitude":"111.20W"}
{"date":"2011-08-01","average_temperature":"28.461","city":"Tuguegarao","latitude":"18.48N","longitude":"121.69E"}
{"date":"2012-09-01","average_temperature":"23.856","city":"Tulsa","latitude":"36.17N","longitude":"95.47W"}
{"date":"2010-03-01","average_temperature":"26.956999999999997","city":"Tumbes","latitude":"4.02S","longitude":"81.16W"}
{"date":"2011-09-01","average_temperature":"28.987","city":"Tungi","latitude":"23.31N","longitude":"90.00E"}
{"date":"2011-10-01","average_temperature":"20.197","city":"Tunis","latitude":"36.17N","longitude":"9.94E"}
{"date":"2011-07-01","average_temperature":"20.291","city":"Tuzla","latitude":"44.20N","longitude":"17.89E"}
{"date":"2010-07-01","average_temperature":"21.101","city":"Tychy","latitude":"50.63N","longitude":"19.01E"}
{"date":"2010-11-01","average_temperature":"25.508000000000003","city":"Ubon Ratchathani","latitude":"15.27N","longitude":"104.17E"}
{"date":"2012-05-01","average_temperature":"28.558000000000003","city":"Udupi","latitude":"13.66N","longitude":"75.14E"}
{"date":"2010-07-01","average_temperature":"16.724","city":"Uitenhage","latitude":"34.56S","longitude":"25.30E"}
{"date":"2010-02-01","average_temperature":"-23.471999999999998","city":"Ulan Ude","latitude":"52.24N","longitude":"107.74E"}
{"date":"2011-08-01","average_temperature":"31.121","city":"Umm Durman","latitude":"15.27N","longitude":"32.50E"}
{"date":"2010-11-01","average_temperature":"27.369000000000003","city":"Ungaran","latitude":"7.23S","longitude":"111.08E"}
{"date":"2012-11-01","average_temperature":"2.403","city":"Uppsala","latitude":"60.27N","longitude":"16.22E"}
{"date":"2011-12-01","average_temperature":"26.406999999999996","city":"Várzea Grande","latitude":"15.27S","longitude":"55.83W"}
{"date":"2012-05-01","average_temperature":"26.934","city":"Valencia","latitude":"10.45N","longitude":"67.91W"}
{"date":"2010-09-01","average_temperature":"18.323","city":"Valladolid","latitude":"40.99N","longitude":"4.26W"}
{"date":"2010-04-01","average_temperature":"15.794","city":"Verwoerdburg","latitude":"26.52S","longitude":"28.66E"}
{"date":"2011-03-01","average_temperature":"22.455","city":"Viamão","latitude":"29.74S","longitude":"51.69W"}
{"date":"2012-03-01","average_temperature":"24.204","city":"Vientiane","latitude":"18.48N","longitude":"103.10E"}
{"date":"2013-06-01","average_temperature":"28.399","city":"Vientiane","latitude":"18.48N","longitude":"103.10E"}
{"date":"2010-01-01","average_temperature":"8.469","city":"Vigo","latitude":"42.59N","longitude":"8.73W"}
{"date":"2013-09-01","city":"Vila Velha","latitude":"20.09S","longitude":"40.95W"}
{"date":"2010-07-01","average_temperature":"21.064","city":"Villa Nueva","latitude":"15.27N","longitude":"90.83W"}
{"date":"2010-05-01","average_temperature":"11.717","city":"Villeurbanne","latitude":"45.81N","longitude":"5.77E"}
{"date":"2010-04-01","average_temperature":"13.963","city":"Vina Del Mar","latitude":"32.95S","longitude":"71.81W"}
{"date":"2012-04-01","average_temperature":"11.226","city":"Vinnytsya","latitude":"49.03N","longitude":"29.39E"}
{"date":"2013-05-01","average_temperature":"21.93","city":"Vitória Da Conquista","latitude":"15.27S","longitude":"40.83W"}
{"date":"2012-01-01","average_temperature":"5.188","city":"Vitoria","latitude":"42.59N","longitude":"2.18W"}
{"date":"2010-06-01","average_temperature":"17.993","city":"Vladivostok","latitude":"42.59N","longitude":"130.91E"}
{"date":"2012-01-01","average_temperature":"-7.965","city":"Volgograd","latitude":"49.03N","longitude":"44.08E"}
{"date":"2011-02-01","average_temperature":"2.528","city":"Washington","latitude":"39.38N","longitude":"76.99W"}
{"date":"2011-08-01","average_temperature":"24.261999999999997","city":"Washington","latitude":"39.38N","longitude":"76.99W"}
{"date":"2013-02-01","average_temperature":"14.559","city":"Wazirabad","latitude":"32.95N","longitude":"73.72E"}
{"date":"2012-10-01","average_temperature":"16.559","city":"Weihai","latitude":"37.78N","longitude":"122.03E"}
{"date":"2011-06-01","average_temperature":"25.349","city":"Weru","latitude":"7.23S","longitude":"107.84E"}
{"date":"2010-03-01","average_temperature":"12.437000000000001","city":"West Covina","latitude":"34.56N","longitude":"118.70W"}
{"date":"2011-03-01","average_temperature":"21.616","city":"Windhoek","latitude":"23.31S","longitude":"16.60E"}
{"date":"2013-06-01","average_temperature":"15.907","city":"Windhoek","latitude":"23.31S","longitude":"16.60E"}
{"date":"2010-06-01","average_temperature":"16.232","city":"Winnipeg","latitude":"50.63N","longitude":"97.61W"}
{"date":"2013-01-01","average_temperature":"20.673","city":"Witbank","latitude":"26.52S","longitude":"28.66E"}
{"date":"2010-01-01","average_temperature":"5.478","city":"Wuhan","latitude":"29.74N","longitude":"114.46E"}
{"date":"2010-02-01","average_temperature":"6.567","city":"Wuhu","latitude":"31.35N","longitude":"118.74E"}
{"date":"2012-11-01","average_temperature":"10.312","city":"Wuhu","latitude":"31.35N","longitude":"118.74E"}
{"date":"2012-05-01","average_temperature":"7.254","city":"Wuwei","latitude":"37.78N","longitude":"101.69E"}
{"date":"2012-12-01","average_temperature":"26.33","city":"Xai Xai","latitude":"24.92S","longitude":"33.69E"}
{"date":"2013-05-01","average_temperature":"18.979","city":"Xianyang","latitude":"34.56N","longitude":"108.97E"}
{"date":"2010-12-01","average_temperature":"3.781","city":"Xiazhen","latitude":"34.56N","longitude":"116.76E"}
{"date":"2010-12-01","average_temperature":"11.375","city":"Xico","latitude":"20.09N","longitude":"98.96W"}
{"date":"2011-01-01","average_temperature":"-1.869","city":"Xuzhou","latitude":"34.56N","longitude":"116.76E"}
{"date":"2013-04-01","average_temperature":"11.31","city":"Yachiyo","latitude":"36.17N","longitude":"139.23E"}
{"date":"2010-08-01","average_temperature":"16.55","city":"Yakeshi","latitude":"49.03N","longitude":"120.00E"}
{"date":"2012-01-01","average_temperature":"25.827","city":"Yamoussoukro","latitude":"7.23N","longitude":"5.68W"}
{"date":"2011-06-01","average_temperature":"24.325","city":"Yangzhou","latitude":"32.95N","longitude":"119.68E"}
{"date":"2011-10-01","average_temperature":"15.690999999999999","city":"Yantai","latitude":"37.78N","longitude":"122.03E"}
{"date":"2010-03-01","average_temperature":"15.972","city":"Yazd","latitude":"31.35N","longitude":"54.66E"}
{"date":"2010-02-01","average_temperature":"25.930000000000003","city":"Yelahanka","latitude":"13.66N","longitude":"76.79E"}
{"date":"2013-07-01","average_temperature":"20.95","city":"Yerevan","latitude":"40.99N","longitude":"44.73E"}
{"date":"2011-12-01","average_temperature":"6.025","city":"Yonago","latitude":"36.17N","longitude":"133.26E"}
{"date":"2012-11-01","average_temperature":"4.103","city":"Yonkers","latitude":"40.99N","longitude":"74.56W"}
{"date":"2012-02-01","average_temperature":"3.855","city":"York","latitude":"53.84N","longitude":"1.36W"}
{"date":"2010-12-01","average_temperature":"-4.952","city":"Yuci","latitude":"37.78N","longitude":"111.86E"}
{"date":"2010-04-01","average_temperature":"10.79","city":"Yuncheng","latitude":"34.56N","longitude":"110.92E"}
{"date":"2011-01-01","average_temperature":"0.7000000000000002","city":"Yushan","latitude":"31.35N","longitude":"120.63E"}
{"date":"2011-09-01","average_temperature":"24.125","city":"Yuyao","latitude":"29.74N","longitude":"121.85E"}
{"date":"2011-02-01","average_temperature":"13.442","city":"Zacatecas","latitude":"23.31N","longitude":"102.23W"}
{"date":"2011-04-01","average_temperature":"30.4","city":"Zaria","latitude":"10.45N","longitude":"7.36E"}
{"date":"2012-01-01","average_temperature":"11.938","city":"Zhanjiang","latitude":"21.70N","longitude":"109.90E"}
{"date":"2010-06-01","average_temperature":"24.975","city":"Zhaodong","latitude":"45.81N","longitude":"125.77E"}
{"date":"2010-06-01","average_temperature":"24.215","city":"Zhenjiang","latitude":"32.95N","longitude":"119.68E"}
{"date":"2012-11-01","average_temperature":"5.959","city":"Zhucheng","latitude":"36.17N","longitude":"119.34E"}
{"date":"2012-07-01","average_temperature":"20.000999999999998","city":"Zhukovskiy","latitude":"55.45N","longitude":"36.85E"}
{"date":"2010-04-01","average_temperature":"15.120999999999999","city":"Zhuzhou","latitude":"28.13N","longitude":"113.64E"}
{"date":"2011-04-01","average_temperature":"12.217","city":"Zielona Gora","latitude":"52.24N","longitude":"15.77E"}
{"date":"2012-09-01","average_temperature":"22.211","city":"Zigong","latitude":"29.74N","longitude":"105.23E"}
{"date":"2013-09-01","city":"Zigong","latitude":"29.74N","longitude":"105.23E"}
{"date":"2013-05-01","average_temperature":"9.4","city":"Zurich","latitude":"47.42N","longitude":"8.29E"}
