{"date":"2012-08-01","average_temperature":"17.006","city":"Århus","latitude":"57.05N","longitude":"10.33E"}
{"date":"2012-07-01","average_temperature":"18.136000000000006","city":"A Coruña","latitude":"42.59N","longitude":"8.73W"}
{"date":"2011-01-01","average_temperature":"21.088","city":"Abha","latitude":"18.48N","longitude":"42.25E"}
{"date":"2012-06-01","average_temperature":"19.359","city":"Abiko","latitude":"36.17N","longitude":"139.23E"}
{"date":"2012-09-01","average_temperature":"23.275","city":"Abiko","latitude":"36.17N","longitude":"139.23E"}
{"date":"2011-06-01","average_temperature":"26.579","city":"Accra","latitude":"5.63N","longitude":"0.00W"}
{"date":"2010-10-01","average_temperature":"26.706999999999997","city":"Achalpur","latitude":"21.70N","longitude":"77.02E"}
{"date":"2010-12-01","average_temperature":"-23.855","city":"Achinsk","latitude":"57.05N","longitude":"90.00E"}
{"date":"2011-07-01","average_temperature":"15.387","city":"Achinsk","latitude":"57.05N","longitude":"90.00E"}
{"date":"2012-11-01","average_temperature":"18.278","city":"Adana","latitude":"36.17N","longitude":"35.80E"}
{"date":"2011-01-01","average_temperature":"21.878","city":"Aden","latitude":"13.66N","longitude":"45.41E"}
{"date":"2011-11-01","average_temperature":"25.351999999999997","city":"Adoni","latitude":"15.27N","longitude":"77.50E"}
{"date":"2013-07-01","average_temperature":"24.761999999999997","city":"Agadir","latitude":"29.74N","longitude":"9.23W"}
{"date":"2013-08-01","average_temperature":"28.381","city":"Agartala","latitude":"23.31N","longitude":"91.75E"}
{"date":"2012-05-01","average_temperature":"35.093999999999994","city":"Agra","latitude":"26.52N","longitude":"78.81E"}
{"date":"2010-01-01","average_temperature":"14.64","city":"Ahvaz","latitude":"31.35N","longitude":"49.01E"}
{"date":"2011-11-01","average_temperature":"2.8360000000000003","city":"Aksu","latitude":"40.99N","longitude":"80.95E"}
{"date":"2012-11-01","average_temperature":"5.691999999999998","city":"Aktau","latitude":"44.20N","longitude":"51.43E"}
{"date":"2012-07-01","average_temperature":"25.165","city":"Akure","latitude":"7.23N","longitude":"5.68E"}
{"date":"2012-05-01","average_temperature":"34.135","city":"Alandur","latitude":"13.66N","longitude":"80.09E"}
{"date":"2010-12-01","average_temperature":"5.002","city":"Albacete","latitude":"39.38N","longitude":"2.08W"}
{"date":"2013-03-01","average_temperature":"18.477","city":"Alexandria","latitude":"31.35N","longitude":"30.16E"}
{"date":"2013-05-01","average_temperature":"11.464","city":"Almere","latitude":"52.24N","longitude":"5.26E"}
{"date":"2012-02-01","average_temperature":"8.89","city":"Amadora","latitude":"39.38N","longitude":"8.32W"}
{"date":"2011-09-01","average_temperature":"27.916","city":"Ambala","latitude":"29.74N","longitude":"77.54E"}
{"date":"2011-08-01","average_temperature":"30.413","city":"Ambattur","latitude":"13.66N","longitude":"80.09E"}
{"date":"2011-05-01","average_temperature":"18.948","city":"Amol","latitude":"36.17N","longitude":"51.71E"}
{"date":"2010-10-01","average_temperature":"26.706999999999997","city":"Amravati","latitude":"21.70N","longitude":"77.02E"}
{"date":"2013-01-01","average_temperature":"3.917","city":"Anjo","latitude":"34.56N","longitude":"136.22E"}
{"date":"2010-01-01","average_temperature":"1.962","city":"Ankara","latitude":"39.38N","longitude":"33.29E"}
{"date":"2011-07-01","average_temperature":"23.84","city":"Ankara","latitude":"39.38N","longitude":"33.29E"}
{"date":"2011-09-01","average_temperature":"20.118","city":"Anqiu","latitude":"36.17N","longitude":"119.34E"}
{"date":"2013-03-01","average_temperature":"-0.14","city":"Anshan","latitude":"40.99N","longitude":"123.55E"}
{"date":"2010-10-01","average_temperature":"23.148000000000003","city":"Antakya","latitude":"36.17N","longitude":"35.80E"}
{"date":"2011-04-01","average_temperature":"9.996","city":"Antalya","latitude":"37.78N","longitude":"30.51E"}
{"date":"2013-04-01","average_temperature":"16.537","city":"Antofagasta","latitude":"23.31S","longitude":"70.78W"}
{"date":"2012-01-01","average_temperature":"22.391","city":"Antsirabe","latitude":"20.09S","longitude":"47.77E"}
{"date":"2011-04-01","average_temperature":"27.084","city":"Apodaca","latitude":"26.52N","longitude":"100.30W"}
{"date":"2010-11-01","average_temperature":"9.014","city":"Arad","latitude":"45.81N","longitude":"21.92E"}
{"date":"2010-11-01","average_temperature":"27.837","city":"Araguaína","latitude":"7.23S","longitude":"47.84W"}
{"date":"2010-06-01","average_temperature":"18.593","city":"Araraquara","latitude":"21.70S","longitude":"47.60W"}
{"date":"2013-03-01","average_temperature":"24.021","city":"Araras","latitude":"21.70S","longitude":"47.60W"}
{"date":"2010-09-01","average_temperature":"17.384","city":"Araucária","latitude":"24.92S","longitude":"49.66W"}
{"date":"2012-02-01","average_temperature":"25.362","city":"Arjawinangun","latitude":"7.23S","longitude":"107.84E"}
{"date":"2013-02-01","average_temperature":"22.315","city":"Armenia","latitude":"4.02N","longitude":"76.34W"}
{"date":"2010-06-01","average_temperature":"12.564","city":"Arvada","latitude":"39.38N","longitude":"106.13W"}
{"date":"2013-08-01","average_temperature":"20.171000000000006","city":"Asahikawa","latitude":"44.20N","longitude":"143.11E"}
{"date":"2013-05-01","average_temperature":"31.956999999999997","city":"Asansol","latitude":"23.31N","longitude":"86.50E"}
{"date":"2010-01-01","average_temperature":"13.597000000000001","city":"Asfi","latitude":"32.95N","longitude":"8.62W"}
{"date":"2010-07-01","average_temperature":"25.267","city":"Astanajapura","latitude":"7.23S","longitude":"107.84E"}
{"date":"2010-11-01","average_temperature":"24.405","city":"Asunción","latitude":"24.92S","longitude":"58.52W"}
{"date":"2013-01-01","average_temperature":"14.187","city":"Asyut","latitude":"26.52N","longitude":"30.45E"}
{"date":"2012-01-01","average_temperature":"0.7150000000000001","city":"Atsugi","latitude":"36.17N","longitude":"139.23E"}
{"date":"2010-11-01","average_temperature":"5.806","city":"Atyrau","latitude":"47.42N","longitude":"50.92E"}
{"date":"2010-10-01","average_temperature":"14.003","city":"Auckland","latitude":"36.17S","longitude":"175.03E"}
{"date":"2010-01-01","average_temperature":"-5.893","city":"Aurora","latitude":"40.99N","longitude":"87.34W"}
{"date":"2011-02-01","average_temperature":"20.404","city":"Awassa","latitude":"7.23N","longitude":"38.11E"}
{"date":"2010-03-01","average_temperature":"29.712","city":"Awka","latitude":"5.63N","longitude":"6.46E"}
{"date":"2013-04-01","average_temperature":"31.645","city":"Azare","latitude":"12.05N","longitude":"9.86E"}
{"date":"2010-03-01","average_temperature":"9.136000000000001","city":"Babol","latitude":"36.17N","longitude":"51.71E"}
{"date":"2010-08-01","average_temperature":"27.101","city":"Bacoor","latitude":"15.27N","longitude":"120.83E"}
{"date":"2010-09-01","average_temperature":"23.801","city":"Badajoz","latitude":"39.38N","longitude":"6.24W"}
{"date":"2010-06-01","average_temperature":"28.35","city":"Bago","latitude":"16.87N","longitude":"97.12E"}
{"date":"2012-01-01","average_temperature":"25.654","city":"Bago","latitude":"16.87N","longitude":"97.12E"}
{"date":"2011-05-01","average_temperature":"27.224","city":"Baguio","latitude":"16.87N","longitude":"120.56E"}
{"date":"2010-06-01","average_temperature":"18.567999999999998","city":"Balashikha","latitude":"55.45N","longitude":"36.85E"}
{"date":"2011-11-01","average_temperature":"2.226","city":"Balti","latitude":"47.42N","longitude":"27.24E"}
{"date":"2011-06-01","average_temperature":"23.731","city":"Baltimore","latitude":"39.38N","longitude":"76.99W"}
{"date":"2012-07-01","average_temperature":"28.14","city":"Banda Aceh","latitude":"5.63N","longitude":"95.25E"}
{"date":"2010-02-01","average_temperature":"22.959","city":"Bansbaria","latitude":"23.31N","longitude":"88.25E"}
{"date":"2013-04-01","average_temperature":"30.435","city":"Bansbaria","latitude":"23.31N","longitude":"88.25E"}
{"date":"2013-02-01","average_temperature":"13.709000000000001","city":"Bantou","latitude":"24.92N","longitude":"118.82E"}
{"date":"2013-08-01","average_temperature":"29.539","city":"Barddhaman","latitude":"23.31N","longitude":"88.25E"}
{"date":"2012-05-01","average_temperature":"18.214000000000002","city":"Bari","latitude":"40.99N","longitude":"17.04E"}
{"date":"2012-11-01","average_temperature":"24.368000000000002","city":"Barinas","latitude":"8.84N","longitude":"70.54W"}
{"date":"2012-09-01","average_temperature":"27.448","city":"Barranquilla","latitude":"10.45N","longitude":"74.45W"}
{"date":"2010-08-01","average_temperature":"26.423","city":"Barsi","latitude":"18.48N","longitude":"76.06E"}
{"date":"2012-07-01","average_temperature":"25.947","city":"Baruta","latitude":"10.45N","longitude":"66.27W"}
{"date":"2011-09-01","average_temperature":"29.107","city":"Batala","latitude":"31.35N","longitude":"75.39E"}
{"date":"2010-10-01","average_temperature":"24.13","city":"Bayrut","latitude":"34.56N","longitude":"35.03E"}
{"date":"2012-10-01","average_temperature":"24.88","city":"Beira","latitude":"20.09S","longitude":"34.12E"}
{"date":"2010-03-01","average_temperature":"28.927","city":"Belém","latitude":"0.80S","longitude":"49.02W"}
{"date":"2013-01-01","average_temperature":"5.952000000000001","city":"Belfast","latitude":"55.45N","longitude":"5.67W"}
{"date":"2012-05-01","average_temperature":"18.428","city":"Belgorod","latitude":"50.63N","longitude":"36.76E"}
{"date":"2012-02-01","average_temperature":"2.773","city":"Bellevue","latitude":"47.42N","longitude":"121.97W"}
{"date":"2012-02-01","average_temperature":"19.623","city":"Bello","latitude":"5.63N","longitude":"75.87W"}
{"date":"2012-03-01","average_temperature":"23.299","city":"Belo Horizonte","latitude":"20.09S","longitude":"44.36W"}
{"date":"2012-03-01","average_temperature":"14.332","city":"Benghazi","latitude":"32.95N","longitude":"20.11E"}
{"date":"2012-06-01","average_temperature":"27.046","city":"Bengkulu","latitude":"4.02S","longitude":"102.05E"}
{"date":"2013-03-01","average_temperature":"19.033","city":"Benoni","latitude":"26.52S","longitude":"28.66E"}
{"date":"2011-11-01","average_temperature":"13.854000000000001","city":"Beppu","latitude":"32.95N","longitude":"131.17E"}
{"date":"2010-11-01","average_temperature":"12.107000000000001","city":"Berkeley","latitude":"37.78N","longitude":"122.03W"}
{"date":"2010-11-01","average_temperature":"12.772","city":"Bharatpur","latitude":"28.13N","longitude":"84.55E"}
{"date":"2011-08-01","average_temperature":"20.933000000000003","city":"Bharatpur","latitude":"28.13N","longitude":"84.55E"}
{"date":"2012-03-01","average_temperature":"27.878","city":"Bhatpara","latitude":"23.31N","longitude":"88.25E"}
{"date":"2012-12-01","average_temperature":"24.888","city":"Bhimavaram","latitude":"16.87N","longitude":"82.05E"}
{"date":"2013-07-01","average_temperature":"30.191999999999997","city":"Bhind","latitude":"26.52N","longitude":"78.81E"}
{"date":"2012-01-01","average_temperature":"19.000999999999998","city":"Bhusawal","latitude":"21.70N","longitude":"75.29E"}
{"date":"2010-07-01","average_temperature":"27.232","city":"Bidar","latitude":"18.48N","longitude":"77.75E"}
{"date":"2010-10-01","average_temperature":"25.910999999999998","city":"Bijapur","latitude":"16.87N","longitude":"75.35E"}
{"date":"2010-05-01","average_temperature":"36.85","city":"Bikaner","latitude":"28.13N","longitude":"73.64E"}
{"date":"2011-12-01","average_temperature":"16.678","city":"Bikaner","latitude":"28.13N","longitude":"73.64E"}
{"date":"2011-02-01","average_temperature":"26.713","city":"Binjai","latitude":"4.02N","longitude":"98.84E"}
{"date":"2013-06-01","average_temperature":"26.275","city":"Birmingham","latitude":"32.95N","longitude":"87.13W"}
{"date":"2011-08-01","average_temperature":"26.293000000000003","city":"Bissau","latitude":"12.05N","longitude":"14.79W"}
{"date":"2012-09-01","average_temperature":"12.922999999999998","city":"Biysk","latitude":"52.24N","longitude":"84.09E"}
{"date":"2011-09-01","average_temperature":"24.539","city":"Blitar","latitude":"8.84S","longitude":"112.70E"}
{"date":"2012-08-01","average_temperature":"19.021","city":"Bochum","latitude":"52.24N","longitude":"7.88E"}
{"date":"2012-12-01","average_temperature":"18.570999999999998","city":"Bokaro","latitude":"23.31N","longitude":"86.50E"}
{"date":"2011-12-01","average_temperature":"4.686","city":"Bonn","latitude":"50.63N","longitude":"6.34E"}
{"date":"2010-06-01","average_temperature":"18.772000000000002","city":"Bordeaux","latitude":"44.20N","longitude":"0.00W"}
{"date":"2010-02-01","average_temperature":"0.3960000000000001","city":"Bottrop","latitude":"52.24N","longitude":"7.88E"}
{"date":"2010-05-01","average_temperature":"18.67","city":"Botucatu","latitude":"23.31S","longitude":"48.06W"}
{"date":"2010-04-01","average_temperature":"13.645999999999999","city":"Bozhou","latitude":"32.95N","longitude":"115.85E"}
{"date":"2012-12-01","average_temperature":"-0.4270000000000001","city":"Bratislava","latitude":"47.42N","longitude":"17.76E"}
{"date":"2010-09-01","average_temperature":"24.718000000000004","city":"Brazzaville","latitude":"4.02S","longitude":"15.27E"}
{"date":"2012-02-01","average_temperature":"0.3759999999999999","city":"Breda","latitude":"52.24N","longitude":"5.26E"}
{"date":"2011-11-01","average_temperature":"5.24","city":"Brescia","latitude":"45.81N","longitude":"10.38E"}
{"date":"2012-07-01","average_temperature":"12.057","city":"Brits","latitude":"24.92S","longitude":"28.37E"}
{"date":"2013-04-01","average_temperature":"8.943","city":"Brussels","latitude":"50.63N","longitude":"3.80E"}
{"date":"2011-02-01","average_temperature":"2.6439999999999997","city":"Bukan","latitude":"36.17N","longitude":"45.75E"}
{"date":"2011-04-01","average_temperature":"14.217","city":"Burbank","latitude":"34.56N","longitude":"118.70W"}
{"date":"2011-02-01","average_temperature":"27.841","city":"Butterworth","latitude":"5.63N","longitude":"100.09E"}
{"date":"2012-06-01","average_temperature":"27.125","city":"Butuan","latitude":"8.84N","longitude":"125.68E"}
{"date":"2013-06-01","average_temperature":"17.366","city":"Bydgoszcz","latitude":"53.84N","longitude":"17.73E"}
{"date":"2010-03-01","average_temperature":"11.728","city":"Córdoba","latitude":"37.78N","longitude":"4.07W"}
{"date":"2012-02-01","average_temperature":"25.033","city":"Cúa","latitude":"10.45N","longitude":"66.27W"}
{"date":"2012-09-01","average_temperature":"27.246","city":"Cabanatuan","latitude":"15.27N","longitude":"120.83E"}
{"date":"2012-12-01","average_temperature":"26.051","city":"Cabo Frio","latitude":"23.31S","longitude":"42.82W"}
{"date":"2010-03-01","average_temperature":"12.82","city":"Cagliari","latitude":"39.38N","longitude":"8.32E"}
{"date":"2011-09-01","average_temperature":"26.996","city":"Cagua","latitude":"10.45N","longitude":"67.91W"}
{"date":"2010-03-01","average_temperature":"18.011000000000006","city":"Cajamarca","latitude":"7.23S","longitude":"78.65W"}
{"date":"2011-12-01","average_temperature":"27.491999999999997","city":"Calabozo","latitude":"8.84N","longitude":"67.30W"}
{"date":"2011-04-01","average_temperature":"29.276","city":"Calcutta","latitude":"23.31N","longitude":"88.25E"}
{"date":"2011-04-01","average_temperature":"24.807","city":"Cam Ranh","latitude":"12.05N","longitude":"108.49E"}
{"date":"2011-05-01","average_temperature":"26.808000000000003","city":"Camagüey","latitude":"21.70N","longitude":"78.75W"}
{"date":"2012-02-01","average_temperature":"24.221999999999998","city":"Camagüey","latitude":"21.70N","longitude":"78.75W"}
{"date":"2013-02-01","average_temperature":"28.318","city":"Can Tho","latitude":"10.45N","longitude":"105.55E"}
{"date":"2013-07-01","average_temperature":"12.808","city":"Canoas","latitude":"29.74S","longitude":"51.69W"}
{"date":"2010-12-01","average_temperature":"27.405","city":"Cape Coast","latitude":"5.63N","longitude":"1.61W"}
{"date":"2011-06-01","average_temperature":"26.765","city":"Caracas","latitude":"10.45N","longitude":"66.27W"}
{"date":"2011-09-01","average_temperature":"21.943","city":"Cary","latitude":"36.17N","longitude":"79.56W"}
{"date":"2010-05-01","average_temperature":"27.421999999999997","city":"Castanhal","latitude":"0.80S","longitude":"47.41W"}
{"date":"2011-04-01","average_temperature":"26.184","city":"Caxias","latitude":"5.63S","longitude":"43.59W"}
{"date":"2012-02-01","average_temperature":"25.581999999999997","city":"Caxias Do Sul","latitude":"29.74S","longitude":"51.69W"}
{"date":"2012-04-01","average_temperature":"15.407","city":"Chandigarh","latitude":"31.35N","longitude":"77.28E"}
{"date":"2013-04-01","average_temperature":"20.966","city":"Chandler","latitude":"32.95N","longitude":"112.02W"}
{"date":"2012-04-01","average_temperature":"33.373000000000005","city":"Chandrapur","latitude":"20.09N","longitude":"78.48E"}
{"date":"2010-03-01","average_temperature":"11.47","city":"Changde","latitude":"28.13N","longitude":"111.82E"}
{"date":"2012-06-01","average_temperature":"32.79","city":"Chas","latitude":"23.31N","longitude":"86.50E"}
{"date":"2011-09-01","average_temperature":"14.777999999999999","city":"Cheltenham","latitude":"52.24N","longitude":"2.63W"}
{"date":"2012-11-01","average_temperature":"6.351","city":"Cheltenham","latitude":"52.24N","longitude":"2.63W"}
{"date":"2011-05-01","average_temperature":"24.558000000000003","city":"Chenghai","latitude":"23.31N","longitude":"116.21E"}
{"date":"2012-07-01","average_temperature":"29.007","city":"Chenghai","latitude":"23.31N","longitude":"116.21E"}
{"date":"2010-11-01","average_temperature":"23.071","city":"Chhapra","latitude":"26.52N","longitude":"84.18E"}
{"date":"2011-02-01","average_temperature":"19.895000000000003","city":"Chhatarpur","latitude":"24.92N","longitude":"79.80E"}
{"date":"2011-06-01","average_temperature":"31.506","city":"Chhatarpur","latitude":"24.92N","longitude":"79.80E"}
{"date":"2013-02-01","average_temperature":"-0.509","city":"Chicago","latitude":"42.59N","longitude":"87.27W"}
{"date":"2010-08-01","average_temperature":"27.295","city":"Chigasaki","latitude":"36.17N","longitude":"139.23E"}
{"date":"2011-07-01","average_temperature":"18.889","city":"Chimoio","latitude":"18.48S","longitude":"33.80E"}
{"date":"2012-10-01","average_temperature":"23.903000000000002","city":"Chimoio","latitude":"18.48S","longitude":"33.80E"}
{"date":"2010-03-01","average_temperature":"28.651","city":"Chinandega","latitude":"12.05N","longitude":"87.12W"}
{"date":"2011-01-01","average_temperature":"11.796","city":"Chuncheng","latitude":"21.70N","longitude":"111.63E"}
{"date":"2010-12-01","average_temperature":"14.947000000000001","city":"Churu","latitude":"28.13N","longitude":"75.45E"}
{"date":"2011-05-01","average_temperature":"27.889","city":"Cibinong","latitude":"5.63S","longitude":"106.55E"}
{"date":"2012-11-01","average_temperature":"27.094","city":"Cibinong","latitude":"5.63S","longitude":"106.55E"}
{"date":"2013-01-01","average_temperature":"25.076","city":"Cicalengka","latitude":"7.23S","longitude":"107.84E"}
{"date":"2013-02-01","average_temperature":"24.212","city":"Ciego De Ávila","latitude":"21.70N","longitude":"78.75W"}
{"date":"2010-10-01","average_temperature":"25.313","city":"Cimahi","latitude":"7.23S","longitude":"107.84E"}
{"date":"2012-07-01","average_temperature":"27.101","city":"Cisarua","latitude":"5.63S","longitude":"106.55E"}
{"date":"2012-02-01","average_temperature":"7.115","city":"Clarksville","latitude":"36.17N","longitude":"87.51W"}
{"date":"2011-02-01","average_temperature":"17.646","city":"Clearwater","latitude":"28.13N","longitude":"82.73W"}
{"date":"2012-03-01","average_temperature":"22.173000000000002","city":"Clearwater","latitude":"28.13N","longitude":"82.73W"}
{"date":"2013-02-01","average_temperature":"1.853","city":"Cluj Napoca","latitude":"47.42N","longitude":"22.50E"}
{"date":"2011-10-01","average_temperature":"21.82","city":"Colima","latitude":"20.09N","longitude":"104.08W"}
{"date":"2011-06-01","average_temperature":"27.57","city":"Columbus","latitude":"32.95N","longitude":"85.21W"}
{"date":"2010-10-01","average_temperature":"12.083","city":"Concepcion","latitude":"36.17S","longitude":"73.59W"}
{"date":"2013-08-01","average_temperature":"20.581999999999997","city":"Conselheiro Lafaiete","latitude":"20.09S","longitude":"44.36W"}
{"date":"2012-09-01","average_temperature":"22.683000000000003","city":"Contagem","latitude":"20.09S","longitude":"44.36W"}
{"date":"2012-04-01","average_temperature":"27.107","city":"Cotabato","latitude":"7.23N","longitude":"124.05E"}
{"date":"2013-08-01","average_temperature":"18.215","city":"Cotia","latitude":"23.31S","longitude":"46.31W"}
{"date":"2011-05-01","average_temperature":"12.303999999999998","city":"Coventry","latitude":"52.24N","longitude":"2.63W"}
{"date":"2010-06-01","average_temperature":"17.599","city":"Dabrowa Gornicza","latitude":"50.63N","longitude":"19.01E"}
{"date":"2013-08-01","average_temperature":"25.864","city":"Dagupan","latitude":"16.87N","longitude":"120.56E"}
{"date":"2010-10-01","average_temperature":"12.614","city":"Dalian","latitude":"39.38N","longitude":"120.69E"}
{"date":"2011-11-01","average_temperature":"22.358","city":"Damoh","latitude":"23.31N","longitude":"79.51E"}
{"date":"2011-06-01","average_temperature":"29.109","city":"Dasoguz","latitude":"40.99N","longitude":"59.64E"}
{"date":"2012-10-01","average_temperature":"26.499","city":"Davao","latitude":"7.23N","longitude":"125.68E"}
{"date":"2012-11-01","average_temperature":"20.045","city":"Debre Zeyit","latitude":"8.84N","longitude":"39.73E"}
{"date":"2013-04-01","average_temperature":"23.392","city":"Debre Zeyit","latitude":"8.84N","longitude":"39.73E"}
{"date":"2011-09-01","average_temperature":"27.209","city":"Depok","latitude":"5.63S","longitude":"106.55E"}
{"date":"2010-06-01","average_temperature":"34.678999999999995","city":"Dera Ismail Khan","latitude":"31.35N","longitude":"71.62E"}
{"date":"2013-01-01","average_temperature":"14.835999999999999","city":"Dhaulpur","latitude":"26.52N","longitude":"77.01E"}
{"date":"2010-12-01","average_temperature":"19.465999999999998","city":"Dhule","latitude":"20.09N","longitude":"75.07E"}
{"date":"2010-02-01","average_temperature":"24.83","city":"Diadema","latitude":"23.31S","longitude":"46.31W"}
{"date":"2013-06-01","average_temperature":"16.003999999999998","city":"Dijon","latitude":"47.42N","longitude":"5.92E"}
{"date":"2010-06-01","average_temperature":"30.773000000000003","city":"Diourbel","latitude":"15.27N","longitude":"15.83W"}
{"date":"2013-07-01","average_temperature":"31.393","city":"Do Rud","latitude":"32.95N","longitude":"48.83E"}
{"date":"2011-10-01","average_temperature":"23.124000000000002","city":"Donghai","latitude":"23.31N","longitude":"116.21E"}
{"date":"2011-09-01","average_temperature":"27.708000000000002","city":"Dongli","latitude":"20.09N","longitude":"110.90E"}
{"date":"2011-11-01","average_temperature":"13.793","city":"Dos Hermanas","latitude":"37.78N","longitude":"6.10W"}
{"date":"2013-02-01","average_temperature":"26.083000000000002","city":"Dourados","latitude":"21.70S","longitude":"54.52W"}
{"date":"2010-01-01","average_temperature":"1.14","city":"Dudley","latitude":"52.24N","longitude":"2.63W"}
{"date":"2011-10-01","average_temperature":"10.602","city":"Duisburg","latitude":"50.63N","longitude":"6.34E"}
{"date":"2011-04-01","average_temperature":"29.276","city":"Dum Dum","latitude":"23.31N","longitude":"88.25E"}
{"date":"2010-07-01","average_temperature":"28.338","city":"Dumaguete","latitude":"8.84N","longitude":"124.05E"}
{"date":"2011-03-01","average_temperature":"22.113000000000003","city":"East London","latitude":"32.95S","longitude":"27.77E"}
{"date":"2012-09-01","average_temperature":"23.854","city":"Edéa","latitude":"4.02N","longitude":"10.45E"}
{"date":"2013-01-01","average_temperature":"1.483","city":"Edirne","latitude":"42.59N","longitude":"26.18E"}
{"date":"2010-02-01","average_temperature":"1.1819999999999995","city":"Eindhoven","latitude":"52.24N","longitude":"5.26E"}
{"date":"2011-06-01","average_temperature":"26.461","city":"Ejigbo","latitude":"7.23N","longitude":"4.05E"}
{"date":"2010-12-01","average_temperature":"-16.189","city":"Ekibastuz","latitude":"52.24N","longitude":"76.20E"}
{"date":"2011-01-01","average_temperature":"26.845","city":"El Tigre","latitude":"8.84N","longitude":"64.05W"}
{"date":"2012-01-01","average_temperature":"26.169","city":"El Tigre","latitude":"8.84N","longitude":"64.05W"}
{"date":"2013-08-01","average_temperature":"26.464000000000002","city":"Elbasan","latitude":"40.99N","longitude":"19.17E"}
{"date":"2011-09-01","average_temperature":"15.08","city":"Engels","latitude":"50.63N","longitude":"46.90E"}
{"date":"2013-02-01","average_temperature":"-7.447000000000001","city":"Engels","latitude":"50.63N","longitude":"46.90E"}
{"date":"2013-01-01","average_temperature":"13.404000000000002","city":"Escondido","latitude":"32.95N","longitude":"117.77W"}
{"date":"2011-03-01","average_temperature":"8.11","city":"Exeter","latitude":"50.63N","longitude":"3.80W"}
{"date":"2012-07-01","average_temperature":"30.605","city":"Ezhou","latitude":"29.74N","longitude":"114.46E"}
{"date":"2012-10-01","average_temperature":"25.105","city":"Fengshan","latitude":"23.31N","longitude":"119.71E"}
{"date":"2013-08-01","average_temperature":"25.767","city":"Foggia","latitude":"40.99N","longitude":"14.91E"}
{"date":"2010-10-01","average_temperature":"21.344","city":"Formosa","latitude":"26.52S","longitude":"57.31W"}
{"date":"2012-12-01","average_temperature":"29.156","city":"Fortaleza","latitude":"4.02S","longitude":"40.98W"}
{"date":"2013-02-01","average_temperature":"24.275","city":"Franca","latitude":"20.09S","longitude":"47.77W"}
{"date":"2013-08-01","average_temperature":"18.215","city":"Francisco Morato","latitude":"23.31S","longitude":"46.31W"}
{"date":"2013-08-01","average_temperature":"18.215","city":"Franco Da Rocha","latitude":"23.31S","longitude":"46.31W"}
{"date":"2010-04-01","average_temperature":"17.157999999999998","city":"Fresnillo","latitude":"23.31N","longitude":"102.23W"}
{"date":"2013-07-01","average_temperature":"25.790000000000006","city":"Fuji","latitude":"34.56N","longitude":"138.16E"}
{"date":"2013-02-01","average_temperature":"7.0120000000000005","city":"Fujieda","latitude":"34.56N","longitude":"138.16E"}
{"date":"2011-12-01","average_temperature":"3.25","city":"Fujisawa","latitude":"36.17N","longitude":"139.23E"}
{"date":"2010-08-01","average_temperature":"28.186999999999998","city":"Fuyang","latitude":"32.95N","longitude":"115.85E"}
{"date":"2012-12-01","average_temperature":"2.181","city":"Fuyang","latitude":"32.95N","longitude":"115.85E"}
{"date":"2011-09-01","average_temperature":"19.904","city":"Garden Grove","latitude":"32.95N","longitude":"117.77W"}
{"date":"2013-09-01","average_temperature":"27.986","city":"Garland","latitude":"32.95N","longitude":"96.70W"}
{"date":"2010-08-01","average_temperature":"28.588","city":"Gaziantep","latitude":"37.78N","longitude":"36.61E"}
{"date":"2012-04-01","average_temperature":"8.676","city":"Gdansk","latitude":"53.84N","longitude":"17.73E"}
{"date":"2010-04-01","average_temperature":"12.357000000000001","city":"Gebze","latitude":"40.99N","longitude":"29.82E"}
{"date":"2011-01-01","average_temperature":"19.989","city":"Geelong","latitude":"37.78S","longitude":"144.41E"}
{"date":"2012-09-01","average_temperature":"14.093","city":"Gelsenkirchen","latitude":"52.24N","longitude":"7.88E"}
{"date":"2011-08-01","average_temperature":"31.499000000000002","city":"General Escobedo","latitude":"26.52N","longitude":"100.30W"}
{"date":"2010-06-01","average_temperature":"19.639","city":"Genoa","latitude":"44.20N","longitude":"8.94E"}
{"date":"2010-02-01","average_temperature":"4.0489999999999995","city":"Gillingham","latitude":"50.63N","longitude":"1.27E"}
{"date":"2012-05-01","average_temperature":"12.182","city":"Gillingham","latitude":"50.63N","longitude":"1.27E"}
{"date":"2011-05-01","average_temperature":"25.388","city":"Gizeh","latitude":"29.74N","longitude":"31.38E"}
{"date":"2012-09-01","average_temperature":"11.364","city":"Glasgow","latitude":"55.45N","longitude":"2.83W"}
{"date":"2012-08-01","average_temperature":"32.940999999999995","city":"Glendale","latitude":"32.95N","longitude":"112.02W"}
{"date":"2010-04-01","average_temperature":"30.534000000000002","city":"Gojra","latitude":"31.35N","longitude":"73.51E"}
{"date":"2010-07-01","average_temperature":"26.695999999999998","city":"Gombe","latitude":"10.45N","longitude":"10.64E"}
{"date":"2010-11-01","average_temperature":"23.071","city":"Gorakhpur","latitude":"26.52N","longitude":"84.18E"}
{"date":"2012-05-01","average_temperature":"32.592","city":"Gorakhpur","latitude":"26.52N","longitude":"84.18E"}
{"date":"2010-07-01","average_temperature":"20.912","city":"Governador Valadares","latitude":"18.48S","longitude":"42.25W"}
{"date":"2013-05-01","average_temperature":"15.562000000000001","city":"Gravataí","latitude":"29.74S","longitude":"51.69W"}
{"date":"2010-05-01","average_temperature":"27.199","city":"Guadalupe","latitude":"26.52N","longitude":"100.30W"}
{"date":"2012-12-01","average_temperature":"16.124000000000002","city":"Guadalupe","latitude":"26.52N","longitude":"100.30W"}
{"date":"2010-09-01","average_temperature":"27.627","city":"Guangzhou","latitude":"23.31N","longitude":"112.72E"}
{"date":"2013-03-01","average_temperature":"25.923000000000002","city":"Guarenas","latitude":"10.45N","longitude":"66.27W"}
{"date":"2010-07-01","average_temperature":"18.354","city":"Guarulhos","latitude":"23.31S","longitude":"46.31W"}
{"date":"2013-06-01","average_temperature":"18.124000000000002","city":"Guarulhos","latitude":"23.31S","longitude":"46.31W"}
{"date":"2010-02-01","average_temperature":"19.108","city":"Guatemala","latitude":"15.27N","longitude":"90.83W"}
{"date":"2011-06-01","average_temperature":"32.848","city":"Guaymas","latitude":"28.13N","longitude":"110.00W"}
{"date":"2010-08-01","average_temperature":"30.713","city":"Gudalur","latitude":"12.05N","longitude":"80.55E"}
{"date":"2010-03-01","average_temperature":"27.92","city":"Guna","latitude":"24.92N","longitude":"78.03E"}
{"date":"2011-09-01","average_temperature":"29.399","city":"Gurgaon","latitude":"28.13N","longitude":"77.27E"}
{"date":"2010-08-01","average_temperature":"29.589","city":"Gwalior","latitude":"26.52N","longitude":"78.81E"}
{"date":"2011-12-01","average_temperature":"19.767000000000003","city":"Habra","latitude":"23.31N","longitude":"88.25E"}
{"date":"2013-03-01","average_temperature":"7.955","city":"Hachioji","latitude":"36.17N","longitude":"139.23E"}
{"date":"2012-11-01","average_temperature":"6.2120000000000015","city":"Hagen","latitude":"52.24N","longitude":"7.88E"}
{"date":"2011-09-01","average_temperature":"27.256999999999998","city":"Haicheng","latitude":"23.31N","longitude":"114.47E"}
{"date":"2013-05-01","average_temperature":"15.927999999999999","city":"Hailun","latitude":"47.42N","longitude":"126.71E"}
{"date":"2010-02-01","average_temperature":"-6.723","city":"Hami","latitude":"42.59N","longitude":"93.82E"}
{"date":"2010-05-01","average_temperature":"10.604","city":"Hamm","latitude":"52.24N","longitude":"7.88E"}
{"date":"2011-12-01","average_temperature":"20.253","city":"Hargeysa","latitude":"8.84N","longitude":"44.59E"}
{"date":"2010-02-01","average_temperature":"17.271","city":"Haridwar","latitude":"29.74N","longitude":"77.54E"}
{"date":"2013-02-01","average_temperature":"0.3890000000000001","city":"Hartford","latitude":"40.99N","longitude":"72.43W"}
{"date":"2013-01-01","average_temperature":"-4.9940000000000015","city":"Hebi","latitude":"36.17N","longitude":"113.37E"}
{"date":"2010-07-01","average_temperature":"21.039","city":"Heidelberg","latitude":"49.03N","longitude":"9.80E"}
{"date":"2013-05-01","average_temperature":"12.129","city":"Heilbronn","latitude":"49.03N","longitude":"9.80E"}
{"date":"2012-03-01","average_temperature":"-0.6149999999999998","city":"Helsinki","latitude":"60.27N","longitude":"25.95E"}
{"date":"2011-03-01","average_temperature":"5.018000000000002","city":"Highlands Ranch","latitude":"39.38N","longitude":"104.05W"}
{"date":"2011-11-01","average_temperature":"3.475","city":"Highlands Ranch","latitude":"39.38N","longitude":"104.05W"}
{"date":"2011-05-01","average_temperature":"14.154000000000002","city":"Hildesheim","latitude":"52.24N","longitude":"10.51E"}
{"date":"2012-09-01","average_temperature":"14.137","city":"Hildesheim","latitude":"52.24N","longitude":"10.51E"}
{"date":"2010-10-01","average_temperature":"15.880999999999998","city":"Hino","latitude":"36.17N","longitude":"139.23E"}
{"date":"2010-02-01","average_temperature":"16.358","city":"Hobart","latitude":"42.59S","longitude":"148.36E"}
{"date":"2010-10-01","average_temperature":"18.275","city":"Hofu","latitude":"34.56N","longitude":"132.32E"}
{"date":"2011-08-01","average_temperature":"21.398000000000003","city":"Hohhot","latitude":"40.99N","longitude":"110.77E"}
{"date":"2013-04-01","average_temperature":"4.061","city":"Honggang","latitude":"45.81N","longitude":"125.77E"}
{"date":"2010-08-01","average_temperature":"18.564","city":"Hortolândia","latitude":"23.31S","longitude":"48.06W"}
{"date":"2013-05-01","average_temperature":"34.983000000000004","city":"Hoshangabad","latitude":"23.31N","longitude":"77.77E"}
{"date":"2010-01-01","average_temperature":"23.436","city":"Hospet","latitude":"15.27N","longitude":"75.83E"}
{"date":"2010-11-01","average_temperature":"10.437999999999999","city":"Huánuco","latitude":"10.45S","longitude":"76.09W"}
{"date":"2013-04-01","average_temperature":"15.357999999999999","city":"Huainan","latitude":"32.95N","longitude":"117.77E"}
{"date":"2012-12-01","average_temperature":"3.809","city":"Huddersfield","latitude":"53.84N","longitude":"1.36W"}
{"date":"2010-05-01","average_temperature":"21.674","city":"Huntsville","latitude":"34.56N","longitude":"85.62W"}
{"date":"2012-08-01","average_temperature":"25.581999999999997","city":"Ichalkaranji","latitude":"16.87N","longitude":"73.67E"}
{"date":"2012-12-01","average_temperature":"10.035","city":"Ichihara","latitude":"34.56N","longitude":"140.11E"}
{"date":"2013-05-01","average_temperature":"18.952","city":"Ichihara","latitude":"34.56N","longitude":"140.11E"}
{"date":"2010-02-01","average_temperature":"3.306","city":"Ichikawa","latitude":"36.17N","longitude":"139.23E"}
{"date":"2012-08-01","average_temperature":"25.113000000000003","city":"Igboho","latitude":"8.84N","longitude":"4.05E"}
{"date":"2013-08-01","average_temperature":"24.156","city":"Ikire","latitude":"7.23N","longitude":"4.05E"}
{"date":"2010-05-01","average_temperature":"28.357","city":"Ikot Ekpene","latitude":"5.63N","longitude":"8.07E"}
{"date":"2011-07-01","average_temperature":"24.54","city":"Ilebo","latitude":"4.02S","longitude":"20.09E"}
{"date":"2012-06-01","average_temperature":"28.195","city":"Iligan","latitude":"8.84N","longitude":"124.05E"}
{"date":"2013-02-01","average_temperature":"27.006","city":"Iloilo","latitude":"10.45N","longitude":"121.91E"}
{"date":"2012-01-01","average_temperature":"26.112","city":"Imperatriz","latitude":"5.63S","longitude":"46.82W"}
{"date":"2011-01-01","average_temperature":"13.772","city":"Imphal","latitude":"24.92N","longitude":"93.99E"}
{"date":"2013-02-01","average_temperature":"-5.357","city":"Innsbruck","latitude":"47.42N","longitude":"10.66E"}
{"date":"2010-11-01","average_temperature":"14.925999999999998","city":"Irapuato","latitude":"20.09N","longitude":"100.66W"}
{"date":"2013-02-01","average_temperature":"17.305999999999997","city":"Irapuato","latitude":"20.09N","longitude":"100.66W"}
{"date":"2010-01-01","average_temperature":"11.772","city":"Islamabad","latitude":"32.95N","longitude":"73.72E"}
{"date":"2010-05-01","average_temperature":"21.072000000000006","city":"Itajaí","latitude":"26.52S","longitude":"48.36W"}
{"date":"2013-04-01","average_temperature":"20.48","city":"Itapecerica Da Serra","latitude":"23.31S","longitude":"46.31W"}
{"date":"2011-01-01","average_temperature":"23.878","city":"Itapevi","latitude":"23.31S","longitude":"46.31W"}
{"date":"2012-10-01","average_temperature":"5.225","city":"Ivanovo","latitude":"57.05N","longitude":"39.84E"}
{"date":"2012-12-01","average_temperature":"1.4349999999999998","city":"Iwaki","latitude":"37.78N","longitude":"140.34E"}
{"date":"2012-02-01","average_temperature":"14.095999999999998","city":"Ixtapaluca","latitude":"20.09N","longitude":"98.96W"}
{"date":"2011-02-01","average_temperature":"25.456000000000003","city":"Jaú","latitude":"21.70S","longitude":"49.33W"}
{"date":"2013-05-01","average_temperature":"18.317","city":"Jacareí","latitude":"23.31S","longitude":"46.31W"}
{"date":"2010-03-01","average_temperature":"27.899","city":"Jakarta","latitude":"5.63S","longitude":"106.55E"}
{"date":"2013-03-01","average_temperature":"27.719","city":"Jakarta","latitude":"5.63S","longitude":"106.55E"}
{"date":"2012-03-01","average_temperature":"8.69","city":"Jalalabad","latitude":"34.56N","longitude":"70.05E"}
{"date":"2012-01-01","average_temperature":"17.252","city":"Jamalpur","latitude":"24.92N","longitude":"90.44E"}
{"date":"2013-09-01","city":"Jamalpur","latitude":"24.92N","longitude":"86.90E"}
{"date":"2010-08-01","average_temperature":"31.18","city":"Jaranwala","latitude":"31.35N","longitude":"73.51E"}
{"date":"2011-01-01","average_temperature":"15.207","city":"Jhansi","latitude":"24.92N","longitude":"78.03E"}
{"date":"2011-11-01","average_temperature":"22.616999999999997","city":"Jhunjhunun","latitude":"28.13N","longitude":"75.45E"}
{"date":"2010-04-01","average_temperature":"26.466","city":"Ji Paraná","latitude":"10.45S","longitude":"61.36W"}
{"date":"2010-11-01","average_temperature":"14.267999999999999","city":"Jian","latitude":"26.52N","longitude":"114.63E"}
{"date":"2013-09-01","city":"Jiangmen","latitude":"23.31N","longitude":"112.72E"}
{"date":"2010-10-01","average_temperature":"19.13","city":"Jiaojiang","latitude":"28.13N","longitude":"120.91E"}
{"date":"2013-02-01","average_temperature":"9.174","city":"Jiaojiang","latitude":"28.13N","longitude":"120.91E"}
{"date":"2012-01-01","average_temperature":"-2.392","city":"Jiaozhou","latitude":"36.17N","longitude":"119.34E"}
{"date":"2012-04-01","average_temperature":"17.233999999999998","city":"Jiaozuo","latitude":"34.56N","longitude":"112.86E"}
{"date":"2010-07-01","average_temperature":"16.708000000000002","city":"Jiayuguan","latitude":"39.38N","longitude":"97.80E"}
{"date":"2010-11-01","average_temperature":"-5.933000000000002","city":"Jiayuguan","latitude":"39.38N","longitude":"97.80E"}
{"date":"2011-04-01","average_temperature":"21.806","city":"Jiazi","latitude":"23.31N","longitude":"116.21E"}
{"date":"2013-03-01","average_temperature":"26.224","city":"Jiddah","latitude":"21.70N","longitude":"38.94E"}
{"date":"2010-07-01","average_temperature":"28.241","city":"Jingdezhen","latitude":"29.74N","longitude":"116.31E"}
{"date":"2012-02-01","average_temperature":"4.4220000000000015","city":"Jingdezhen","latitude":"29.74N","longitude":"116.31E"}
{"date":"2012-11-01","average_temperature":"0.883","city":"Jinzhou","latitude":"40.99N","longitude":"121.42E"}
{"date":"2010-12-01","average_temperature":"-16.901","city":"Jishu","latitude":"44.20N","longitude":"127.45E"}
{"date":"2010-02-01","average_temperature":"28.141","city":"Johor Bahru","latitude":"0.80N","longitude":"103.66E"}
{"date":"2012-12-01","average_temperature":"2.3840000000000003","city":"Joliet","latitude":"40.99N","longitude":"87.34W"}
{"date":"2010-11-01","average_temperature":"29.376","city":"Juàzeiro","latitude":"8.84S","longitude":"39.73W"}
{"date":"2012-07-01","average_temperature":"25.455","city":"Juàzeiro","latitude":"8.84S","longitude":"39.73W"}
{"date":"2011-04-01","average_temperature":"18.901","city":"Juarez","latitude":"31.35N","longitude":"105.55W"}
{"date":"2013-02-01","average_temperature":"22.737","city":"Kadoma","latitude":"18.48S","longitude":"30.42E"}
{"date":"2013-08-01","average_temperature":"19.232000000000006","city":"Kadoma","latitude":"18.48S","longitude":"30.42E"}
{"date":"2012-01-01","average_temperature":"2.095","city":"Kaili","latitude":"26.52N","longitude":"107.46E"}
{"date":"2011-12-01","average_temperature":"24.997","city":"Kakinada","latitude":"16.87N","longitude":"82.05E"}
{"date":"2010-03-01","average_temperature":"13.682","city":"Kallithéa","latitude":"37.78N","longitude":"24.41E"}
{"date":"2011-02-01","average_temperature":"-12.078","city":"Kaluga","latitude":"53.84N","longitude":"36.82E"}
{"date":"2010-05-01","average_temperature":"31.918000000000003","city":"Kalyan","latitude":"20.09N","longitude":"73.36E"}
{"date":"2013-09-01","city":"Kanchipuram","latitude":"13.66N","longitude":"80.09E"}
{"date":"2010-10-01","average_temperature":"14.842","city":"Kansas City","latitude":"39.38N","longitude":"93.64W"}
{"date":"2011-11-01","average_temperature":"7.995","city":"Kansas City","latitude":"39.38N","longitude":"93.64W"}
{"date":"2012-04-01","average_temperature":"30.647","city":"Kaolack","latitude":"13.66N","longitude":"15.69W"}
{"date":"2012-09-01","average_temperature":"19.412","city":"Karaman","latitude":"37.78N","longitude":"32.54E"}
{"date":"2010-10-01","average_temperature":"27.421999999999997","city":"Karimnagar","latitude":"18.48N","longitude":"79.44E"}
{"date":"2010-12-01","average_temperature":"5.553","city":"Kashan","latitude":"34.56N","longitude":"50.59E"}
{"date":"2012-12-01","average_temperature":"2.9609999999999994","city":"Kashiwa","latitude":"36.17N","longitude":"139.23E"}
{"date":"2011-02-01","average_temperature":"-2.7110000000000003","city":"Katowice","latitude":"50.63N","longitude":"19.01E"}
{"date":"2012-04-01","average_temperature":"11.355","city":"Kawagoe","latitude":"36.17N","longitude":"139.23E"}
{"date":"2011-03-01","average_temperature":"4.674","city":"Kawasaki","latitude":"36.17N","longitude":"139.23E"}
{"date":"2011-05-01","average_temperature":"16.147000000000002","city":"Kawasaki","latitude":"36.17N","longitude":"139.23E"}
{"date":"2012-09-01","average_temperature":"22.956999999999997","city":"Kerman","latitude":"29.74N","longitude":"57.23E"}
{"date":"2010-10-01","average_temperature":"18.467","city":"Kermanshah","latitude":"34.56N","longitude":"46.70E"}
{"date":"2010-01-01","average_temperature":"16.243","city":"Khairpur","latitude":"28.13N","longitude":"68.18E"}
{"date":"2012-07-01","average_temperature":"35.832","city":"Khanewal","latitude":"29.74N","longitude":"72.00E"}
{"date":"2011-05-01","average_temperature":"16.762","city":"Kherson","latitude":"47.42N","longitude":"31.97E"}
{"date":"2011-11-01","average_temperature":"24.051","city":"Khulna","latitude":"23.31N","longitude":"90.00E"}
{"date":"2011-01-01","average_temperature":"11.225","city":"Khushab","latitude":"32.95N","longitude":"71.81E"}
{"date":"2013-08-01","average_temperature":"19.944000000000003","city":"Kiev","latitude":"50.63N","longitude":"31.69E"}
{"date":"2011-05-01","average_temperature":"25.209000000000003","city":"Kikwit","latitude":"5.63S","longitude":"19.37E"}
{"date":"2010-10-01","average_temperature":"19.878","city":"Killeen","latitude":"31.35N","longitude":"98.01W"}
{"date":"2012-02-01","average_temperature":"23.511","city":"Kimberley","latitude":"28.13S","longitude":"24.55E"}
{"date":"2013-03-01","average_temperature":"27.874000000000002","city":"Kindia","latitude":"10.45N","longitude":"12.27W"}
{"date":"2010-12-01","average_temperature":"-14.325999999999999","city":"Kirov","latitude":"58.66N","longitude":"49.23E"}
{"date":"2013-04-01","average_temperature":"10.439","city":"Kirovohrad","latitude":"49.03N","longitude":"31.84E"}
{"date":"2013-09-01","city":"Kisarazu","latitude":"34.56N","longitude":"140.11E"}
{"date":"2012-03-01","average_temperature":"30.630000000000006","city":"Kishi","latitude":"8.84N","longitude":"4.05E"}
{"date":"2013-09-01","city":"Kitami","latitude":"44.20N","longitude":"143.11E"}
{"date":"2013-09-01","city":"Klaipeda","latitude":"55.45N","longitude":"19.84E"}
{"date":"2011-07-01","average_temperature":"27.453000000000003","city":"Kluang","latitude":"2.41N","longitude":"103.66E"}
{"date":"2012-10-01","average_temperature":"9.644","city":"Koblenz","latitude":"50.63N","longitude":"6.34E"}
{"date":"2010-06-01","average_temperature":"27.426","city":"Kolhapur","latitude":"16.87N","longitude":"73.67E"}
{"date":"2012-10-01","average_temperature":"6.207999999999999","city":"Kolpino","latitude":"60.27N","longitude":"29.19E"}
{"date":"2011-05-01","average_temperature":"28.262","city":"Korhogo","latitude":"8.84N","longitude":"5.68W"}
{"date":"2013-01-01","average_temperature":"26.821","city":"Korhogo","latitude":"8.84N","longitude":"5.68W"}
{"date":"2011-03-01","average_temperature":"4.613","city":"Korla","latitude":"40.99N","longitude":"85.21E"}
{"date":"2010-06-01","average_temperature":"17.695","city":"Kosice","latitude":"49.03N","longitude":"22.04E"}
{"date":"2013-08-01","average_temperature":"30.923000000000002","city":"Kot Addu","latitude":"29.74N","longitude":"70.15E"}
{"date":"2010-10-01","average_temperature":"28.165","city":"Kota","latitude":"24.92N","longitude":"76.26E"}
{"date":"2011-09-01","average_temperature":"19.664","city":"Kumanovo","latitude":"42.59N","longitude":"21.82E"}
{"date":"2011-10-01","average_temperature":"26.866","city":"Kumasi","latitude":"7.23N","longitude":"0.81W"}
{"date":"2010-08-01","average_temperature":"20.410999999999998","city":"Kurgan","latitude":"55.45N","longitude":"65.20E"}
{"date":"2012-06-01","average_temperature":"18.307","city":"Kursk","latitude":"52.24N","longitude":"36.79E"}
{"date":"2013-08-01","average_temperature":"19.134","city":"Kursk","latitude":"52.24N","longitude":"36.79E"}
{"date":"2010-02-01","average_temperature":"-17.012999999999998","city":"Kuytun","latitude":"44.20N","longitude":"84.97E"}
{"date":"2011-11-01","average_temperature":"24.38","city":"Kwekwe","latitude":"18.48S","longitude":"30.42E"}
{"date":"2010-02-01","average_temperature":"16.399","city":"La Serena","latitude":"29.74S","longitude":"72.00W"}
{"date":"2010-11-01","average_temperature":"26.942","city":"Lahad Datu","latitude":"5.63N","longitude":"117.85E"}
{"date":"2011-06-01","average_temperature":"19.899","city":"Laiyang","latitude":"36.17N","longitude":"121.33E"}
{"date":"2013-06-01","average_temperature":"29.493000000000002","city":"Lakhimpur","latitude":"28.13N","longitude":"80.91E"}
{"date":"2013-05-01","average_temperature":"35.311","city":"Lalitpur","latitude":"24.92N","longitude":"78.03E"}
{"date":"2010-11-01","average_temperature":"24.405","city":"Lambaré","latitude":"24.92S","longitude":"58.52W"}
{"date":"2012-01-01","average_temperature":"11.581","city":"Lancaster","latitude":"34.56N","longitude":"118.70W"}
{"date":"2012-04-01","average_temperature":"15.776","city":"Langfang","latitude":"39.38N","longitude":"116.53E"}
{"date":"2010-06-01","average_temperature":"20.915","city":"Lansing","latitude":"42.59N","longitude":"85.09W"}
{"date":"2013-09-01","city":"Leiden","latitude":"52.24N","longitude":"5.26E"}
{"date":"2013-09-01","city":"Leverkusen","latitude":"50.63N","longitude":"6.34E"}
{"date":"2011-10-01","average_temperature":"15.417","city":"Liaocheng","latitude":"36.17N","longitude":"115.36E"}
{"date":"2013-03-01","average_temperature":"21.770000000000003","city":"Lilongwe","latitude":"13.66S","longitude":"33.85E"}
{"date":"2011-02-01","average_temperature":"-3.22","city":"Lincoln","latitude":"40.99N","longitude":"95.86W"}
{"date":"2011-09-01","average_temperature":"19.514","city":"Linqing","latitude":"36.17N","longitude":"115.36E"}
{"date":"2013-09-01","city":"Linshui","latitude":"36.17N","longitude":"113.37E"}
{"date":"2010-03-01","average_temperature":"2.513","city":"Linxia","latitude":"36.17N","longitude":"103.43E"}
{"date":"2010-08-01","average_temperature":"24.331999999999997","city":"Lipetsk","latitude":"52.24N","longitude":"39.42E"}
{"date":"2010-10-01","average_temperature":"24.744","city":"Lira","latitude":"2.41N","longitude":"32.95E"}
{"date":"2011-04-01","average_temperature":"12.175","city":"Ljubljana","latitude":"45.81N","longitude":"15.00E"}
{"date":"2012-05-01","average_temperature":"21.203000000000003","city":"Loja","latitude":"4.02S","longitude":"79.55W"}
{"date":"2013-06-01","average_temperature":"28.813000000000002","city":"Long Xuyên","latitude":"10.45N","longitude":"105.55E"}
{"date":"2012-10-01","average_temperature":"16.844","city":"Los Reyes","latitude":"20.09N","longitude":"98.96W"}
{"date":"2010-09-01","average_temperature":"22.886999999999997","city":"Loum","latitude":"5.63N","longitude":"9.69E"}
{"date":"2013-06-01","average_temperature":"19.313","city":"Lowell","latitude":"42.59N","longitude":"72.00W"}
{"date":"2010-03-01","average_temperature":"22.569000000000003","city":"Lubango","latitude":"15.27S","longitude":"14.17E"}
{"date":"2013-01-01","average_temperature":"24.125","city":"Lubango","latitude":"15.27S","longitude":"14.17E"}
{"date":"2011-01-01","average_temperature":"25.025","city":"Lucena","latitude":"13.66N","longitude":"121.38E"}
{"date":"2010-09-01","average_temperature":"27.500999999999998","city":"Luchou","latitude":"24.92N","longitude":"120.59E"}
{"date":"2012-06-01","average_temperature":"26.063000000000002","city":"Luchou","latitude":"24.92N","longitude":"120.59E"}
{"date":"2010-01-01","average_temperature":"11.783","city":"Ludhiana","latitude":"31.35N","longitude":"75.39E"}
{"date":"2010-12-01","average_temperature":"16.359","city":"Luxor","latitude":"26.52N","longitude":"32.24E"}
{"date":"2012-01-01","average_temperature":"12.07","city":"Luxor","latitude":"26.52N","longitude":"32.24E"}
{"date":"2011-03-01","average_temperature":"23.123","city":"Luziânia","latitude":"16.87S","longitude":"48.56W"}
{"date":"2012-02-01","average_temperature":"6.277000000000001","city":"Médéa","latitude":"36.17N","longitude":"1.99E"}
{"date":"2013-03-01","average_temperature":"11.138","city":"Maanshan","latitude":"31.35N","longitude":"118.74E"}
{"date":"2012-04-01","average_temperature":"8.0","city":"Maastricht","latitude":"50.63N","longitude":"6.34E"}
{"date":"2010-07-01","average_temperature":"27.464","city":"Mabalacat","latitude":"15.27N","longitude":"120.83E"}
{"date":"2010-04-01","average_temperature":"21.508000000000003","city":"Machala","latitude":"4.02S","longitude":"79.55W"}
{"date":"2012-06-01","average_temperature":"20.951999999999998","city":"Machala","latitude":"4.02S","longitude":"79.55W"}
{"date":"2013-03-01","average_temperature":"28.778000000000002","city":"Madanapalle","latitude":"13.66N","longitude":"78.44E"}
{"date":"2012-06-01","average_temperature":"21.79","city":"Madison","latitude":"42.59N","longitude":"89.45W"}
{"date":"2011-06-01","average_temperature":"30.149","city":"Mahbubnagar","latitude":"16.87N","longitude":"78.70E"}
{"date":"2010-04-01","average_temperature":"26.304","city":"Majalaya","latitude":"7.23S","longitude":"107.84E"}
{"date":"2010-01-01","average_temperature":"28.453000000000007","city":"Malakal","latitude":"8.84N","longitude":"31.62E"}
{"date":"2013-05-01","average_temperature":"29.64","city":"Malakal","latitude":"8.84N","longitude":"31.62E"}
{"date":"2010-06-01","average_temperature":"27.46","city":"Malambo","latitude":"10.45N","longitude":"74.45W"}
{"date":"2010-04-01","average_temperature":"27.451999999999998","city":"Malang","latitude":"7.23S","longitude":"112.70E"}
{"date":"2010-01-01","average_temperature":"17.774","city":"Manama","latitude":"26.52N","longitude":"50.15E"}
{"date":"2012-07-01","average_temperature":"27.381","city":"Manaus","latitude":"2.41S","longitude":"60.27W"}
{"date":"2011-06-01","average_temperature":"14.277000000000001","city":"Manchester","latitude":"53.84N","longitude":"1.36W"}
{"date":"2011-06-01","average_temperature":"27.699","city":"Mandaue","latitude":"10.45N","longitude":"123.55E"}
{"date":"2012-09-01","average_temperature":"23.63","city":"Manisa","latitude":"39.38N","longitude":"27.05E"}
{"date":"2010-10-01","average_temperature":"8.821","city":"Mannheim","latitude":"49.03N","longitude":"7.35E"}
{"date":"2012-07-01","average_temperature":"24.473000000000006","city":"Manta","latitude":"0.80S","longitude":"81.16W"}
{"date":"2012-04-01","average_temperature":"33.910000000000004","city":"Maradi","latitude":"13.66N","longitude":"7.43E"}
{"date":"2012-07-01","average_temperature":"23.921","city":"Marbella","latitude":"36.17N","longitude":"3.98W"}
{"date":"2013-01-01","average_temperature":"13.890999999999998","city":"Marbella","latitude":"36.17N","longitude":"3.98W"}
{"date":"2010-04-01","average_temperature":"21.217","city":"Mardan","latitude":"34.56N","longitude":"72.00E"}
{"date":"2013-01-01","average_temperature":"25.201","city":"Mariara","latitude":"10.45N","longitude":"67.91W"}
{"date":"2010-09-01","average_temperature":"24.572","city":"Marivan","latitude":"36.17N","longitude":"45.75E"}
{"date":"2010-10-01","average_temperature":"26.396","city":"Matanzas","latitude":"23.31N","longitude":"81.26W"}
{"date":"2011-01-01","average_temperature":"2.86","city":"Matsusaka","latitude":"34.56N","longitude":"136.22E"}
{"date":"2012-11-01","average_temperature":"21.811999999999998","city":"Mauá","latitude":"23.31S","longitude":"46.31W"}
{"date":"2012-01-01","average_temperature":"16.176","city":"Mazatlán","latitude":"23.31N","longitude":"105.73W"}
{"date":"2013-05-01","average_temperature":"23.840000000000003","city":"Mbouda","latitude":"5.63N","longitude":"9.69E"}
{"date":"2010-03-01","average_temperature":"27.904","city":"Medan","latitude":"4.02N","longitude":"98.84E"}
{"date":"2013-06-01","average_temperature":"28.952","city":"Medan","latitude":"4.02N","longitude":"98.84E"}
{"date":"2012-03-01","average_temperature":"19.003","city":"Meilu","latitude":"21.70N","longitude":"109.90E"}
{"date":"2012-01-01","average_temperature":"26.741","city":"Mercedes","latitude":"32.95S","longitude":"66.06W"}
{"date":"2013-06-01","average_temperature":"27.05","city":"Mergui","latitude":"12.05N","longitude":"98.63E"}
{"date":"2010-10-01","average_temperature":"22.724","city":"Mesa","latitude":"32.95N","longitude":"112.02W"}
{"date":"2011-07-01","average_temperature":"28.868000000000002","city":"Metairie","latitude":"29.74N","longitude":"90.46W"}
{"date":"2011-12-01","average_temperature":"5.327000000000001","city":"Milwaukee","latitude":"42.59N","longitude":"87.27W"}
{"date":"2011-02-01","average_temperature":"22.566","city":"Minatitlán","latitude":"18.48N","longitude":"94.65W"}
{"date":"2013-04-01","average_temperature":"26.385","city":"Minatitlán","latitude":"18.48N","longitude":"94.65W"}
{"date":"2013-08-01","average_temperature":"27.671999999999997","city":"Mingaora","latitude":"34.56N","longitude":"72.00E"}
{"date":"2011-01-01","average_temperature":"7.525","city":"Mobile","latitude":"31.35N","longitude":"88.59W"}
{"date":"2012-04-01","average_temperature":"8.0","city":"Moers","latitude":"50.63N","longitude":"6.34E"}
{"date":"2012-05-01","average_temperature":"26.868000000000002","city":"Monrovia","latitude":"7.23N","longitude":"10.54W"}
{"date":"2012-06-01","average_temperature":"25.623","city":"Monrovia","latitude":"7.23N","longitude":"10.54W"}
{"date":"2010-07-01","average_temperature":"27.464","city":"Montalban","latitude":"15.27N","longitude":"120.83E"}
{"date":"2011-08-01","average_temperature":"28.627","city":"Montgomery","latitude":"32.95N","longitude":"87.13W"}
{"date":"2012-06-01","average_temperature":"19.392","city":"Monza","latitude":"45.81N","longitude":"10.38E"}
{"date":"2011-11-01","average_temperature":"21.68","city":"Morena","latitude":"26.52N","longitude":"78.81E"}
{"date":"2011-02-01","average_temperature":"22.485","city":"Morvi","latitude":"23.31N","longitude":"70.78E"}
{"date":"2010-09-01","average_temperature":"21.326999999999998","city":"Mostar","latitude":"42.59N","longitude":"17.45E"}
{"date":"2013-02-01","average_temperature":"-15.677999999999999","city":"Mudanjiang","latitude":"44.20N","longitude":"129.69E"}
{"date":"2011-01-01","average_temperature":"21.186","city":"Mufulira","latitude":"12.05S","longitude":"27.95E"}
{"date":"2011-05-01","average_temperature":"19.522000000000002","city":"Murcia","latitude":"37.78N","longitude":"2.03W"}
{"date":"2012-05-01","average_temperature":"15.709000000000001","city":"Murom","latitude":"55.45N","longitude":"42.52E"}
{"date":"2010-02-01","average_temperature":"17.948999999999995","city":"Muzaffargarh","latitude":"29.74N","longitude":"72.00E"}
{"date":"2012-03-01","average_temperature":"8.296","city":"Nagoya","latitude":"34.56N","longitude":"136.22E"}
{"date":"2010-04-01","average_temperature":"3.92","city":"Nakhodka","latitude":"42.59N","longitude":"133.09E"}
{"date":"2012-02-01","average_temperature":"-7.011","city":"Nakhodka","latitude":"42.59N","longitude":"133.09E"}
{"date":"2010-06-01","average_temperature":"30.639","city":"Nalgonda","latitude":"16.87N","longitude":"78.70E"}
{"date":"2012-02-01","average_temperature":"26.899","city":"Nampula","latitude":"15.27S","longitude":"39.17E"}
{"date":"2011-05-01","average_temperature":"15.056","city":"Namur","latitude":"50.63N","longitude":"3.80E"}
{"date":"2011-04-01","average_temperature":"16.022000000000002","city":"Nantong","latitude":"31.35N","longitude":"120.63E"}
{"date":"2011-09-01","average_temperature":"25.456999999999997","city":"Nantou","latitude":"23.31N","longitude":"121.46E"}
{"date":"2010-07-01","average_temperature":"27.615","city":"Nanyang","latitude":"32.95N","longitude":"112.02E"}
{"date":"2011-07-01","average_temperature":"28.897","city":"Narayanganj","latitude":"23.31N","longitude":"90.00E"}
{"date":"2012-12-01","average_temperature":"27.213","city":"Natal","latitude":"5.63S","longitude":"35.52W"}
{"date":"2010-02-01","average_temperature":"22.959","city":"Navadwip","latitude":"23.31N","longitude":"88.25E"}
{"date":"2013-06-01","average_temperature":"26.603","city":"Negombo","latitude":"7.23N","longitude":"80.27E"}
{"date":"2013-04-01","average_temperature":"25.88","city":"Neiva","latitude":"2.41N","longitude":"74.73W"}
{"date":"2010-10-01","average_temperature":"19.067999999999998","city":"Nelspruit","latitude":"24.92S","longitude":"30.15E"}
{"date":"2010-11-01","average_temperature":"8.132","city":"New Haven","latitude":"40.99N","longitude":"72.43W"}
{"date":"2011-10-01","average_temperature":"13.757","city":"New Haven","latitude":"40.99N","longitude":"72.43W"}
{"date":"2013-02-01","average_temperature":"27.160999999999998","city":"Neyveli","latitude":"12.05N","longitude":"78.90E"}
{"date":"2011-11-01","average_temperature":"25.864","city":"Nguru","latitude":"13.66N","longitude":"10.73E"}
{"date":"2010-06-01","average_temperature":"22.965","city":"Ningbo","latitude":"29.74N","longitude":"121.85E"}
{"date":"2011-03-01","average_temperature":"-6.3420000000000005","city":"Nizhniy Tagil","latitude":"57.05N","longitude":"60.49E"}
{"date":"2013-08-01","average_temperature":"25.278","city":"Nkpor","latitude":"5.63N","longitude":"6.46E"}
{"date":"2012-05-01","average_temperature":"27.357","city":"Nnewi","latitude":"5.63N","longitude":"6.46E"}
{"date":"2012-02-01","average_temperature":"28.208","city":"Nonthaburi","latitude":"13.66N","longitude":"99.91E"}
{"date":"2011-04-01","average_temperature":"16.875999999999998","city":"Norfolk","latitude":"36.17N","longitude":"75.58W"}
{"date":"2011-08-01","average_temperature":"9.564","city":"Norilsk","latitude":"69.92N","longitude":"88.83E"}
{"date":"2013-03-01","average_temperature":"27.388","city":"Nouakchott","latitude":"18.48N","longitude":"15.21W"}
{"date":"2011-04-01","average_temperature":"9.583","city":"Novorossiysk","latitude":"44.20N","longitude":"38.01E"}
{"date":"2013-05-01","average_temperature":"22.159000000000002","city":"Nukus","latitude":"42.59N","longitude":"58.91E"}
{"date":"2010-06-01","average_temperature":"17.135","city":"Nuremberg","latitude":"49.03N","longitude":"12.24E"}
{"date":"2012-03-01","average_temperature":"21.840999999999998","city":"Oaxaca","latitude":"16.87N","longitude":"97.12W"}
{"date":"2011-01-01","average_temperature":"2.86","city":"Ogaki","latitude":"34.56N","longitude":"136.22E"}
{"date":"2012-10-01","average_temperature":"25.48","city":"Okara","latitude":"31.35N","longitude":"73.51E"}
{"date":"2012-08-01","average_temperature":"19.021","city":"Oldenburg","latitude":"52.24N","longitude":"7.88E"}
{"date":"2013-09-01","city":"Olinda","latitude":"7.23S","longitude":"34.86W"}
{"date":"2012-12-01","average_temperature":"4.622","city":"Omuta","latitude":"32.95N","longitude":"131.17E"}
{"date":"2010-09-01","average_temperature":"25.625999999999998","city":"Ondo","latitude":"7.23N","longitude":"4.05E"}
{"date":"2010-06-01","average_temperature":"32.503","city":"Ongole","latitude":"15.27N","longitude":"80.83E"}
{"date":"2011-04-01","average_temperature":"24.138","city":"Orlando","latitude":"28.13N","longitude":"80.91W"}
{"date":"2011-05-01","average_temperature":"15.335","city":"Orsk","latitude":"50.63N","longitude":"59.58E"}
{"date":"2013-09-01","city":"Orsk","latitude":"50.63N","longitude":"59.58E"}
{"date":"2010-10-01","average_temperature":"8.801","city":"Oshawa","latitude":"44.20N","longitude":"78.26W"}
{"date":"2012-06-01","average_temperature":"18.843","city":"Oshawa","latitude":"44.20N","longitude":"78.26W"}
{"date":"2011-08-01","average_temperature":"24.956","city":"Oshogbo","latitude":"7.23N","longitude":"4.05E"}
{"date":"2012-02-01","average_temperature":"1.3529999999999998","city":"Osmaniye","latitude":"37.78N","longitude":"36.61E"}
{"date":"2010-04-01","average_temperature":"1.212","city":"Oulu","latitude":"65.09N","longitude":"24.89E"}
{"date":"2012-07-01","average_temperature":"29.521","city":"Overland Park","latitude":"39.38N","longitude":"93.64W"}
{"date":"2010-09-01","average_temperature":"25.625999999999998","city":"Oyo","latitude":"7.23N","longitude":"4.05E"}
{"date":"2012-10-01","average_temperature":"26.206999999999997","city":"Oyo","latitude":"7.23N","longitude":"4.05E"}
{"date":"2011-12-01","average_temperature":"26.456","city":"Pagadian","latitude":"7.23N","longitude":"124.05E"}
{"date":"2012-08-01","average_temperature":"27.618000000000002","city":"Pagadian","latitude":"7.23N","longitude":"124.05E"}
{"date":"2013-06-01","average_temperature":"27.252","city":"Pagadian","latitude":"7.23N","longitude":"124.05E"}
{"date":"2010-11-01","average_temperature":"20.119","city":"Pakpattan","latitude":"29.74N","longitude":"73.85E"}
{"date":"2011-01-01","average_temperature":"26.409","city":"Palembang","latitude":"2.41S","longitude":"105.27E"}
{"date":"2011-08-01","average_temperature":"25.893","city":"Palermo","latitude":"37.78N","longitude":"14.24E"}
{"date":"2013-07-01","average_temperature":"23.2","city":"Palmira","latitude":"4.02N","longitude":"76.34W"}
{"date":"2010-01-01","average_temperature":"26.513","city":"Palu","latitude":"0.80S","longitude":"119.73E"}
{"date":"2012-08-01","average_temperature":"29.762","city":"Panihati","latitude":"23.31N","longitude":"88.25E"}
{"date":"2011-08-01","average_temperature":"25.031","city":"Parakou","latitude":"8.84N","longitude":"2.43E"}
{"date":"2012-09-01","average_temperature":"20.666","city":"Paranaguá","latitude":"24.92S","longitude":"47.88W"}
{"date":"2010-11-01","average_temperature":"25.325","city":"Parbhani","latitude":"20.09N","longitude":"76.78E"}
{"date":"2012-07-01","average_temperature":"28.609","city":"Pate","latitude":"24.92N","longitude":"120.59E"}
{"date":"2013-09-01","city":"Patiala","latitude":"29.74N","longitude":"75.69E"}
{"date":"2011-12-01","average_temperature":"26.822","city":"Paulista","latitude":"7.23S","longitude":"34.86W"}
{"date":"2012-12-01","average_temperature":"25.269000000000002","city":"Payakumbuh","latitude":"0.80S","longitude":"100.45E"}
{"date":"2011-03-01","average_temperature":"23.178","city":"Pelotas","latitude":"31.35S","longitude":"52.77W"}
{"date":"2010-03-01","average_temperature":"-5.0760000000000005","city":"Perm","latitude":"58.66N","longitude":"55.38E"}
{"date":"2013-07-01","average_temperature":"25.962","city":"Petare","latitude":"10.45N","longitude":"66.27W"}
{"date":"2013-01-01","average_temperature":"3.417","city":"Peterborough","latitude":"52.24N","longitude":"0.00W"}
{"date":"2012-11-01","average_temperature":"23.807","city":"Petrópolis","latitude":"23.31S","longitude":"42.82W"}
{"date":"2013-02-01","average_temperature":"-13.511","city":"Petropavl","latitude":"55.45N","longitude":"68.03E"}
{"date":"2010-02-01","average_temperature":"0.5860000000000001","city":"Pforzheim","latitude":"49.03N","longitude":"9.80E"}
{"date":"2010-02-01","average_temperature":"28.706","city":"Phnum Pénh","latitude":"12.05N","longitude":"105.21E"}
{"date":"2011-02-01","average_temperature":"24.412","city":"Pindamonhangaba","latitude":"23.31S","longitude":"46.31W"}
{"date":"2010-05-01","average_temperature":"14.602","city":"Ploiesti","latitude":"45.81N","longitude":"26.54E"}
{"date":"2010-08-01","average_temperature":"17.852999999999998","city":"Poá","latitude":"23.31S","longitude":"46.31W"}
{"date":"2010-11-01","average_temperature":"25.076999999999998","city":"Porbandar","latitude":"21.70N","longitude":"70.10E"}
{"date":"2012-03-01","average_temperature":"15.988","city":"Port Said","latitude":"31.35N","longitude":"32.04E"}
{"date":"2010-07-01","average_temperature":"16.273999999999994","city":"Portland","latitude":"45.81N","longitude":"123.46W"}
{"date":"2013-03-01","average_temperature":"22.48","city":"Praia Grande","latitude":"23.31S","longitude":"46.31W"}
{"date":"2010-01-01","average_temperature":"26.358","city":"Pringsewu","latitude":"5.63S","longitude":"104.93E"}
{"date":"2010-06-01","average_temperature":"26.583000000000002","city":"Pringsewu","latitude":"5.63S","longitude":"104.93E"}
{"date":"2011-07-01","average_temperature":"21.649","city":"Pristina","latitude":"42.59N","longitude":"21.82E"}
{"date":"2011-11-01","average_temperature":"2.295","city":"Prizren","latitude":"42.59N","longitude":"21.82E"}
{"date":"2013-05-01","average_temperature":"17.328","city":"Prizren","latitude":"42.59N","longitude":"21.82E"}
{"date":"2013-05-01","average_temperature":"15.428","city":"Pskov","latitude":"57.05N","longitude":"28.03E"}
{"date":"2010-01-01","average_temperature":"15.41","city":"Puebla","latitude":"18.48N","longitude":"98.03W"}
{"date":"2011-03-01","average_temperature":"2.866","city":"Pulandian","latitude":"39.38N","longitude":"122.77E"}
{"date":"2010-01-01","average_temperature":"28.258000000000003","city":"Punto Fijo","latitude":"12.05N","longitude":"70.68W"}
{"date":"2010-08-01","average_temperature":"29.046","city":"Qianjiang","latitude":"29.74N","longitude":"112.62E"}
{"date":"2012-08-01","average_temperature":"19.968","city":"Qostanay","latitude":"53.84N","longitude":"64.09E"}
{"date":"2010-07-01","average_temperature":"19.136000000000006","city":"Quebec","latitude":"47.42N","longitude":"72.24W"}
{"date":"2012-09-01","average_temperature":"11.826","city":"Quebec","latitude":"47.42N","longitude":"72.24W"}
{"date":"2010-11-01","average_temperature":"14.118","city":"Quilpue","latitude":"32.95S","longitude":"71.81W"}
{"date":"2012-03-01","average_temperature":"10.538","city":"Rafsanjan","latitude":"29.74N","longitude":"55.38E"}
{"date":"2010-03-01","average_temperature":"29.666","city":"Rajapalaiyam","latitude":"8.84N","longitude":"77.03E"}
{"date":"2011-10-01","average_temperature":"27.028","city":"Rajapalaiyam","latitude":"8.84N","longitude":"77.03E"}
{"date":"2013-03-01","average_temperature":"29.111","city":"Rajapalaiyam","latitude":"8.84N","longitude":"77.03E"}
{"date":"2010-10-01","average_temperature":"28.224","city":"Rajkot","latitude":"21.70N","longitude":"70.10E"}
{"date":"2013-09-01","city":"Rajshahi","latitude":"24.92N","longitude":"88.67E"}
{"date":"2012-01-01","average_temperature":"5.916","city":"Raleigh","latitude":"36.17N","longitude":"79.56W"}
{"date":"2013-07-01","average_temperature":"29.717","city":"Rancho Cucamonga","latitude":"34.56N","longitude":"116.76W"}
{"date":"2010-09-01","average_temperature":"18.903","city":"Randfontein","latitude":"26.52S","longitude":"26.87E"}
{"date":"2011-04-01","average_temperature":"29.045","city":"Raniganj","latitude":"23.31N","longitude":"86.50E"}
{"date":"2010-01-01","average_temperature":"-12.437000000000001","city":"Regina","latitude":"50.63N","longitude":"105.21W"}
{"date":"2012-07-01","average_temperature":"21.026999999999997","city":"Regina","latitude":"50.63N","longitude":"105.21W"}
{"date":"2011-01-01","average_temperature":"4.5440000000000005","city":"Rennes","latitude":"47.42N","longitude":"1.18W"}
{"date":"2010-05-01","average_temperature":"16.389000000000006","city":"Resistencia","latitude":"28.13S","longitude":"59.09W"}
{"date":"2011-10-01","average_temperature":"7.29","city":"Riga","latitude":"57.05N","longitude":"25.08E"}
{"date":"2013-05-01","average_temperature":"16.98","city":"Rivne","latitude":"50.63N","longitude":"26.62E"}
{"date":"2010-04-01","average_temperature":"12.155999999999999","city":"Rockford","latitude":"42.59N","longitude":"89.45W"}
{"date":"2013-08-01","average_temperature":"16.473","city":"Rotherham","latitude":"53.84N","longitude":"1.36W"}
{"date":"2011-07-01","average_temperature":"16.721","city":"Rouen","latitude":"49.03N","longitude":"0.00W"}
{"date":"2010-10-01","average_temperature":"19.13","city":"Ruian","latitude":"28.13N","longitude":"120.91E"}
{"date":"2011-10-01","average_temperature":"6.067","city":"Ryazan","latitude":"53.84N","longitude":"39.55E"}
{"date":"2010-03-01","average_temperature":"23.345","city":"São José Dos Campos","latitude":"23.31S","longitude":"46.31W"}
{"date":"2012-08-01","average_temperature":"19.069000000000006","city":"São José Dos Campos","latitude":"23.31S","longitude":"46.31W"}
{"date":"2010-07-01","average_temperature":"19.789","city":"Sabará","latitude":"20.09S","longitude":"44.36W"}
{"date":"2010-11-01","average_temperature":"11.314","city":"Sabzevar","latitude":"36.17N","longitude":"57.68E"}
{"date":"2012-04-01","average_temperature":"17.912999999999997","city":"Safaqis","latitude":"34.56N","longitude":"11.68E"}
{"date":"2011-12-01","average_temperature":"14.259","city":"Sahiwal","latitude":"31.35N","longitude":"73.51E"}
{"date":"2013-08-01","average_temperature":"21.585","city":"Saint Denis","latitude":"21.70S","longitude":"56.25E"}
{"date":"2013-05-01","average_temperature":"26.239","city":"Saint Louis","latitude":"16.87N","longitude":"16.74W"}
{"date":"2012-10-01","average_temperature":"17.831","city":"Sakai","latitude":"34.56N","longitude":"136.22E"}
{"date":"2011-10-01","average_temperature":"17.348000000000006","city":"Saltillo","latitude":"24.92N","longitude":"101.08W"}
{"date":"2012-03-01","average_temperature":"17.24","city":"Saltillo","latitude":"24.92N","longitude":"101.08W"}
{"date":"2012-02-01","average_temperature":"25.878","city":"Salto","latitude":"31.35S","longitude":"58.43W"}
{"date":"2013-09-01","city":"Salto","latitude":"31.35S","longitude":"58.43W"}
{"date":"2013-09-01","city":"Sambhal","latitude":"28.13N","longitude":"79.09E"}
{"date":"2010-07-01","average_temperature":"21.32","city":"San Cristóbal","latitude":"7.23N","longitude":"72.16W"}
{"date":"2012-08-01","average_temperature":"27.426","city":"San Miguelito","latitude":"8.84N","longitude":"80.27W"}
{"date":"2010-03-01","average_temperature":"18.191","city":"San Nicolás De Los Garza","latitude":"26.52N","longitude":"100.30W"}
{"date":"2012-02-01","average_temperature":"24.634","city":"San Nicolas","latitude":"32.95S","longitude":"60.32W"}
{"date":"2011-03-01","average_temperature":"25.924","city":"San Pedro","latitude":"13.66N","longitude":"121.38E"}
{"date":"2013-03-01","average_temperature":"26.818","city":"San Pedro","latitude":"13.66N","longitude":"121.38E"}
{"date":"2011-06-01","average_temperature":"27.956999999999997","city":"San Pedro De Macorís","latitude":"18.48N","longitude":"69.30W"}
{"date":"2010-08-01","average_temperature":"22.859","city":"Sanmenxia","latitude":"34.56N","longitude":"110.92E"}
{"date":"2013-05-01","average_temperature":"18.586","city":"Sanmenxia","latitude":"34.56N","longitude":"110.92E"}
{"date":"2011-10-01","average_temperature":"21.969","city":"Santa Luzia","latitude":"20.09S","longitude":"44.36W"}
{"date":"2011-03-01","average_temperature":"24.943","city":"Santiago","latitude":"16.87N","longitude":"122.23E"}
{"date":"2010-03-01","average_temperature":"25.438000000000002","city":"Santiago De Cuba","latitude":"20.09N","longitude":"75.07W"}
{"date":"2010-07-01","average_temperature":"28.315","city":"Santo Domingo","latitude":"18.48N","longitude":"69.30W"}
{"date":"2011-07-01","average_temperature":"28.453000000000003","city":"Saqqez","latitude":"36.17N","longitude":"45.75E"}
{"date":"2010-07-01","average_temperature":"25.462","city":"Satara","latitude":"16.87N","longitude":"73.67E"}
{"date":"2011-08-01","average_temperature":"28.558000000000003","city":"Savannah","latitude":"31.35N","longitude":"81.05W"}
{"date":"2013-04-01","average_temperature":"6.38","city":"Seattle","latitude":"47.42N","longitude":"121.97W"}
{"date":"2011-09-01","average_temperature":"23.497","city":"Semnan","latitude":"36.17N","longitude":"53.70E"}
{"date":"2011-03-01","average_temperature":"-5.023","city":"Seversk","latitude":"57.05N","longitude":"84.10E"}
{"date":"2013-07-01","average_temperature":"25.206","city":"Shagamu","latitude":"7.23N","longitude":"4.05E"}
{"date":"2010-03-01","average_temperature":"26.386","city":"Shahjahanpur","latitude":"28.13N","longitude":"79.09E"}
{"date":"2010-07-01","average_temperature":"28.883000000000006","city":"Shaoguan","latitude":"24.92N","longitude":"113.50E"}
{"date":"2012-04-01","average_temperature":"20.428","city":"Shaoguan","latitude":"24.92N","longitude":"113.50E"}
{"date":"2010-10-01","average_temperature":"29.23","city":"Shikarpur","latitude":"28.13N","longitude":"68.18E"}
{"date":"2011-08-01","average_temperature":"33.68","city":"Shikarpur","latitude":"28.13N","longitude":"68.18E"}
{"date":"2013-03-01","average_temperature":"11.700999999999999","city":"Shimla","latitude":"31.35N","longitude":"77.28E"}
{"date":"2013-06-01","average_temperature":"22.671999999999997","city":"Shizuishan","latitude":"39.38N","longitude":"106.13E"}
{"date":"2011-04-01","average_temperature":"8.530000000000001","city":"Siauliai","latitude":"55.45N","longitude":"22.68E"}
{"date":"2010-03-01","average_temperature":"27.075","city":"Sibu","latitude":"2.41N","longitude":"111.70E"}
{"date":"2012-08-01","average_temperature":"26.643","city":"Sidoarjo","latitude":"7.23S","longitude":"112.70E"}
{"date":"2013-03-01","average_temperature":"27.549","city":"Sidoarjo","latitude":"7.23S","longitude":"112.70E"}
{"date":"2012-01-01","average_temperature":"13.600999999999999","city":"Sikar","latitude":"28.13N","longitude":"75.45E"}
{"date":"2012-01-01","average_temperature":"28.149","city":"Sincelejo","latitude":"8.84N","longitude":"75.41W"}
{"date":"2011-03-01","average_temperature":"27.418000000000003","city":"Singkawang","latitude":"0.80N","longitude":"108.48E"}
{"date":"2010-04-01","average_temperature":"27.251","city":"Sobral","latitude":"4.02S","longitude":"40.98W"}
{"date":"2011-11-01","average_temperature":"27.881","city":"Sokodé","latitude":"8.84N","longitude":"0.81E"}
{"date":"2011-09-01","average_temperature":"16.04","city":"Solingen","latitude":"50.63N","longitude":"6.34E"}
{"date":"2011-07-01","average_temperature":"12.761","city":"Somerset West","latitude":"34.56S","longitude":"19.46E"}
{"date":"2010-07-01","average_temperature":"17.417","city":"Southampton","latitude":"50.63N","longitude":"1.27W"}
{"date":"2013-05-01","average_temperature":"18.889","city":"Springfield","latitude":"39.38N","longitude":"89.48W"}
{"date":"2013-06-01","average_temperature":"23.291","city":"Springfield","latitude":"39.38N","longitude":"89.48W"}
{"date":"2013-09-01","city":"Srikakulam","latitude":"18.48N","longitude":"84.51E"}
{"date":"2012-03-01","average_temperature":"-1.785","city":"Staryy Oskol","latitude":"50.63N","longitude":"36.76E"}
{"date":"2011-07-01","average_temperature":"22.424","city":"Stavropol","latitude":"44.20N","longitude":"42.48E"}
{"date":"2011-09-01","average_temperature":"14.286","city":"Stockholm","latitude":"58.66N","longitude":"18.46E"}
{"date":"2013-05-01","average_temperature":"25.855","city":"Subang","latitude":"7.23S","longitude":"107.84E"}
{"date":"2012-05-01","average_temperature":"16.555","city":"Sunnyvale","latitude":"37.78N","longitude":"122.03W"}
{"date":"2012-10-01","average_temperature":"27.67","city":"Surat","latitude":"21.70N","longitude":"73.56E"}
{"date":"2012-11-01","average_temperature":"24.105","city":"Surat","latitude":"21.70N","longitude":"73.56E"}
{"date":"2010-03-01","average_temperature":"9.237","city":"Suzhou","latitude":"31.35N","longitude":"120.63E"}
{"date":"2013-01-01","average_temperature":"7.1850000000000005","city":"Swansea","latitude":"52.24N","longitude":"5.26W"}
{"date":"2013-03-01","average_temperature":"3.0730000000000004","city":"Swindon","latitude":"52.24N","longitude":"2.63W"}
{"date":"2011-05-01","average_temperature":"25.299","city":"Türkmenabat","latitude":"39.38N","longitude":"64.51E"}
{"date":"2011-12-01","average_temperature":"-2.226","city":"Tabriz","latitude":"37.78N","longitude":"46.78E"}
{"date":"2011-06-01","average_temperature":"27.395000000000003","city":"Tacloban","latitude":"12.05N","longitude":"124.93E"}
{"date":"2013-09-01","city":"Tagum","latitude":"7.23N","longitude":"125.68E"}
{"date":"2010-02-01","average_temperature":"18.69","city":"Taipei","latitude":"24.92N","longitude":"122.36E"}
{"date":"2013-04-01","average_temperature":"10.14","city":"Takaoka","latitude":"36.17N","longitude":"137.24E"}
{"date":"2012-04-01","average_temperature":"27.84","city":"Takoradi","latitude":"5.63N","longitude":"1.61W"}
{"date":"2010-04-01","average_temperature":"11.058","city":"Talca","latitude":"36.17S","longitude":"71.60W"}
{"date":"2011-12-01","average_temperature":"15.449000000000002","city":"Talcahuano","latitude":"36.17S","longitude":"73.59W"}
{"date":"2013-02-01","average_temperature":"27.351","city":"Talisay","latitude":"10.45N","longitude":"123.55E"}
{"date":"2010-06-01","average_temperature":"13.053","city":"Tampere","latitude":"61.88N","longitude":"22.08E"}
{"date":"2010-01-01","average_temperature":"23.29","city":"Tandil","latitude":"37.78S","longitude":"58.98W"}
{"date":"2010-12-01","average_temperature":"14.209000000000001","city":"Tangier","latitude":"36.17N","longitude":"5.97W"}
{"date":"2011-05-01","average_temperature":"21.994","city":"Tanta","latitude":"31.35N","longitude":"30.16E"}
{"date":"2011-01-01","average_temperature":"24.009","city":"Tapachula","latitude":"15.27N","longitude":"92.50W"}
{"date":"2013-01-01","average_temperature":"8.749","city":"Taranto","latitude":"40.99N","longitude":"17.04E"}
{"date":"2011-09-01","average_temperature":"26.518","city":"Tarlac","latitude":"15.27N","longitude":"120.83E"}
{"date":"2012-08-01","average_temperature":"26.546","city":"Tarragona","latitude":"40.99N","longitude":"2.13E"}
{"date":"2012-02-01","average_temperature":"11.65","city":"Tartus","latitude":"34.56N","longitude":"35.03E"}
{"date":"2013-07-01","average_temperature":"9.755","city":"Tembisa","latitude":"26.52S","longitude":"28.66E"}
{"date":"2012-08-01","average_temperature":"28.757","city":"Tenali","latitude":"16.87N","longitude":"80.37E"}
{"date":"2010-02-01","average_temperature":"27.392","city":"Ternate","latitude":"0.80N","longitude":"127.77E"}
{"date":"2013-07-01","average_temperature":"23.375","city":"Terni","latitude":"42.59N","longitude":"13.09E"}
{"date":"2011-08-01","average_temperature":"27.096999999999998","city":"Thái Nguyên","latitude":"21.70N","longitude":"106.44E"}
{"date":"2013-01-01","average_temperature":"12.585","city":"Thanesar","latitude":"29.74N","longitude":"77.54E"}
{"date":"2013-09-01","city":"The Hague","latitude":"52.24N","longitude":"5.26E"}
{"date":"2013-02-01","average_temperature":"-1.882","city":"Thornton","latitude":"39.38N","longitude":"104.05W"}
{"date":"2012-11-01","average_temperature":"27.799","city":"Thrissur","latitude":"10.45N","longitude":"76.09E"}
{"date":"2010-01-01","average_temperature":"4.245","city":"Tianmen","latitude":"31.35N","longitude":"113.09E"}
{"date":"2012-08-01","average_temperature":"22.575","city":"Timisoara","latitude":"45.81N","longitude":"21.92E"}
{"date":"2013-05-01","average_temperature":"19.798","city":"Tirana","latitude":"40.99N","longitude":"19.17E"}
{"date":"2011-04-01","average_temperature":"30.101999999999997","city":"Tirupati","latitude":"13.66N","longitude":"80.09E"}
{"date":"2010-11-01","average_temperature":"24.27","city":"Tiruppur","latitude":"10.45N","longitude":"77.73E"}
{"date":"2011-02-01","average_temperature":"26.045","city":"Tiruvannamalai","latitude":"12.05N","longitude":"78.90E"}
{"date":"2013-06-01","average_temperature":"32.996","city":"Tiruvottiyur","latitude":"13.66N","longitude":"80.09E"}
{"date":"2012-11-01","average_temperature":"23.487","city":"Titagarh","latitude":"23.31N","longitude":"88.25E"}
{"date":"2010-05-01","average_temperature":"17.815","city":"Tokuyama","latitude":"34.56N","longitude":"132.32E"}
{"date":"2011-05-01","average_temperature":"18.483","city":"Tokuyama","latitude":"34.56N","longitude":"132.32E"}
{"date":"2011-07-01","average_temperature":"19.679000000000002","city":"Tomakomai","latitude":"42.59N","longitude":"141.82E"}
{"date":"2011-04-01","average_temperature":"8.993","city":"Tongliao","latitude":"44.20N","longitude":"122.98E"}
{"date":"2012-10-01","average_temperature":"19.625","city":"Toyokawa","latitude":"34.56N","longitude":"138.16E"}
{"date":"2013-01-01","average_temperature":"23.721999999999998","city":"Tuguegarao","latitude":"18.48N","longitude":"121.69E"}
{"date":"2010-07-01","average_temperature":"24.871","city":"Tula","latitude":"53.84N","longitude":"36.82E"}
{"date":"2012-09-01","average_temperature":"23.44","city":"Turgutlu","latitude":"37.78N","longitude":"28.47E"}
{"date":"2010-11-01","average_temperature":"-4.0360000000000005","city":"Tyumen","latitude":"57.05N","longitude":"66.39E"}
{"date":"2010-02-01","average_temperature":"24.763","city":"Uberaba","latitude":"20.09S","longitude":"47.77W"}
{"date":"2012-06-01","average_temperature":"26.675","city":"Ungaran","latitude":"7.23S","longitude":"111.08E"}
{"date":"2012-07-01","average_temperature":"26.162","city":"Ungaran","latitude":"7.23S","longitude":"111.08E"}
{"date":"2011-09-01","average_temperature":"28.779","city":"Unnao","latitude":"26.52N","longitude":"80.60E"}
{"date":"2012-06-01","average_temperature":"27.799","city":"Urdaneta","latitude":"15.27N","longitude":"120.83E"}
{"date":"2011-07-01","average_temperature":"13.51","city":"Uruguaiana","latitude":"29.74S","longitude":"57.23W"}
{"date":"2012-02-01","average_temperature":"16.281","city":"Valdivia","latitude":"39.38S","longitude":"72.83W"}
{"date":"2012-09-01","average_temperature":"13.527000000000001","city":"Vancouver","latitude":"49.03N","longitude":"122.45W"}
{"date":"2010-08-01","average_temperature":"27.299","city":"Vejalpur","latitude":"23.31N","longitude":"74.27E"}
{"date":"2013-09-01","city":"Vicenza","latitude":"45.81N","longitude":"12.69E"}
{"date":"2013-07-01","average_temperature":"28.724","city":"Villahermosa","latitude":"18.48N","longitude":"92.96W"}
{"date":"2010-11-01","average_temperature":"12.795","city":"Virginia Beach","latitude":"36.17N","longitude":"75.58W"}
{"date":"2011-09-01","average_temperature":"16.752","city":"Vladivostok","latitude":"42.59N","longitude":"130.91E"}
{"date":"2012-04-01","average_temperature":"14.962","city":"Volgograd","latitude":"49.03N","longitude":"44.08E"}
{"date":"2012-05-01","average_temperature":"13.282","city":"Vologda","latitude":"58.66N","longitude":"40.00E"}
{"date":"2012-09-01","average_temperature":"28.118000000000002","city":"Vung Tau","latitude":"10.45N","longitude":"107.18E"}
{"date":"2012-03-01","average_temperature":"7.909000000000002","city":"Würzburg","latitude":"49.03N","longitude":"9.80E"}
{"date":"2012-07-01","average_temperature":"26.629","city":"Washington","latitude":"39.38N","longitude":"76.99W"}
{"date":"2011-11-01","average_temperature":"10.113","city":"Waterbury","latitude":"40.99N","longitude":"72.43W"}
{"date":"2011-06-01","average_temperature":"14.095","city":"West Bromwich","latitude":"52.24N","longitude":"2.63W"}
{"date":"2012-04-01","average_temperature":"16.480999999999998","city":"Wichita","latitude":"37.78N","longitude":"97.63W"}
{"date":"2012-07-01","average_temperature":"30.788","city":"Wichita","latitude":"37.78N","longitude":"97.63W"}
{"date":"2011-03-01","average_temperature":"4.7669999999999995","city":"Wolfsburg","latitude":"52.24N","longitude":"10.51E"}
{"date":"2011-11-01","average_temperature":"5.0470000000000015","city":"Wolfsburg","latitude":"52.24N","longitude":"10.51E"}
{"date":"2013-02-01","average_temperature":"3.143","city":"Worcester","latitude":"52.24N","longitude":"2.63W"}
{"date":"2012-08-01","average_temperature":"21.702","city":"Worcester","latitude":"42.59N","longitude":"72.00W"}
{"date":"2011-02-01","average_temperature":"8.305","city":"Wufeng","latitude":"28.13N","longitude":"104.55E"}
{"date":"2010-07-01","average_temperature":"22.113000000000003","city":"Wulanhaote","latitude":"45.81N","longitude":"121.15E"}
{"date":"2013-02-01","average_temperature":"13.709000000000001","city":"Xiamen","latitude":"24.92N","longitude":"118.82E"}
{"date":"2010-12-01","average_temperature":"-2.728","city":"Yanan","latitude":"36.17N","longitude":"109.39E"}
{"date":"2012-10-01","average_temperature":"9.799","city":"Yanan","latitude":"36.17N","longitude":"109.39E"}
{"date":"2013-08-01","average_temperature":"30.012","city":"Yancheng","latitude":"32.95N","longitude":"119.68E"}
{"date":"2011-05-01","average_temperature":"23.305999999999997","city":"Yangmei","latitude":"24.92N","longitude":"120.59E"}
{"date":"2013-02-01","average_temperature":"-5.7010000000000005","city":"Yaroslavl","latitude":"57.05N","longitude":"39.84E"}
{"date":"2010-06-01","average_temperature":"23.709","city":"Yichang","latitude":"31.35N","longitude":"111.20E"}
{"date":"2011-11-01","average_temperature":"15.89","city":"Yichun","latitude":"28.13N","longitude":"113.64E"}
{"date":"2013-09-01","city":"Yinchuan","latitude":"37.78N","longitude":"105.76E"}
{"date":"2011-09-01","average_temperature":"25.005000000000006","city":"Yingcheng","latitude":"24.92N","longitude":"113.50E"}
{"date":"2010-10-01","average_temperature":"16.509999999999998","city":"Yizheng","latitude":"32.95N","longitude":"119.68E"}
{"date":"2012-06-01","average_temperature":"20.69","city":"Yokosuka","latitude":"34.56N","longitude":"140.11E"}
{"date":"2012-05-01","average_temperature":"28.087000000000003","city":"Yulin","latitude":"21.70N","longitude":"109.90E"}
{"date":"2010-06-01","average_temperature":"21.172","city":"Zaragoza","latitude":"40.99N","longitude":"0.00W"}
{"date":"2011-09-01","average_temperature":"11.812000000000001","city":"Zelenograd","latitude":"55.45N","longitude":"36.85E"}
{"date":"2010-02-01","average_temperature":"17.708000000000006","city":"Zhanjiang","latitude":"21.70N","longitude":"109.90E"}
{"date":"2012-10-01","average_temperature":"24.868000000000002","city":"Zhanjiang","latitude":"21.70N","longitude":"109.90E"}
{"date":"2013-03-01","average_temperature":"9.353","city":"Zhenjiang","latitude":"32.95N","longitude":"119.68E"}
{"date":"2011-11-01","average_temperature":"15.89","city":"Zhuzhou","latitude":"28.13N","longitude":"113.64E"}
{"date":"2012-11-01","average_temperature":"9.702","city":"Zonguldak","latitude":"40.99N","longitude":"31.95E"}
{"date":"2010-08-01","average_temperature":"24.796000000000006","city":"Zunyi","latitude":"28.13N","longitude":"106.36E"}
{"date":"2010-05-01","average_temperature":"21.993000000000002","city":"Zuwarah","latitude":"32.95N","longitude":"12.45E"}
{"date":"2011-03-01","average_temperature":"15.692","city":"Zuwarah","latitude":"32.95N","longitude":"12.45E"}
