{"date":"2010-04-01","average_temperature":"31.781999999999996","city":"Abohar","latitude":"29.74N","longitude":"73.85E"}
{"date":"2012-07-01","average_temperature":"25.971999999999998","city":"Abomey Calavi","latitude":"7.23N","longitude":"2.43E"}
{"date":"2012-03-01","average_temperature":"30.613000000000003","city":"Abuja","latitude":"8.84N","longitude":"7.30E"}
{"date":"2012-10-01","average_temperature":"27.879","city":"Acarigua","latitude":"8.84N","longitude":"68.92W"}
{"date":"2012-06-01","average_temperature":"26.581","city":"Accra","latitude":"5.63N","longitude":"0.00W"}
{"date":"2010-04-01","average_temperature":"34.634","city":"Adilabad","latitude":"20.09N","longitude":"78.48E"}
{"date":"2011-09-01","average_temperature":"27.89","city":"Adoni","latitude":"15.27N","longitude":"77.50E"}
{"date":"2012-12-01","average_temperature":"26.991","city":"Agboville","latitude":"5.63N","longitude":"4.84W"}
{"date":"2011-06-01","average_temperature":"27.096","city":"Ahmadnagar","latitude":"18.48N","longitude":"74.37E"}
{"date":"2013-01-01","average_temperature":"21.109","city":"Ahmadnagar","latitude":"18.48N","longitude":"74.37E"}
{"date":"2012-11-01","average_temperature":"18.84","city":"Ajdabiya","latitude":"31.35N","longitude":"20.73E"}
{"date":"2011-02-01","average_temperature":"24.288","city":"Akola","latitude":"20.09N","longitude":"76.78E"}
{"date":"2013-02-01","average_temperature":"24.945","city":"Akola","latitude":"20.09N","longitude":"76.78E"}
{"date":"2012-02-01","average_temperature":"28.636000000000006","city":"Akure","latitude":"7.23N","longitude":"5.68E"}
{"date":"2012-02-01","average_temperature":"23.737","city":"Akyab","latitude":"20.09N","longitude":"92.13E"}
{"date":"2012-12-01","average_temperature":"19.354","city":"Alberton","latitude":"26.52S","longitude":"28.66E"}
{"date":"2011-06-01","average_temperature":"22.587","city":"Albuquerque","latitude":"34.56N","longitude":"107.03W"}
{"date":"2010-02-01","average_temperature":"22.686","city":"Albury","latitude":"36.17S","longitude":"147.18E"}
{"date":"2012-08-01","average_temperature":"30.516","city":"Aleppo","latitude":"36.17N","longitude":"37.79E"}
{"date":"2010-08-01","average_temperature":"24.851999999999997","city":"Alexandria","latitude":"39.38N","longitude":"76.99W"}
{"date":"2010-11-01","average_temperature":"12.552","city":"Algiers","latitude":"36.17N","longitude":"3.98E"}
{"date":"2011-10-01","average_temperature":"19.500999999999998","city":"Amadora","latitude":"39.38N","longitude":"8.32W"}
{"date":"2010-04-01","average_temperature":"21.304000000000002","city":"Americana","latitude":"23.31S","longitude":"48.06W"}
{"date":"2010-04-01","average_temperature":"10.82","city":"Amiens","latitude":"49.03N","longitude":"2.45E"}
{"date":"2010-09-01","average_temperature":"15.127","city":"Amiens","latitude":"49.03N","longitude":"2.45E"}
{"date":"2012-09-01","average_temperature":"14.333","city":"Amsterdam","latitude":"52.24N","longitude":"5.26E"}
{"date":"2013-04-01","average_temperature":"7.71","city":"Amsterdam","latitude":"52.24N","longitude":"5.26E"}
{"date":"2012-03-01","average_temperature":"17.848","city":"Anbu","latitude":"23.31N","longitude":"116.21E"}
{"date":"2010-08-01","average_temperature":"18.848","city":"Angers","latitude":"47.42N","longitude":"1.18W"}
{"date":"2012-12-01","average_temperature":"-4.506","city":"Anyang","latitude":"36.17N","longitude":"113.37E"}
{"date":"2013-04-01","average_temperature":"7.71","city":"Apeldoorn","latitude":"52.24N","longitude":"5.26E"}
{"date":"2013-09-01","city":"Arapiraca","latitude":"10.45S","longitude":"36.82W"}
{"date":"2011-12-01","average_temperature":"3.281","city":"Ardabil","latitude":"37.78N","longitude":"48.81E"}
{"date":"2010-10-01","average_temperature":"16.942","city":"Arica","latitude":"18.48S","longitude":"70.99W"}
{"date":"2010-09-01","average_temperature":"26.138","city":"Arlington","latitude":"32.95N","longitude":"96.70W"}
{"date":"2010-12-01","average_temperature":"8.548","city":"Arlington","latitude":"32.95N","longitude":"96.70W"}
{"date":"2012-05-01","average_temperature":"16.669999999999998","city":"Asaka","latitude":"36.17N","longitude":"139.23E"}
{"date":"2010-11-01","average_temperature":"25.781","city":"Astanajapura","latitude":"7.23S","longitude":"107.84E"}
{"date":"2013-01-01","average_temperature":"-2.138","city":"Aurora","latitude":"39.38N","longitude":"104.05W"}
{"date":"2011-05-01","average_temperature":"16.527","city":"Aurora","latitude":"40.99N","longitude":"87.34W"}
{"date":"2012-07-01","average_temperature":"31.838","city":"Avadi","latitude":"13.66N","longitude":"80.09E"}
{"date":"2011-07-01","average_temperature":"19.371","city":"Awassa","latitude":"7.23N","longitude":"38.11E"}
{"date":"2011-09-01","average_temperature":"27.996","city":"Bac Lieu","latitude":"8.84N","longitude":"106.22E"}
{"date":"2011-07-01","average_temperature":"20.073","city":"Bacau","latitude":"45.81N","longitude":"26.54E"}
{"date":"2010-10-01","average_temperature":"26.883000000000006","city":"Bacoor","latitude":"15.27N","longitude":"120.83E"}
{"date":"2010-01-01","average_temperature":"14.282","city":"Bagaha","latitude":"26.52N","longitude":"84.18E"}
{"date":"2012-12-01","average_temperature":"-18.875999999999998","city":"Baicheng","latitude":"45.81N","longitude":"123.46E"}
{"date":"2010-10-01","average_temperature":"3.298","city":"Balashikha","latitude":"55.45N","longitude":"36.85E"}
{"date":"2010-04-01","average_temperature":"35.165","city":"Bama","latitude":"12.05N","longitude":"13.15E"}
{"date":"2012-03-01","average_temperature":"26.046999999999997","city":"Bamenda","latitude":"5.63N","longitude":"9.69E"}
{"date":"2012-10-01","average_temperature":"26.503","city":"Banjaran","latitude":"7.23S","longitude":"107.84E"}
{"date":"2012-08-01","average_temperature":"21.189","city":"Baoding","latitude":"39.38N","longitude":"114.45E"}
{"date":"2011-02-01","average_temperature":"22.566","city":"Baranagar","latitude":"23.31N","longitude":"88.25E"}
{"date":"2010-10-01","average_temperature":"26.846999999999998","city":"Barnala","latitude":"29.74N","longitude":"75.69E"}
{"date":"2010-08-01","average_temperature":"17.852999999999998","city":"Barueri","latitude":"23.31S","longitude":"46.31W"}
{"date":"2012-10-01","average_temperature":"27.427","city":"Basirhat","latitude":"23.31N","longitude":"88.25E"}
{"date":"2012-07-01","average_temperature":"25.439","city":"Bataysk","latitude":"47.42N","longitude":"39.08E"}
{"date":"2012-03-01","average_temperature":"5.831","city":"Batman","latitude":"37.78N","longitude":"40.68E"}
{"date":"2013-08-01","average_temperature":"20.458","city":"Beian","latitude":"47.42N","longitude":"126.71E"}
{"date":"2011-12-01","average_temperature":"14.073","city":"Beirut","latitude":"34.56N","longitude":"35.03E"}
{"date":"2011-03-01","average_temperature":"27.241","city":"Bekasi","latitude":"5.63S","longitude":"106.55E"}
{"date":"2013-07-01","average_temperature":"26.858","city":"Bekasi","latitude":"5.63S","longitude":"106.55E"}
{"date":"2010-06-01","average_temperature":"23.085","city":"Belford Roxo","latitude":"23.31S","longitude":"42.82W"}
{"date":"2011-11-01","average_temperature":"26.344","city":"Belgaum","latitude":"15.27N","longitude":"74.17E"}
{"date":"2011-10-01","average_temperature":"21.428","city":"Benguela","latitude":"12.05S","longitude":"13.15E"}
{"date":"2011-02-01","average_temperature":"-5.891","city":"Bergen","latitude":"60.27N","longitude":"6.49E"}
{"date":"2010-08-01","average_temperature":"23.788","city":"Bertoua","latitude":"4.02N","longitude":"13.66E"}
{"date":"2011-02-01","average_temperature":"3.1980000000000004","city":"Besançon","latitude":"47.42N","longitude":"5.92E"}
{"date":"2011-11-01","average_temperature":"23.197","city":"Bhagalpur","latitude":"24.92N","longitude":"86.90E"}
{"date":"2012-07-01","average_temperature":"31.416","city":"Bhind","latitude":"26.52N","longitude":"78.81E"}
{"date":"2012-07-01","average_temperature":"33.143","city":"Bhiwani","latitude":"28.13N","longitude":"75.45E"}
{"date":"2011-06-01","average_temperature":"31.862","city":"Bhuj","latitude":"23.31N","longitude":"69.03E"}
{"date":"2013-08-01","average_temperature":"19.383000000000006","city":"Bila Tserkva","latitude":"49.03N","longitude":"29.39E"}
{"date":"2012-09-01","average_temperature":"27.754","city":"Bilaspur","latitude":"21.70N","longitude":"82.21E"}
{"date":"2012-02-01","average_temperature":"27.141","city":"Birigui","latitude":"21.70S","longitude":"51.06W"}
{"date":"2010-09-01","average_temperature":"16.563","city":"Bloemfontein","latitude":"29.74S","longitude":"25.85E"}
{"date":"2011-02-01","average_temperature":"22.384","city":"Bloemfontein","latitude":"29.74S","longitude":"25.85E"}
{"date":"2013-05-01","average_temperature":"27.361","city":"Boa Vista","latitude":"2.41N","longitude":"60.27W"}
{"date":"2010-07-01","average_temperature":"28.035000000000004","city":"Bojnurd","latitude":"37.78N","longitude":"56.95E"}
{"date":"2012-06-01","average_temperature":"7.3039999999999985","city":"Botshabelo","latitude":"29.74S","longitude":"27.69E"}
{"date":"2012-08-01","average_temperature":"19.021","city":"Bottrop","latitude":"52.24N","longitude":"7.88E"}
{"date":"2011-10-01","average_temperature":"3.3510000000000004","city":"Bratsk","latitude":"55.45N","longitude":"102.05E"}
{"date":"2010-12-01","average_temperature":"24.08","city":"Brazzaville","latitude":"4.02S","longitude":"15.27E"}
{"date":"2012-11-01","average_temperature":"5.399","city":"Bremerhaven","latitude":"53.84N","longitude":"9.55E"}
{"date":"2013-05-01","average_temperature":"16.308","city":"Brest","latitude":"52.24N","longitude":"23.65E"}
{"date":"2011-02-01","average_temperature":"24.33","city":"Brisbane","latitude":"28.13S","longitude":"153.64E"}
{"date":"2011-11-01","average_temperature":"9.322","city":"Bristol","latitude":"52.24N","longitude":"2.63W"}
{"date":"2011-07-01","average_temperature":"20.872","city":"Bukavu","latitude":"2.41S","longitude":"28.13E"}
{"date":"2010-03-01","average_temperature":"28.226","city":"Bulaon","latitude":"15.27N","longitude":"120.83E"}
{"date":"2013-04-01","average_temperature":"30.005","city":"Bulaon","latitude":"15.27N","longitude":"120.83E"}
{"date":"2013-09-01","average_temperature":"23.301","city":"Burbank","latitude":"34.56N","longitude":"118.70W"}
{"date":"2013-08-01","average_temperature":"23.821","city":"Burgas","latitude":"42.59N","longitude":"28.36E"}
{"date":"2012-04-01","average_temperature":"32.132000000000005","city":"Burhanpur","latitude":"21.70N","longitude":"77.02E"}
{"date":"2011-02-01","average_temperature":"3.375","city":"Bursa","latitude":"39.38N","longitude":"29.13E"}
{"date":"2010-01-01","average_temperature":"10.958","city":"Bushehr","latitude":"29.74N","longitude":"51.69E"}
{"date":"2012-05-01","average_temperature":"28.621","city":"Butterworth","latitude":"5.63N","longitude":"100.09E"}
{"date":"2011-11-01","average_temperature":"21.745","city":"Córdoba","latitude":"18.48N","longitude":"96.34W"}
{"date":"2011-05-01","average_temperature":"20.738000000000003","city":"Córdoba","latitude":"37.78N","longitude":"4.07W"}
{"date":"2011-03-01","average_temperature":"27.016","city":"Cabimas","latitude":"10.45N","longitude":"71.18W"}
{"date":"2012-03-01","average_temperature":"25.463","city":"Cabudare","latitude":"10.45N","longitude":"69.55W"}
{"date":"2013-02-01","average_temperature":"25.46","city":"Cabudare","latitude":"10.45N","longitude":"69.55W"}
{"date":"2011-05-01","average_temperature":"18.92","city":"Cagliari","latitude":"39.38N","longitude":"8.32E"}
{"date":"2011-02-01","average_temperature":"22.121","city":"Cali","latitude":"4.02N","longitude":"76.34W"}
{"date":"2011-04-01","average_temperature":"22.033","city":"Cali","latitude":"4.02N","longitude":"76.34W"}
{"date":"2012-04-01","average_temperature":"26.491","city":"Campina Grande","latitude":"7.23S","longitude":"36.49W"}
{"date":"2010-05-01","average_temperature":"31.036","city":"Can Tho","latitude":"10.45N","longitude":"105.55E"}
{"date":"2012-09-01","average_temperature":"20.464000000000002","city":"Carapicuíba","latitude":"23.31S","longitude":"46.31W"}
{"date":"2010-01-01","average_temperature":"1.14","city":"Cardiff","latitude":"52.24N","longitude":"2.63W"}
{"date":"2013-08-01","average_temperature":"29.278","city":"Cartagena","latitude":"10.45N","longitude":"76.09W"}
{"date":"2010-10-01","average_temperature":"16.049","city":"Cary","latitude":"36.17N","longitude":"79.56W"}
{"date":"2011-07-01","average_temperature":"27.393","city":"Cary","latitude":"36.17N","longitude":"79.56W"}
{"date":"2013-04-01","average_temperature":"20.734","city":"Cascavel","latitude":"24.92S","longitude":"53.20W"}
{"date":"2011-10-01","average_temperature":"20.67","city":"Catamarca","latitude":"28.13S","longitude":"66.36W"}
{"date":"2010-10-01","average_temperature":"16.819000000000003","city":"Catania","latitude":"37.78N","longitude":"14.24E"}
{"date":"2012-12-01","average_temperature":"27.964000000000002","city":"Caxias","latitude":"5.63S","longitude":"43.59W"}
{"date":"2013-02-01","average_temperature":"27.115","city":"Caxias","latitude":"5.63S","longitude":"43.59W"}
{"date":"2011-01-01","average_temperature":"10.79","city":"Chakwal","latitude":"32.95N","longitude":"73.72E"}
{"date":"2012-11-01","average_temperature":"20.581999999999997","city":"Chandausi","latitude":"28.13N","longitude":"79.09E"}
{"date":"2011-04-01","average_temperature":"16.817","city":"Chaohu","latitude":"31.35N","longitude":"118.74E"}
{"date":"2010-10-01","average_temperature":"18.852999999999998","city":"Chapecó","latitude":"26.52S","longitude":"53.73W"}
{"date":"2012-11-01","average_temperature":"23.233","city":"Chapecó","latitude":"26.52S","longitude":"53.73W"}
{"date":"2010-07-01","average_temperature":"27.571","city":"Chattanooga","latitude":"34.56N","longitude":"85.62W"}
{"date":"2010-09-01","average_temperature":"14.188","city":"Chelmsford","latitude":"52.24N","longitude":"0.00W"}
{"date":"2011-07-01","average_temperature":"19.744","city":"Chelyabinsk","latitude":"55.45N","longitude":"62.36E"}
{"date":"2012-03-01","average_temperature":"6.93","city":"Chemnitz","latitude":"50.63N","longitude":"13.94E"}
{"date":"2013-04-01","average_temperature":"8.896","city":"Chemnitz","latitude":"50.63N","longitude":"13.94E"}
{"date":"2012-10-01","average_temperature":"11.455","city":"Chengdu","latitude":"31.35N","longitude":"103.66E"}
{"date":"2011-09-01","average_temperature":"23.882","city":"Chesapeake","latitude":"36.17N","longitude":"75.58W"}
{"date":"2011-04-01","average_temperature":"26.912","city":"Chiang Mai","latitude":"18.48N","longitude":"99.72E"}
{"date":"2011-08-01","average_temperature":"24.764","city":"Chihuahua","latitude":"28.13N","longitude":"106.36W"}
{"date":"2010-02-01","average_temperature":"17.349999999999998","city":"Chillan","latitude":"36.17S","longitude":"71.60W"}
{"date":"2011-06-01","average_temperature":"36.12300000000001","city":"Chishtian Mandi","latitude":"29.74N","longitude":"72.00E"}
{"date":"2013-08-01","average_temperature":"33.132","city":"Chishtian Mandi","latitude":"29.74N","longitude":"72.00E"}
{"date":"2011-05-01","average_temperature":"19.022000000000002","city":"Chitungwiza","latitude":"18.48S","longitude":"30.42E"}
{"date":"2013-09-01","city":"Chuncheng","latitude":"21.70N","longitude":"111.63E"}
{"date":"2012-12-01","average_temperature":"2.477","city":"Chuzhou","latitude":"32.95N","longitude":"117.77E"}
{"date":"2011-11-01","average_temperature":"25.775","city":"Ciamis","latitude":"7.23S","longitude":"107.84E"}
{"date":"2011-03-01","average_temperature":"26.47","city":"Ciampea","latitude":"7.23S","longitude":"106.22E"}
{"date":"2010-03-01","average_temperature":"27.29","city":"Cibadak","latitude":"7.23S","longitude":"106.22E"}
{"date":"2010-04-01","average_temperature":"27.695","city":"Cibadak","latitude":"7.23S","longitude":"106.22E"}
{"date":"2013-07-01","average_temperature":"26.858","city":"Cibinong","latitude":"5.63S","longitude":"106.55E"}
{"date":"2011-08-01","average_temperature":"27.091","city":"Cibitung","latitude":"5.63S","longitude":"106.55E"}
{"date":"2012-10-01","average_temperature":"26.503","city":"Cicalengka","latitude":"7.23S","longitude":"107.84E"}
{"date":"2012-02-01","average_temperature":"24.55","city":"Cienfuegos","latitude":"21.70N","longitude":"80.48W"}
{"date":"2013-06-01","average_temperature":"27.099","city":"Cienfuegos","latitude":"21.70N","longitude":"80.48W"}
{"date":"2011-07-01","average_temperature":"24.856","city":"Cileunyi","latitude":"7.23S","longitude":"107.84E"}
{"date":"2012-09-01","average_temperature":"26.633000000000003","city":"Ciomas","latitude":"7.23S","longitude":"106.22E"}
{"date":"2013-03-01","average_temperature":"27.719","city":"Ciputat","latitude":"5.63S","longitude":"106.55E"}
{"date":"2010-03-01","average_temperature":"27.899","city":"Citeureup","latitude":"5.63S","longitude":"106.55E"}
{"date":"2011-04-01","average_temperature":"23.538","city":"Clearwater","latitude":"28.13N","longitude":"82.73W"}
{"date":"2011-11-01","average_temperature":"7.891","city":"Clermont Ferrand","latitude":"45.81N","longitude":"3.46E"}
{"date":"2011-06-01","average_temperature":"18.901","city":"Coacalco","latitude":"20.09N","longitude":"98.96W"}
{"date":"2012-12-01","average_temperature":"9.883","city":"Coimbra","latitude":"40.99N","longitude":"8.52W"}
{"date":"2012-03-01","average_temperature":"16.932000000000002","city":"Coquimbo","latitude":"29.74S","longitude":"72.00W"}
{"date":"2011-06-01","average_temperature":"17.772000000000002","city":"Coronel Fabriciano","latitude":"20.09S","longitude":"42.65W"}
{"date":"2011-12-01","average_temperature":"22.061","city":"Coronel Fabriciano","latitude":"20.09S","longitude":"42.65W"}
{"date":"2010-04-01","average_temperature":"27.55","city":"Cotabato","latitude":"7.23N","longitude":"124.05E"}
{"date":"2010-06-01","average_temperature":"17.735","city":"Cottbus","latitude":"52.24N","longitude":"13.14E"}
{"date":"2011-01-01","average_temperature":"5.8740000000000006","city":"Crawley","latitude":"50.63N","longitude":"1.27W"}
{"date":"2012-07-01","average_temperature":"22.963","city":"Cuiabá","latitude":"15.27S","longitude":"55.83W"}
{"date":"2010-11-01","average_temperature":"15.017000000000001","city":"Curico","latitude":"34.56S","longitude":"72.00W"}
{"date":"2013-08-01","average_temperature":"19.471","city":"Czestochowa","latitude":"50.63N","longitude":"19.01E"}
{"date":"2012-04-01","average_temperature":"19.974","city":"Daan","latitude":"29.74N","longitude":"105.23E"}
{"date":"2010-12-01","average_temperature":"25.531999999999996","city":"Dakar","latitude":"15.27N","longitude":"17.50W"}
{"date":"2010-02-01","average_temperature":"4.924","city":"Dallas","latitude":"32.95N","longitude":"96.70W"}
{"date":"2013-04-01","average_temperature":"27.858","city":"Dar Es Salaam","latitude":"7.23S","longitude":"39.73E"}
{"date":"2011-01-01","average_temperature":"25.025","city":"Dasmariñas","latitude":"13.66N","longitude":"121.38E"}
{"date":"2012-12-01","average_temperature":"-2.8510000000000004","city":"Dasoguz","latitude":"40.99N","longitude":"59.64E"}
{"date":"2011-01-01","average_temperature":"-3.362","city":"Daugavpils","latitude":"55.45N","longitude":"25.51E"}
{"date":"2010-08-01","average_temperature":"31.432","city":"Denton","latitude":"32.95N","longitude":"96.70W"}
{"date":"2012-11-01","average_temperature":"27.601999999999997","city":"Depok","latitude":"7.23S","longitude":"109.46E"}
{"date":"2013-03-01","average_temperature":"27.081999999999997","city":"Depok","latitude":"7.23S","longitude":"109.46E"}
{"date":"2010-02-01","average_temperature":"-6.465","city":"Des Moines","latitude":"40.99N","longitude":"93.73W"}
{"date":"2010-07-01","average_temperature":"26.333","city":"Dese","latitude":"10.45N","longitude":"40.09E"}
{"date":"2010-06-01","average_temperature":"29.478","city":"Dhaka","latitude":"23.31N","longitude":"90.00E"}
{"date":"2011-01-01","average_temperature":"19.492","city":"Dhule","latitude":"20.09N","longitude":"75.07E"}
{"date":"2011-09-01","average_temperature":"27.669","city":"Dimapur","latitude":"26.52N","longitude":"93.13E"}
{"date":"2010-05-01","average_temperature":"16.595","city":"Dingzhou","latitude":"39.38N","longitude":"114.45E"}
{"date":"2010-06-01","average_temperature":"18.235","city":"Divinópolis","latitude":"20.09S","longitude":"44.36W"}
{"date":"2010-06-01","average_temperature":"26.296999999999997","city":"Donghai","latitude":"23.31N","longitude":"116.21E"}
{"date":"2012-12-01","average_temperature":"-3.548","city":"Dongying","latitude":"37.78N","longitude":"117.97E"}
{"date":"2013-02-01","average_temperature":"0.667","city":"Dortmund","latitude":"52.24N","longitude":"7.88E"}
{"date":"2013-06-01","average_temperature":"20.36","city":"Dos Quebradas","latitude":"5.63N","longitude":"75.87W"}
{"date":"2012-02-01","average_temperature":"-3.602","city":"Dresden","latitude":"50.63N","longitude":"13.94E"}
{"date":"2012-01-01","average_temperature":"27.247","city":"Dumai","latitude":"2.41N","longitude":"102.05E"}
{"date":"2012-10-01","average_temperature":"4.997","city":"Dunhua","latitude":"42.59N","longitude":"128.73E"}
{"date":"2012-01-01","average_temperature":"11.909","city":"Durango","latitude":"24.92N","longitude":"104.63W"}
{"date":"2013-05-01","average_temperature":"22.774","city":"Durango","latitude":"24.92N","longitude":"104.63W"}
{"date":"2010-10-01","average_temperature":"10.093","city":"Dushanbe","latitude":"39.38N","longitude":"68.67E"}
{"date":"2011-06-01","average_temperature":"16.785","city":"Dzerzhinsk","latitude":"57.05N","longitude":"42.79E"}
{"date":"2011-09-01","average_temperature":"22.199","city":"Ebina","latitude":"36.17N","longitude":"139.23E"}
{"date":"2013-01-01","average_temperature":"28.136","city":"Ejigbo","latitude":"7.23N","longitude":"4.05E"}
{"date":"2012-09-01","average_temperature":"14.562999999999999","city":"Elblag","latitude":"53.84N","longitude":"20.45E"}
{"date":"2012-12-01","average_temperature":"19.289","city":"Envigado","latitude":"5.63N","longitude":"75.87W"}
{"date":"2012-01-01","average_temperature":"3.011","city":"Esenyurt","latitude":"40.99N","longitude":"27.69E"}
{"date":"2013-04-01","average_temperature":"1.518","city":"Espoo","latitude":"60.27N","longitude":"25.95E"}
{"date":"2011-12-01","average_temperature":"16.22","city":"Etah","latitude":"28.13N","longitude":"79.09E"}
{"date":"2013-09-01","average_temperature":"22.468000000000004","city":"Evansville","latitude":"37.78N","longitude":"87.46W"}
{"date":"2013-09-01","city":"Fürth","latitude":"49.03N","longitude":"9.80E"}
{"date":"2010-09-01","average_temperature":"20.02","city":"Fairfield","latitude":"37.78N","longitude":"122.03W"}
{"date":"2010-07-01","average_temperature":"32.444","city":"Faisalabad","latitude":"31.35N","longitude":"73.51E"}
{"date":"2012-09-01","average_temperature":"29.759","city":"Faridabad","latitude":"28.13N","longitude":"77.27E"}
{"date":"2012-08-01","average_temperature":"26.443","city":"Foggia","latitude":"40.99N","longitude":"14.91E"}
{"date":"2011-01-01","average_temperature":"8.582","city":"Fontana","latitude":"34.56N","longitude":"116.76W"}
{"date":"2011-05-01","average_temperature":"17.507","city":"Forlì","latitude":"44.20N","longitude":"11.18E"}
{"date":"2010-04-01","average_temperature":"18.656","city":"Fort Worth","latitude":"32.95N","longitude":"96.70W"}
{"date":"2013-04-01","average_temperature":"27.266","city":"Fortaleza","latitude":"4.02S","longitude":"40.98W"}
{"date":"2012-11-01","average_temperature":"24.09","city":"Franca","latitude":"20.09S","longitude":"47.77W"}
{"date":"2010-10-01","average_temperature":"15.880999999999998","city":"Fuchu","latitude":"36.17N","longitude":"139.23E"}
{"date":"2011-06-01","average_temperature":"19.625","city":"Fuenlabrada","latitude":"40.99N","longitude":"4.26W"}
{"date":"2010-12-01","average_temperature":"10.17","city":"Fujieda","latitude":"34.56N","longitude":"138.16E"}
{"date":"2013-09-01","average_temperature":"21.391","city":"Fullerton","latitude":"32.95N","longitude":"117.77W"}
{"date":"2010-01-01","average_temperature":"14.445","city":"Garden Grove","latitude":"32.95N","longitude":"117.77W"}
{"date":"2013-06-01","average_temperature":"25.64","city":"Garut","latitude":"7.23S","longitude":"107.84E"}
{"date":"2010-06-01","average_temperature":"32.832","city":"Gashua","latitude":"13.66N","longitude":"10.73E"}
{"date":"2013-03-01","average_temperature":"3.506","city":"Gent","latitude":"50.63N","longitude":"3.80E"}
{"date":"2013-01-01","average_temperature":"26.127","city":"Georgetown","latitude":"7.23N","longitude":"57.57W"}
{"date":"2013-05-01","average_temperature":"27.701999999999998","city":"Georgetown","latitude":"7.23N","longitude":"57.57W"}
{"date":"2010-04-01","average_temperature":"33.157","city":"Ghazipur","latitude":"24.92N","longitude":"83.35E"}
{"date":"2012-10-01","average_temperature":"15.565","city":"Gijón","latitude":"44.20N","longitude":"6.71W"}
{"date":"2013-09-01","city":"Giugliano In Campania","latitude":"40.99N","longitude":"14.91E"}
{"date":"2010-10-01","average_temperature":"25.983","city":"Gizeh","latitude":"29.74N","longitude":"31.38E"}
{"date":"2013-08-01","average_temperature":"26.495","city":"Godhra","latitude":"23.31N","longitude":"74.27E"}
{"date":"2011-05-01","average_temperature":"34.134","city":"Gojra","latitude":"31.35N","longitude":"73.51E"}
{"date":"2013-04-01","average_temperature":"28.506","city":"Gorakhpur","latitude":"26.52N","longitude":"84.18E"}
{"date":"2011-12-01","average_temperature":"26.724","city":"Grogol","latitude":"7.23S","longitude":"111.08E"}
{"date":"2013-02-01","average_temperature":"23.785","city":"Guaíba","latitude":"29.74S","longitude":"51.69W"}
{"date":"2012-10-01","average_temperature":"22.456000000000003","city":"Guadalajara","latitude":"20.09N","longitude":"104.08W"}
{"date":"2010-06-01","average_temperature":"29.865","city":"Guadalupe","latitude":"26.52N","longitude":"100.30W"}
{"date":"2012-10-01","average_temperature":"21.252","city":"Guarapuava","latitude":"24.92S","longitude":"51.43W"}
{"date":"2012-11-01","average_temperature":"21.811999999999998","city":"Guarulhos","latitude":"23.31S","longitude":"46.31W"}
{"date":"2010-01-01","average_temperature":"17.265","city":"Guatemala","latitude":"15.27N","longitude":"90.83W"}
{"date":"2012-07-01","average_temperature":"25.947","city":"Guatire","latitude":"10.45N","longitude":"66.27W"}
{"date":"2010-02-01","average_temperature":"20.55","city":"Guna","latitude":"24.92N","longitude":"78.03E"}
{"date":"2010-07-01","average_temperature":"28.412","city":"Guntur","latitude":"16.87N","longitude":"80.37E"}
{"date":"2012-06-01","average_temperature":"36.33900000000001","city":"Gurgaon","latitude":"28.13N","longitude":"77.27E"}
{"date":"2013-07-01","average_temperature":"15.66","city":"Gweru","latitude":"20.09S","longitude":"29.00E"}
{"date":"2010-02-01","average_temperature":"3.306","city":"Hadano","latitude":"36.17N","longitude":"139.23E"}
{"date":"2010-01-01","average_temperature":"23.866","city":"Hadejia","latitude":"12.05N","longitude":"9.86E"}
{"date":"2012-01-01","average_temperature":"12.013","city":"Hafizabad","latitude":"31.35N","longitude":"73.51E"}
{"date":"2012-09-01","average_temperature":"29.956","city":"Hafizabad","latitude":"31.35N","longitude":"73.51E"}
{"date":"2013-05-01","average_temperature":"33.457","city":"Hafizabad","latitude":"31.35N","longitude":"73.51E"}
{"date":"2010-07-01","average_temperature":"24.423000000000002","city":"Haicheng","latitude":"40.99N","longitude":"123.55E"}
{"date":"2010-11-01","average_temperature":"23.046","city":"Haikou","latitude":"20.09N","longitude":"110.90E"}
{"date":"2010-05-01","average_temperature":"30.818","city":"Haldia","latitude":"21.70N","longitude":"87.40E"}
{"date":"2012-11-01","average_temperature":"4.597","city":"Halle","latitude":"50.63N","longitude":"11.41E"}
{"date":"2013-09-01","average_temperature":"16.329","city":"Hamilton","latitude":"42.59N","longitude":"80.73W"}
{"date":"2010-02-01","average_temperature":"-0.465","city":"Hanover","latitude":"52.24N","longitude":"10.51E"}
{"date":"2013-05-01","average_temperature":"19.579","city":"Hanzhong","latitude":"32.95N","longitude":"106.28E"}
{"date":"2012-11-01","average_temperature":"-6.034","city":"Harbin","latitude":"45.81N","longitude":"125.77E"}
{"date":"2012-06-01","average_temperature":"35.61799999999999","city":"Hardoi","latitude":"26.52N","longitude":"80.60E"}
{"date":"2013-07-01","average_temperature":"29.816999999999997","city":"Hardoi","latitude":"26.52N","longitude":"80.60E"}
{"date":"2011-03-01","average_temperature":"21.821","city":"Haridwar","latitude":"29.74N","longitude":"77.54E"}
{"date":"2013-05-01","average_temperature":"29.286","city":"Hassan","latitude":"13.66N","longitude":"76.79E"}
{"date":"2010-09-01","average_temperature":"20.02","city":"Hayward","latitude":"37.78N","longitude":"122.03W"}
{"date":"2012-04-01","average_temperature":"5.907","city":"Hengshan","latitude":"45.81N","longitude":"130.38E"}
{"date":"2012-05-01","average_temperature":"14.459000000000001","city":"Hildesheim","latitude":"52.24N","longitude":"10.51E"}
{"date":"2010-08-01","average_temperature":"24.229","city":"Hindupur","latitude":"13.66N","longitude":"76.79E"}
{"date":"2013-03-01","average_temperature":"22.656","city":"Hisar","latitude":"29.74N","longitude":"75.69E"}
{"date":"2012-08-01","average_temperature":"28.691999999999997","city":"Honghu","latitude":"29.74N","longitude":"112.62E"}
{"date":"2010-01-01","average_temperature":"-9.086","city":"Horlivka","latitude":"49.03N","longitude":"39.18E"}
{"date":"2010-12-01","average_temperature":"9.695","city":"Huangyan","latitude":"28.13N","longitude":"120.91E"}
{"date":"2011-06-01","average_temperature":"25.914","city":"Huangzhou","latitude":"29.74N","longitude":"114.46E"}
{"date":"2013-08-01","average_temperature":"24.764","city":"Hubli","latitude":"15.27N","longitude":"75.83E"}
{"date":"2012-01-01","average_temperature":"9.103","city":"Huelva","latitude":"37.78N","longitude":"6.10W"}
{"date":"2013-03-01","average_temperature":"19.302","city":"Huicheng","latitude":"23.31N","longitude":"116.21E"}
{"date":"2010-01-01","average_temperature":"14.445","city":"Huntington Beach","latitude":"32.95N","longitude":"117.77W"}
{"date":"2013-02-01","average_temperature":"6.127000000000002","city":"Huzhou","latitude":"31.35N","longitude":"120.63E"}
{"date":"2010-08-01","average_temperature":"27.159000000000002","city":"Hyderabad","latitude":"16.87N","longitude":"78.70E"}
{"date":"2011-07-01","average_temperature":"25.288","city":"Ichikawa","latitude":"36.17N","longitude":"139.23E"}
{"date":"2011-07-01","average_temperature":"25.290000000000006","city":"Ikire","latitude":"7.23N","longitude":"4.05E"}
{"date":"2010-04-01","average_temperature":"26.405","city":"Ilebo","latitude":"4.02S","longitude":"20.09E"}
{"date":"2011-01-01","average_temperature":"26.508000000000003","city":"Ilesha","latitude":"8.84N","longitude":"4.05E"}
{"date":"2012-07-01","average_temperature":"25.531999999999996","city":"Ilorin","latitude":"8.84N","longitude":"4.05E"}
{"date":"2010-02-01","average_temperature":"21.218000000000004","city":"Ingraj Bazar","latitude":"24.92N","longitude":"88.67E"}
{"date":"2012-05-01","average_temperature":"12.341","city":"Ipswich","latitude":"52.24N","longitude":"0.00W"}
{"date":"2012-11-01","average_temperature":"19.195999999999998","city":"Iquique","latitude":"20.09S","longitude":"69.95W"}
{"date":"2012-10-01","average_temperature":"24.016","city":"Iringa","latitude":"7.23S","longitude":"36.49E"}
{"date":"2012-03-01","average_temperature":"-9.785","city":"Irkutsk","latitude":"52.24N","longitude":"105.11E"}
{"date":"2010-05-01","average_temperature":"16.337","city":"Iruma","latitude":"36.17N","longitude":"139.23E"}
{"date":"2013-08-01","average_temperature":"26.364","city":"Isesaki","latitude":"36.17N","longitude":"139.23E"}
{"date":"2010-11-01","average_temperature":"23.21","city":"Isiro","latitude":"2.41N","longitude":"28.13E"}
{"date":"2010-08-01","average_temperature":"26.24","city":"Isparta","latitude":"37.78N","longitude":"30.51E"}
{"date":"2011-02-01","average_temperature":"-13.964","city":"Ivanovo","latitude":"57.05N","longitude":"39.84E"}
{"date":"2013-03-01","average_temperature":"10.427999999999999","city":"Iwakuni","latitude":"34.56N","longitude":"132.32E"}
{"date":"2013-05-01","average_temperature":"16.756999999999998","city":"Iwatsuki","latitude":"36.17N","longitude":"139.23E"}
{"date":"2010-11-01","average_temperature":"15.411","city":"Izmit","latitude":"40.99N","longitude":"29.82E"}
{"date":"2013-08-01","average_temperature":"24.724","city":"Izmit","latitude":"40.99N","longitude":"29.82E"}
{"date":"2012-05-01","average_temperature":"18.069000000000003","city":"Izumi","latitude":"34.56N","longitude":"136.22E"}
{"date":"2013-09-01","city":"Jaú","latitude":"21.70S","longitude":"49.33W"}
{"date":"2010-07-01","average_temperature":"34.677","city":"Jahrom","latitude":"28.13N","longitude":"53.64E"}
{"date":"2012-07-01","average_temperature":"32.665","city":"Jalandhar","latitude":"31.35N","longitude":"75.39E"}
{"date":"2012-06-01","average_temperature":"26.518","city":"Jalingo","latitude":"8.84N","longitude":"12.16E"}
{"date":"2013-03-01","average_temperature":"21.576999999999998","city":"Jalpaiguri","latitude":"26.52N","longitude":"89.55E"}
{"date":"2012-02-01","average_temperature":"5.684","city":"Jammu","latitude":"32.95N","longitude":"75.64E"}
{"date":"2012-11-01","average_temperature":"16.098","city":"Jerez","latitude":"36.17N","longitude":"5.97W"}
{"date":"2012-01-01","average_temperature":"4.606","city":"Jian","latitude":"26.52N","longitude":"114.63E"}
{"date":"2011-02-01","average_temperature":"26.721","city":"Jibuti","latitude":"12.05N","longitude":"42.74E"}
{"date":"2010-05-01","average_temperature":"29.93","city":"Jiddah","latitude":"21.70N","longitude":"38.94E"}
{"date":"2012-10-01","average_temperature":"30.340999999999998","city":"Jiddah","latitude":"21.70N","longitude":"38.94E"}
{"date":"2010-04-01","average_temperature":"14.107000000000001","city":"Jingdezhen","latitude":"29.74N","longitude":"116.31E"}
{"date":"2012-08-01","average_temperature":"33.645","city":"Jiroft","latitude":"28.13N","longitude":"57.27E"}
{"date":"2010-01-01","average_temperature":"-11.584000000000001","city":"Jiupu","latitude":"40.99N","longitude":"123.55E"}
{"date":"2010-05-01","average_temperature":"36.76","city":"Jodhpur","latitude":"26.52N","longitude":"73.43E"}
{"date":"2012-06-01","average_temperature":"19.338","city":"Joetsu","latitude":"37.78N","longitude":"138.31E"}
{"date":"2010-03-01","average_temperature":"27.791999999999998","city":"Jolo","latitude":"5.63N","longitude":"119.46E"}
{"date":"2011-01-01","average_temperature":"5.032","city":"Juarez","latitude":"31.35N","longitude":"105.55W"}
{"date":"2013-03-01","average_temperature":"13.07","city":"Juarez","latitude":"31.35N","longitude":"105.55W"}
{"date":"2011-10-01","average_temperature":"15.74","city":"Jujuy","latitude":"24.92S","longitude":"65.62W"}
{"date":"2010-01-01","average_temperature":"23.738000000000003","city":"Jundiaí","latitude":"23.31S","longitude":"46.31W"}
{"date":"2011-01-01","average_temperature":"2.86","city":"Kadoma","latitude":"34.56N","longitude":"136.22E"}
{"date":"2012-05-01","average_temperature":"17.68","city":"Kahramanmaras","latitude":"37.78N","longitude":"36.61E"}
{"date":"2010-12-01","average_temperature":"11.663","city":"Kaiyuan","latitude":"23.31N","longitude":"103.98E"}
{"date":"2011-02-01","average_temperature":"1.975","city":"Kakamigahara","latitude":"36.17N","longitude":"137.24E"}
{"date":"2013-08-01","average_temperature":"20.879","city":"Kamyshin","latitude":"50.63N","longitude":"44.37E"}
{"date":"2010-11-01","average_temperature":"26.485000000000007","city":"Karang Tengah","latitude":"7.23S","longitude":"106.22E"}
{"date":"2010-03-01","average_temperature":"30.875","city":"Karimnagar","latitude":"18.48N","longitude":"79.44E"}
{"date":"2011-03-01","average_temperature":"16.04","city":"Kashipur","latitude":"29.74N","longitude":"79.38E"}
{"date":"2011-04-01","average_temperature":"19.368","city":"Kashipur","latitude":"29.74N","longitude":"79.38E"}
{"date":"2011-07-01","average_temperature":"26.578000000000003","city":"Kasuga","latitude":"32.95N","longitude":"131.17E"}
{"date":"2013-06-01","average_temperature":"31.618","city":"Katsina","latitude":"13.66N","longitude":"7.43E"}
{"date":"2011-02-01","average_temperature":"3.734","city":"Kawaguchi","latitude":"36.17N","longitude":"139.23E"}
{"date":"2013-08-01","average_temperature":"19.111","city":"Kazan","latitude":"55.45N","longitude":"48.19E"}
{"date":"2012-05-01","average_temperature":"27.680000000000003","city":"Kediri","latitude":"7.23S","longitude":"112.70E"}
{"date":"2011-03-01","average_temperature":"26.47","city":"Kemang","latitude":"7.23S","longitude":"106.22E"}
{"date":"2010-03-01","average_temperature":"-8.067","city":"Kemerovo","latitude":"55.45N","longitude":"85.04E"}
{"date":"2010-08-01","average_temperature":"32.46","city":"Khanewal","latitude":"29.74N","longitude":"72.00E"}
{"date":"2010-10-01","average_temperature":"32.944","city":"Khartoum","latitude":"15.27N","longitude":"32.50E"}
{"date":"2010-11-01","average_temperature":"2.3629999999999995","city":"Khimki","latitude":"55.45N","longitude":"36.85E"}
{"date":"2012-07-01","average_temperature":"25.895000000000003","city":"Khomeynishahr","latitude":"32.95N","longitude":"50.74E"}
{"date":"2010-09-01","average_temperature":"17.31","city":"Khujand","latitude":"40.99N","longitude":"70.30E"}
{"date":"2011-05-01","average_temperature":"34.298","city":"Khurja","latitude":"28.13N","longitude":"77.27E"}
{"date":"2010-11-01","average_temperature":"18.937","city":"Khushab","latitude":"32.95N","longitude":"71.81E"}
{"date":"2012-12-01","average_temperature":"10.913","city":"Khuzdar","latitude":"28.13N","longitude":"66.36E"}
{"date":"2011-06-01","average_temperature":"21.406999999999996","city":"Kigoma","latitude":"4.02S","longitude":"29.73E"}
{"date":"2012-01-01","average_temperature":"10.494000000000002","city":"Killeen","latitude":"31.35N","longitude":"98.01W"}
{"date":"2013-03-01","average_temperature":"-0.6040000000000001","city":"Kingston","latitude":"44.20N","longitude":"76.02W"}
{"date":"2012-08-01","average_temperature":"16.163","city":"Kingston Upon Hull","latitude":"53.84N","longitude":"1.36W"}
{"date":"2011-12-01","average_temperature":"7.239","city":"Kirkuk","latitude":"36.17N","longitude":"43.76E"}
{"date":"2012-09-01","average_temperature":"26.881999999999998","city":"Kismayo","latitude":"0.80S","longitude":"42.59E"}
{"date":"2010-07-01","average_temperature":"21.355","city":"Kisumu","latitude":"0.80S","longitude":"34.55E"}
{"date":"2011-06-01","average_temperature":"21.878","city":"Kisumu","latitude":"0.80S","longitude":"34.55E"}
{"date":"2011-04-01","average_temperature":"12.992","city":"Kitakyushu","latitude":"34.56N","longitude":"130.38E"}
{"date":"2011-11-01","average_temperature":"23.53","city":"Kitwe","latitude":"12.05S","longitude":"27.95E"}
{"date":"2012-11-01","average_temperature":"22.197","city":"Klerksdorp","latitude":"26.52S","longitude":"26.87E"}
{"date":"2010-05-01","average_temperature":"17.572999999999997","city":"Kobe","latitude":"34.56N","longitude":"134.27E"}
{"date":"2011-09-01","average_temperature":"22.199","city":"Kodaira","latitude":"36.17N","longitude":"139.23E"}
{"date":"2012-01-01","average_temperature":"0.7150000000000001","city":"Kodaira","latitude":"36.17N","longitude":"139.23E"}
{"date":"2010-07-01","average_temperature":"26.769000000000002","city":"Kolar","latitude":"13.66N","longitude":"78.44E"}
{"date":"2010-12-01","average_temperature":"26.465000000000003","city":"Korhogo","latitude":"8.84N","longitude":"5.68W"}
{"date":"2013-06-01","average_temperature":"20.927","city":"Koshigaya","latitude":"36.17N","longitude":"139.23E"}
{"date":"2010-02-01","average_temperature":"-10.741","city":"Kostroma","latitude":"57.05N","longitude":"39.84E"}
{"date":"2012-09-01","average_temperature":"20.146","city":"Krasnodar","latitude":"45.81N","longitude":"38.08E"}
{"date":"2011-04-01","average_temperature":"4.348","city":"Krasnoyarsk","latitude":"55.45N","longitude":"93.54E"}
{"date":"2011-11-01","average_temperature":"24.11","city":"Krishnanagar","latitude":"23.31N","longitude":"88.25E"}
{"date":"2012-10-01","average_temperature":"26.629","city":"Kuching","latitude":"0.80N","longitude":"110.09E"}
{"date":"2011-12-01","average_temperature":"19.914","city":"Kuito","latitude":"12.05S","longitude":"16.44E"}
{"date":"2013-03-01","average_temperature":"21.568","city":"Kuito","latitude":"12.05S","longitude":"16.44E"}
{"date":"2011-12-01","average_temperature":"27.346","city":"Kumasi","latitude":"7.23N","longitude":"0.81W"}
{"date":"2012-04-01","average_temperature":"27.418000000000003","city":"Kupang","latitude":"10.45S","longitude":"123.55E"}
{"date":"2010-04-01","average_temperature":"8.355","city":"Kursk","latitude":"52.24N","longitude":"36.79E"}
{"date":"2013-01-01","average_temperature":"3.917","city":"Kuwana","latitude":"34.56N","longitude":"136.22E"}
{"date":"2013-05-01","average_temperature":"27.461","city":"La Romana","latitude":"18.48N","longitude":"69.30W"}
{"date":"2011-10-01","average_temperature":"26.068","city":"La Vega","latitude":"18.48N","longitude":"70.99W"}
{"date":"2012-09-01","average_temperature":"20.733","city":"Laiwu","latitude":"36.17N","longitude":"117.35E"}
{"date":"2010-04-01","average_temperature":"30.695","city":"Lampang","latitude":"18.48N","longitude":"99.72E"}
{"date":"2012-03-01","average_temperature":"9.741","city":"Lansing","latitude":"42.59N","longitude":"85.09W"}
{"date":"2011-10-01","average_temperature":"15.94","city":"Laohekou","latitude":"32.95N","longitude":"112.02E"}
{"date":"2012-10-01","average_temperature":"23.090999999999998","city":"Las Palmas","latitude":"28.13N","longitude":"15.45W"}
{"date":"2013-02-01","average_temperature":"8.004999999999999","city":"Las Vegas","latitude":"36.17N","longitude":"115.36W"}
{"date":"2013-06-01","average_temperature":"27.342","city":"Lawang","latitude":"7.23S","longitude":"112.70E"}
{"date":"2010-08-01","average_temperature":"19.824","city":"León","latitude":"21.70N","longitude":"101.25W"}
{"date":"2011-06-01","average_temperature":"18.016","city":"Le Mans","latitude":"47.42N","longitude":"1.18E"}
{"date":"2011-09-01","average_temperature":"23.35","city":"Leiyang","latitude":"26.52N","longitude":"112.84E"}
{"date":"2013-07-01","average_temperature":"24.643","city":"Leshan","latitude":"29.74N","longitude":"103.38E"}
{"date":"2013-08-01","average_temperature":"18.098","city":"Leverkusen","latitude":"50.63N","longitude":"6.34E"}
{"date":"2013-03-01","average_temperature":"4.343999999999999","city":"Lexington Fayette","latitude":"37.78N","longitude":"85.42W"}
{"date":"2013-07-01","average_temperature":"19.869","city":"Liège","latitude":"50.63N","longitude":"6.34E"}
{"date":"2010-10-01","average_temperature":"23.591","city":"Liancheng","latitude":"21.70N","longitude":"109.90E"}
{"date":"2012-06-01","average_temperature":"28.437","city":"Liancheng","latitude":"21.70N","longitude":"109.90E"}
{"date":"2012-11-01","average_temperature":"21.101","city":"Liancheng","latitude":"21.70N","longitude":"109.90E"}
{"date":"2011-03-01","average_temperature":"4.1419999999999995","city":"Lincoln","latitude":"40.99N","longitude":"95.86W"}
{"date":"2012-06-01","average_temperature":"23.884","city":"Lincoln","latitude":"40.99N","longitude":"95.86W"}
{"date":"2013-02-01","average_temperature":"7.266999999999999","city":"Little Rock","latitude":"34.56N","longitude":"91.46W"}
{"date":"2012-03-01","average_temperature":"24.651","city":"Livingstone","latitude":"18.48S","longitude":"25.35E"}
{"date":"2010-06-01","average_temperature":"27.185","city":"Loa Janan","latitude":"0.80S","longitude":"116.52E"}
{"date":"2010-01-01","average_temperature":"1.381","city":"London","latitude":"52.24N","longitude":"0.00W"}
{"date":"2010-06-01","average_temperature":"24.975","city":"Longfeng","latitude":"45.81N","longitude":"125.77E"}
{"date":"2010-06-01","average_temperature":"35.165","city":"Loni","latitude":"28.13N","longitude":"77.27E"}
{"date":"2010-08-01","average_temperature":"29.052","city":"Louga","latitude":"15.27N","longitude":"15.83W"}
{"date":"2011-10-01","average_temperature":"17.355999999999998","city":"Lubbock","latitude":"32.95N","longitude":"102.45W"}
{"date":"2013-08-01","average_temperature":"24.702","city":"Lumajang","latitude":"8.84S","longitude":"112.70E"}
{"date":"2011-01-01","average_temperature":"3.912","city":"Luqiao","latitude":"28.13N","longitude":"120.91E"}
{"date":"2012-05-01","average_temperature":"22.859","city":"Luzhou","latitude":"29.74N","longitude":"105.23E"}
{"date":"2011-11-01","average_temperature":"16.296","city":"Málaga","latitude":"36.17N","longitude":"3.98W"}
{"date":"2013-04-01","average_temperature":"15.897","city":"Málaga","latitude":"36.17N","longitude":"3.98W"}
{"date":"2010-04-01","average_temperature":"31.13","city":"Madanapalle","latitude":"13.66N","longitude":"78.44E"}
{"date":"2012-05-01","average_temperature":"32.232","city":"Madhyamgram","latitude":"23.31N","longitude":"88.25E"}
{"date":"2013-06-01","average_temperature":"26.909000000000002","city":"Madiun","latitude":"7.23S","longitude":"111.08E"}
{"date":"2012-06-01","average_temperature":"26.354","city":"Mahajanga","latitude":"15.27S","longitude":"45.83E"}
{"date":"2011-11-01","average_temperature":"24.861","city":"Mahbubnagar","latitude":"16.87N","longitude":"78.70E"}
{"date":"2011-08-01","average_temperature":"25.154","city":"Majalaya","latitude":"7.23S","longitude":"107.84E"}
{"date":"2010-04-01","average_temperature":"9.261","city":"Makhachkala","latitude":"42.59N","longitude":"48.00E"}
{"date":"2010-12-01","average_temperature":"1.974","city":"Makiyivka","latitude":"47.42N","longitude":"39.08E"}
{"date":"2012-04-01","average_temperature":"26.372","city":"Man","latitude":"7.23N","longitude":"7.30W"}
{"date":"2010-10-01","average_temperature":"30.15","city":"Manama","latitude":"26.52N","longitude":"50.15E"}
{"date":"2011-06-01","average_temperature":"27.519000000000002","city":"Manaus","latitude":"2.41S","longitude":"60.27W"}
{"date":"2012-10-01","average_temperature":"28.699","city":"Manaus","latitude":"2.41S","longitude":"60.27W"}
{"date":"2010-12-01","average_temperature":"12.345","city":"Mandi Bahauddin","latitude":"32.95N","longitude":"73.72E"}
{"date":"2010-06-01","average_temperature":"26.123","city":"Mandya","latitude":"12.05N","longitude":"77.26E"}
{"date":"2013-08-01","average_temperature":"27.384","city":"Manisa","latitude":"39.38N","longitude":"27.05E"}
{"date":"2010-01-01","average_temperature":"25.931","city":"Maracay","latitude":"10.45N","longitude":"67.91W"}
{"date":"2010-09-01","average_temperature":"21.072","city":"Marand","latitude":"39.38N","longitude":"45.78E"}
{"date":"2012-05-01","average_temperature":"27.155","city":"Marawi","latitude":"7.23N","longitude":"124.05E"}
{"date":"2013-03-01","average_temperature":"14.939","city":"Marrakesh","latitude":"31.35N","longitude":"7.54W"}
{"date":"2010-12-01","average_temperature":"10.2","city":"Marseille","latitude":"42.59N","longitude":"6.55E"}
{"date":"2012-03-01","average_temperature":"24.091","city":"Matanzas","latitude":"23.31N","longitude":"81.26W"}
{"date":"2013-07-01","average_temperature":"26.919","city":"Matanzas","latitude":"23.31N","longitude":"81.26W"}
{"date":"2011-12-01","average_temperature":"16.203","city":"Mathura","latitude":"28.13N","longitude":"77.27E"}
{"date":"2013-08-01","average_temperature":"26.587","city":"Matsumoto","latitude":"36.17N","longitude":"137.24E"}
{"date":"2011-08-01","average_temperature":"28.029","city":"Maymyo","latitude":"21.70N","longitude":"96.06E"}
{"date":"2012-05-01","average_temperature":"27.295","city":"Metro","latitude":"5.63S","longitude":"104.93E"}
{"date":"2010-06-01","average_temperature":"26.036","city":"Mexicali","latitude":"32.95N","longitude":"115.85W"}
{"date":"2013-01-01","average_temperature":"25.497","city":"Meycauayan","latitude":"15.27N","longitude":"120.83E"}
{"date":"2012-04-01","average_temperature":"9.488","city":"Miass","latitude":"55.45N","longitude":"59.53E"}
{"date":"2011-04-01","average_temperature":"11.12","city":"Middlesbrough","latitude":"53.84N","longitude":"1.36W"}
{"date":"2012-04-01","average_temperature":"6.742000000000001","city":"Middlesbrough","latitude":"53.84N","longitude":"1.36W"}
{"date":"2012-12-01","average_temperature":"22.017000000000003","city":"Milagro","latitude":"2.41S","longitude":"79.55W"}
{"date":"2010-01-01","average_temperature":"-3.659","city":"Milan","latitude":"45.81N","longitude":"8.08E"}
{"date":"2012-02-01","average_temperature":"-4.218999999999999","city":"Minneapolis","latitude":"45.81N","longitude":"93.46W"}
{"date":"2012-04-01","average_temperature":"11.355","city":"Misato","latitude":"36.17N","longitude":"139.23E"}
{"date":"2013-06-01","average_temperature":"19.861","city":"Modena","latitude":"44.20N","longitude":"11.18E"}
{"date":"2010-03-01","average_temperature":"24.482","city":"Moga","latitude":"31.35N","longitude":"75.39E"}
{"date":"2010-07-01","average_temperature":"18.354","city":"Moji Das Cruzes","latitude":"23.31S","longitude":"46.31W"}
{"date":"2012-02-01","average_temperature":"15.929","city":"Monterrey","latitude":"26.52N","longitude":"100.30W"}
{"date":"2012-11-01","average_temperature":"18.974","city":"Monterrey","latitude":"26.52N","longitude":"100.30W"}
{"date":"2010-11-01","average_temperature":"18.692","city":"Montevideo","latitude":"34.56S","longitude":"56.43W"}
{"date":"2011-04-01","average_temperature":"17.954","city":"Montevideo","latitude":"34.56S","longitude":"56.43W"}
{"date":"2010-01-01","average_temperature":"-7.6110000000000015","city":"Montreal","latitude":"45.81N","longitude":"72.69W"}
{"date":"2011-01-01","average_temperature":"23.956999999999997","city":"Mopti","latitude":"15.27N","longitude":"4.17W"}
{"date":"2012-11-01","average_temperature":"30.226","city":"Mossoró","latitude":"5.63S","longitude":"37.13W"}
{"date":"2010-02-01","average_temperature":"19.498","city":"Motihari","latitude":"26.52N","longitude":"84.18E"}
{"date":"2012-10-01","average_temperature":"23.308000000000003","city":"Mufulira","latitude":"12.05S","longitude":"27.95E"}
{"date":"2012-01-01","average_temperature":"21.037","city":"Mutare","latitude":"18.48S","longitude":"32.11E"}
{"date":"2011-04-01","average_temperature":"26.094","city":"Muzaffarpur","latitude":"26.52N","longitude":"85.97E"}
{"date":"2010-05-01","average_temperature":"32.026","city":"Myingyan","latitude":"21.70N","longitude":"96.06E"}
{"date":"2011-09-01","average_temperature":"27.660999999999998","city":"Naga","latitude":"13.66N","longitude":"123.03E"}
{"date":"2011-02-01","average_temperature":"20.936","city":"Nagda","latitude":"23.31N","longitude":"76.02E"}
{"date":"2012-11-01","average_temperature":"23.487","city":"Naihati","latitude":"23.31N","longitude":"88.25E"}
{"date":"2011-06-01","average_temperature":"26.468000000000004","city":"Nanchang","latitude":"28.13N","longitude":"115.45E"}
{"date":"2013-06-01","average_temperature":"16.578","city":"Nancy","latitude":"49.03N","longitude":"7.35E"}
{"date":"2013-09-01","city":"Nancy","latitude":"49.03N","longitude":"7.35E"}
{"date":"2011-06-01","average_temperature":"32.96700000000001","city":"Nangloi Jat","latitude":"28.13N","longitude":"77.27E"}
{"date":"2011-07-01","average_temperature":"30.947","city":"Nangloi Jat","latitude":"28.13N","longitude":"77.27E"}
{"date":"2012-01-01","average_temperature":"10.267000000000001","city":"Nanning","latitude":"23.31N","longitude":"107.48E"}
{"date":"2013-08-01","average_temperature":"25.767","city":"Naples","latitude":"40.99N","longitude":"14.91E"}
{"date":"2011-07-01","average_temperature":"23.601","city":"Narita","latitude":"36.17N","longitude":"141.22E"}
{"date":"2011-11-01","average_temperature":"14.023","city":"Narita","latitude":"36.17N","longitude":"141.22E"}
{"date":"2010-05-01","average_temperature":"21.151999999999997","city":"Nashville","latitude":"36.17N","longitude":"87.51W"}
{"date":"2012-03-01","average_temperature":"27.878","city":"Navadwip","latitude":"23.31N","longitude":"88.25E"}
{"date":"2013-04-01","average_temperature":"30.435","city":"Navadwip","latitude":"23.31N","longitude":"88.25E"}
{"date":"2010-07-01","average_temperature":"27.302000000000003","city":"Nazran","latitude":"44.20N","longitude":"44.72E"}
{"date":"2010-08-01","average_temperature":"13.712","city":"Nefteyugansk","latitude":"61.88N","longitude":"73.02E"}
{"date":"2010-12-01","average_temperature":"-23.718000000000004","city":"Nefteyugansk","latitude":"61.88N","longitude":"73.02E"}
{"date":"2013-02-01","average_temperature":"-1.3650000000000002","city":"Newark","latitude":"40.99N","longitude":"74.56W"}
{"date":"2010-07-01","average_temperature":"28.447000000000006","city":"Neyveli","latitude":"12.05N","longitude":"78.90E"}
{"date":"2012-02-01","average_temperature":"26.866","city":"Neyveli","latitude":"12.05N","longitude":"78.90E"}
{"date":"2010-12-01","average_temperature":"21.6","city":"Ngaoundéré","latitude":"7.23N","longitude":"13.78E"}
{"date":"2012-05-01","average_temperature":"25.893","city":"Nha Trang","latitude":"12.05N","longitude":"108.49E"}
{"date":"2011-07-01","average_temperature":"7.3450000000000015","city":"Nigel","latitude":"26.52S","longitude":"28.66E"}
{"date":"2010-07-01","average_temperature":"25.337","city":"Niigata","latitude":"37.78N","longitude":"138.31E"}
{"date":"2012-04-01","average_temperature":"10.575","city":"Niigata","latitude":"37.78N","longitude":"138.31E"}
{"date":"2012-07-01","average_temperature":"28.549","city":"Ningbo","latitude":"29.74N","longitude":"121.85E"}
{"date":"2013-09-01","city":"Ningbo","latitude":"29.74N","longitude":"121.85E"}
{"date":"2010-10-01","average_temperature":"8.677","city":"Nis","latitude":"42.59N","longitude":"21.82E"}
{"date":"2011-11-01","average_temperature":"13.571","city":"Nishio","latitude":"34.56N","longitude":"136.22E"}
{"date":"2011-07-01","average_temperature":"27.749000000000002","city":"Nogales","latitude":"31.35N","longitude":"111.20W"}
{"date":"2013-05-01","average_temperature":"-3.1870000000000003","city":"Norilsk","latitude":"69.92N","longitude":"88.83E"}
{"date":"2010-10-01","average_temperature":"10.466","city":"Northampton","latitude":"52.24N","longitude":"0.00W"}
{"date":"2010-05-01","average_temperature":"30.916999999999998","city":"Nouakchott","latitude":"18.48N","longitude":"15.21W"}
{"date":"2010-08-01","average_temperature":"22.677","city":"Nova Iguaçu","latitude":"23.31S","longitude":"42.82W"}
{"date":"2010-06-01","average_temperature":"18.643","city":"Oakland","latitude":"37.78N","longitude":"122.03W"}
{"date":"2011-12-01","average_temperature":"9.118","city":"Oakland","latitude":"37.78N","longitude":"122.03W"}
{"date":"2010-07-01","average_temperature":"24.58","city":"Obninsk","latitude":"55.45N","longitude":"36.85E"}
{"date":"2012-11-01","average_temperature":"22.842","city":"Obregon","latitude":"28.13N","longitude":"110.00W"}
{"date":"2011-08-01","average_temperature":"18.149","city":"Odintsovo","latitude":"55.45N","longitude":"36.85E"}
{"date":"2013-07-01","average_temperature":"18.136000000000006","city":"Odintsovo","latitude":"55.45N","longitude":"36.85E"}
{"date":"2012-06-01","average_temperature":"35.649","city":"Okara","latitude":"31.35N","longitude":"73.51E"}
{"date":"2010-05-01","average_temperature":"17.619","city":"Okazaki","latitude":"34.56N","longitude":"136.22E"}
{"date":"2012-01-01","average_temperature":"5.621","city":"Oklahoma City","latitude":"36.17N","longitude":"97.46W"}
{"date":"2011-01-01","average_temperature":"26.741","city":"Okrika","latitude":"4.02N","longitude":"7.23E"}
{"date":"2010-02-01","average_temperature":"-5.8420000000000005","city":"Omaha","latitude":"40.99N","longitude":"95.86W"}
{"date":"2010-06-01","average_temperature":"21.521","city":"Ome","latitude":"36.17N","longitude":"139.23E"}
{"date":"2013-03-01","average_temperature":"-9.127","city":"Omsk","latitude":"55.45N","longitude":"73.70E"}
{"date":"2010-03-01","average_temperature":"27.173","city":"Orai","latitude":"26.52N","longitude":"78.81E"}
{"date":"2012-03-01","average_temperature":"24.296999999999997","city":"Orai","latitude":"26.52N","longitude":"78.81E"}
{"date":"2010-06-01","average_temperature":"20.526","city":"Ordu","latitude":"40.99N","longitude":"38.34E"}
{"date":"2010-09-01","average_temperature":"21.055999999999997","city":"Ordu","latitude":"40.99N","longitude":"38.34E"}
{"date":"2012-12-01","average_temperature":"5.8660000000000005","city":"Orléans","latitude":"47.42N","longitude":"1.18E"}
{"date":"2010-01-01","average_temperature":"28.413","city":"Oron","latitude":"5.63N","longitude":"8.07E"}
{"date":"2010-02-01","average_temperature":"30.313000000000002","city":"Oshogbo","latitude":"7.23N","longitude":"4.05E"}
{"date":"2012-08-01","average_temperature":"12.944","city":"Oslo","latitude":"60.27N","longitude":"9.73E"}
{"date":"2010-11-01","average_temperature":"6.29","city":"Ostrava","latitude":"50.63N","longitude":"19.01E"}
{"date":"2013-06-01","average_temperature":"14.325999999999999","city":"Oulu","latitude":"65.09N","longitude":"24.89E"}
{"date":"2010-11-01","average_temperature":"12.114","city":"Oxnard","latitude":"34.56N","longitude":"118.70W"}
{"date":"2013-05-01","average_temperature":"19.775","city":"Pátrai","latitude":"37.78N","longitude":"22.37E"}
{"date":"2013-08-01","average_temperature":"18.430999999999997","city":"Paderborn","latitude":"52.24N","longitude":"7.88E"}
{"date":"2011-11-01","average_temperature":"21.721999999999998","city":"Palmira","latitude":"4.02N","longitude":"76.34W"}
{"date":"2010-10-01","average_temperature":"26.516","city":"Palu","latitude":"0.80S","longitude":"119.73E"}
{"date":"2011-04-01","average_temperature":"26.397","city":"Palu","latitude":"0.80S","longitude":"119.73E"}
{"date":"2012-11-01","average_temperature":"27.191","city":"Palu","latitude":"0.80S","longitude":"119.73E"}
{"date":"2011-08-01","average_temperature":"26.906","city":"Pamanukan","latitude":"5.63S","longitude":"108.16E"}
{"date":"2011-04-01","average_temperature":"13.949000000000002","city":"Pamplona","latitude":"42.59N","longitude":"2.18W"}
{"date":"2012-02-01","average_temperature":"3.0939999999999994","city":"Pamplona","latitude":"42.59N","longitude":"2.18W"}
{"date":"2013-03-01","average_temperature":"28.605","city":"Panamá","latitude":"8.84N","longitude":"80.27W"}
{"date":"2012-10-01","average_temperature":"27.427","city":"Panihati","latitude":"23.31N","longitude":"88.25E"}
{"date":"2013-07-01","average_temperature":"25.362","city":"Parakou","latitude":"8.84N","longitude":"2.43E"}
{"date":"2010-03-01","average_temperature":"28.013","city":"Paramaribo","latitude":"5.63N","longitude":"54.89W"}
{"date":"2013-08-01","average_temperature":"26.233","city":"Parbhani","latitude":"20.09N","longitude":"76.78E"}
{"date":"2011-06-01","average_temperature":"20.735","city":"Parma","latitude":"44.20N","longitude":"11.18E"}
{"date":"2012-10-01","average_temperature":"14.040999999999999","city":"Parma","latitude":"44.20N","longitude":"11.18E"}
{"date":"2012-10-01","average_temperature":"18.712","city":"Pasadena","latitude":"34.56N","longitude":"118.70W"}
{"date":"2011-11-01","average_temperature":"27.351999999999997","city":"Pati","latitude":"7.23S","longitude":"111.08E"}
{"date":"2012-09-01","average_temperature":"28.935","city":"Patna","latitude":"24.92N","longitude":"85.12E"}
{"date":"2012-07-01","average_temperature":"24.283","city":"Pavlodar","latitude":"52.24N","longitude":"76.20E"}
{"date":"2013-05-01","average_temperature":"11.888","city":"Pavlodar","latitude":"52.24N","longitude":"76.20E"}
{"date":"2011-02-01","average_temperature":"20.078000000000007","city":"Pembroke Pines","latitude":"26.52N","longitude":"80.60W"}
{"date":"2011-09-01","average_temperature":"28.038","city":"Pembroke Pines","latitude":"26.52N","longitude":"80.60W"}
{"date":"2012-08-01","average_temperature":"28.608","city":"Pembroke Pines","latitude":"26.52N","longitude":"80.60W"}
{"date":"2011-10-01","average_temperature":"17.25","city":"Peristérion","latitude":"37.78N","longitude":"24.41E"}
{"date":"2012-10-01","average_temperature":"19.558","city":"Petapa","latitude":"15.27N","longitude":"90.83W"}
{"date":"2013-06-01","average_temperature":"15.284","city":"Petrozavodsk","latitude":"61.88N","longitude":"35.66E"}
{"date":"2013-01-01","average_temperature":"12.116","city":"Phagwara","latitude":"31.35N","longitude":"75.39E"}
{"date":"2010-07-01","average_temperature":"8.442","city":"Pietermaritzburg","latitude":"29.74S","longitude":"29.54E"}
{"date":"2012-02-01","average_temperature":"24.468","city":"Pindamonhangaba","latitude":"23.31S","longitude":"46.31W"}
{"date":"2013-09-01","city":"Pindamonhangaba","latitude":"23.31S","longitude":"46.31W"}
{"date":"2013-03-01","average_temperature":"24.714","city":"Ponce","latitude":"18.48N","longitude":"65.92W"}
{"date":"2012-08-01","average_temperature":"27.434","city":"Pontianak","latitude":"0.80S","longitude":"110.09E"}
{"date":"2011-11-01","average_temperature":"11.869000000000002","city":"Poole","latitude":"50.63N","longitude":"1.27W"}
{"date":"2012-07-01","average_temperature":"28.51","city":"Port Blair","latitude":"12.05N","longitude":"92.05E"}
{"date":"2010-01-01","average_temperature":"8.722000000000001","city":"Porto","latitude":"40.99N","longitude":"8.52W"}
{"date":"2012-12-01","average_temperature":"26.588","city":"Posadas","latitude":"28.13S","longitude":"55.45W"}
{"date":"2010-06-01","average_temperature":"17.735","city":"Potsdam","latitude":"52.24N","longitude":"13.14E"}
{"date":"2010-06-01","average_temperature":"17.427","city":"Prague","latitude":"50.63N","longitude":"13.94E"}
{"date":"2012-05-01","average_temperature":"1.7049999999999998","city":"Punta Arenas","latitude":"52.24S","longitude":"70.95W"}
{"date":"2013-06-01","average_temperature":"1.725","city":"Punta Arenas","latitude":"52.24S","longitude":"70.95W"}
{"date":"2011-10-01","average_temperature":"18.326","city":"Puqi","latitude":"29.74N","longitude":"114.46E"}
{"date":"2012-01-01","average_temperature":"10.989","city":"Qingyuan","latitude":"23.31N","longitude":"112.72E"}
{"date":"2012-02-01","average_temperature":"-15.171","city":"Qiqihar","latitude":"47.42N","longitude":"124.34E"}
{"date":"2012-11-01","average_temperature":"-7.52","city":"Qiqihar","latitude":"47.42N","longitude":"124.34E"}
{"date":"2011-06-01","average_temperature":"17.898","city":"Qostanay","latitude":"53.84N","longitude":"64.09E"}
{"date":"2010-01-01","average_temperature":"27.877","city":"Queimados","latitude":"23.31S","longitude":"42.82W"}
{"date":"2011-07-01","average_temperature":"28.236","city":"Rafsanjan","latitude":"29.74N","longitude":"55.38E"}
{"date":"2012-01-01","average_temperature":"17.194000000000003","city":"Raiganj","latitude":"24.92N","longitude":"88.67E"}
{"date":"2011-09-01","average_temperature":"29.180999999999997","city":"Rajamahendri","latitude":"16.87N","longitude":"82.05E"}
{"date":"2012-07-01","average_temperature":"29.385","city":"Rajkot","latitude":"21.70N","longitude":"70.10E"}
{"date":"2010-10-01","average_temperature":"21.38","city":"Randfontein","latitude":"26.52S","longitude":"26.87E"}
{"date":"2013-07-01","average_temperature":"11.508","city":"Randfontein","latitude":"26.52S","longitude":"26.87E"}
{"date":"2011-02-01","average_temperature":"14.372","city":"Rawalpindi","latitude":"32.95N","longitude":"73.72E"}
{"date":"2013-04-01","average_temperature":"11.419","city":"Reno","latitude":"39.38N","longitude":"120.69W"}
{"date":"2011-08-01","average_temperature":"30.075","city":"Rewari","latitude":"28.13N","longitude":"77.27E"}
{"date":"2013-06-01","average_temperature":"30.35","city":"Reynosa","latitude":"26.52N","longitude":"98.51W"}
{"date":"2011-09-01","average_temperature":"23.206000000000003","city":"Ribeirão Prêto","latitude":"21.70S","longitude":"47.60W"}
{"date":"2012-02-01","average_temperature":"24.961","city":"Richards Bay","latitude":"28.13S","longitude":"31.82E"}
{"date":"2012-02-01","average_temperature":"27.449","city":"Rio De Janeiro","latitude":"23.31S","longitude":"42.82W"}
{"date":"2012-04-01","average_temperature":"11.517","city":"Rome","latitude":"42.59N","longitude":"13.09E"}
{"date":"2013-05-01","average_temperature":"16.790999999999997","city":"Rongcheng","latitude":"26.52N","longitude":"103.88E"}
{"date":"2012-10-01","average_temperature":"18.43","city":"Rosario","latitude":"32.95S","longitude":"60.32W"}
{"date":"2013-05-01","average_temperature":"13.775","city":"Rybinsk","latitude":"58.66N","longitude":"40.00E"}
{"date":"2011-02-01","average_temperature":"-3.945","city":"Rzeszow","latitude":"50.63N","longitude":"21.55E"}
{"date":"2011-01-01","average_temperature":"24.903","city":"São Carlos","latitude":"21.70S","longitude":"47.60W"}
{"date":"2011-03-01","average_temperature":"19.875","city":"São José Dos Pinhais","latitude":"24.92S","longitude":"49.66W"}
{"date":"2010-10-01","average_temperature":"17.807000000000002","city":"São Leopoldo","latitude":"29.74S","longitude":"51.69W"}
{"date":"2013-03-01","average_temperature":"27.787","city":"São Luís","latitude":"2.41S","longitude":"44.20W"}
{"date":"2010-06-01","average_temperature":"17.706","city":"Saarbrücken","latitude":"49.03N","longitude":"7.35E"}
{"date":"2010-02-01","average_temperature":"19.590999999999998","city":"Sabha","latitude":"26.52N","longitude":"14.33E"}
{"date":"2013-08-01","average_temperature":"28.44","city":"Sabzevar","latitude":"36.17N","longitude":"57.68E"}
{"date":"2011-11-01","average_temperature":"13.854000000000001","city":"Saga","latitude":"32.95N","longitude":"131.17E"}
{"date":"2013-05-01","average_temperature":"32.561","city":"Saharanpur","latitude":"29.74N","longitude":"77.54E"}
{"date":"2010-03-01","average_temperature":"25.439","city":"Saharsa","latitude":"26.52N","longitude":"85.97E"}
{"date":"2012-12-01","average_temperature":"16.9","city":"Saharsa","latitude":"26.52N","longitude":"85.97E"}
{"date":"2012-08-01","average_temperature":"15.538","city":"Saint Helens","latitude":"53.84N","longitude":"4.09W"}
{"date":"2010-05-01","average_temperature":"14.123","city":"Saint Paul","latitude":"45.81N","longitude":"93.46W"}
{"date":"2010-06-01","average_temperature":"13.752","city":"Saint Petersburg","latitude":"60.27N","longitude":"29.19E"}
{"date":"2013-09-01","city":"Sakai","latitude":"34.56N","longitude":"136.22E"}
{"date":"2010-06-01","average_temperature":"30.973000000000006","city":"Salalah","latitude":"16.87N","longitude":"53.58E"}
{"date":"2011-09-01","average_temperature":"28.576999999999998","city":"Salalah","latitude":"16.87N","longitude":"53.58E"}
{"date":"2011-06-01","average_temperature":"26.343000000000004","city":"Salatiga","latitude":"7.23S","longitude":"111.08E"}
{"date":"2012-04-01","average_temperature":"11.958","city":"Salavat","latitude":"53.84N","longitude":"55.91E"}
{"date":"2010-11-01","average_temperature":"5.407","city":"Salihorsk","latitude":"52.24N","longitude":"26.28E"}
{"date":"2012-06-01","average_temperature":"25.101","city":"Salvador","latitude":"13.66S","longitude":"38.81W"}
{"date":"2013-03-01","average_temperature":"-0.6160000000000001","city":"Salzgitter","latitude":"52.24N","longitude":"10.51E"}
{"date":"2012-12-01","average_temperature":"6.142","city":"Samsun","latitude":"40.99N","longitude":"36.21E"}
{"date":"2010-06-01","average_temperature":"25.438","city":"San José","latitude":"10.45N","longitude":"84.27W"}
{"date":"2011-06-01","average_temperature":"27.798000000000002","city":"Sancti Spíritus","latitude":"21.70N","longitude":"78.75W"}
{"date":"2012-08-01","average_temperature":"28.228","city":"Sanda","latitude":"34.56N","longitude":"134.27E"}
{"date":"2011-03-01","average_temperature":"11.849","city":"Sanming","latitude":"26.52N","longitude":"118.21E"}
{"date":"2013-06-01","average_temperature":"19.759","city":"Santa Clara","latitude":"37.78N","longitude":"122.03W"}
{"date":"2010-03-01","average_temperature":"12.437000000000001","city":"Santa Clarita","latitude":"34.56N","longitude":"118.70W"}
{"date":"2013-06-01","average_temperature":"13.448","city":"Santa Fe","latitude":"31.35S","longitude":"60.31W"}
{"date":"2010-12-01","average_temperature":"25.171","city":"Santa Maria","latitude":"29.74S","longitude":"53.54W"}
{"date":"2011-12-01","average_temperature":"25.248","city":"Santo Domingo","latitude":"18.48N","longitude":"69.30W"}
{"date":"2012-09-01","average_temperature":"27.75","city":"Santo Domingo","latitude":"18.48N","longitude":"69.30W"}
{"date":"2013-03-01","average_temperature":"31.003","city":"Sarh","latitude":"8.84N","longitude":"18.65E"}
{"date":"2010-09-01","average_temperature":"24.055999999999997","city":"Sari","latitude":"36.17N","longitude":"53.70E"}
{"date":"2012-09-01","average_temperature":"25.625","city":"Satara","latitude":"16.87N","longitude":"73.67E"}
{"date":"2012-04-01","average_temperature":"7.063","city":"Seattle","latitude":"47.42N","longitude":"121.97W"}
{"date":"2012-04-01","average_temperature":"27.278","city":"Sekudai","latitude":"0.80N","longitude":"103.66E"}
{"date":"2013-01-01","average_temperature":"26.836","city":"Sekudai","latitude":"0.80N","longitude":"103.66E"}
{"date":"2013-05-01","average_temperature":"16.509","city":"Setúbal","latitude":"39.38N","longitude":"8.32W"}
{"date":"2011-07-01","average_temperature":"19.343","city":"Sete Lagoas","latitude":"20.09S","longitude":"44.36W"}
{"date":"2011-06-01","average_temperature":"19.418","city":"Seversk","latitude":"57.05N","longitude":"84.10E"}
{"date":"2011-02-01","average_temperature":"0.47100000000000003","city":"Shahr E Kord","latitude":"32.95N","longitude":"50.74E"}
{"date":"2011-01-01","average_temperature":"3.918","city":"Shahrud","latitude":"36.17N","longitude":"55.69E"}
{"date":"2010-04-01","average_temperature":"16.578000000000007","city":"Shaoguan","latitude":"24.92N","longitude":"113.50E"}
{"date":"2012-09-01","average_temperature":"24.607000000000006","city":"Shaoguan","latitude":"24.92N","longitude":"113.50E"}
{"date":"2010-04-01","average_temperature":"30.534000000000002","city":"Shekhupura","latitude":"31.35N","longitude":"73.51E"}
{"date":"2012-07-01","average_temperature":"34.235","city":"Shekhupura","latitude":"31.35N","longitude":"73.51E"}
{"date":"2012-06-01","average_temperature":"20.299000000000003","city":"Shihezi","latitude":"44.20N","longitude":"84.97E"}
{"date":"2010-01-01","average_temperature":"22.115","city":"Sholapur","latitude":"18.48N","longitude":"76.06E"}
{"date":"2012-08-01","average_temperature":"25.574","city":"Shunyi","latitude":"39.38N","longitude":"116.53E"}
{"date":"2013-02-01","average_temperature":"0.973","city":"Sibiu","latitude":"45.81N","longitude":"24.23E"}
{"date":"2010-06-01","average_temperature":"17.059","city":"Siegen","latitude":"50.63N","longitude":"8.87E"}
{"date":"2012-11-01","average_temperature":"10.357000000000001","city":"Siirt","latitude":"37.78N","longitude":"42.71E"}
{"date":"2010-05-01","average_temperature":"26.036","city":"Silchar","latitude":"24.92N","longitude":"92.22E"}
{"date":"2010-07-01","average_temperature":"27.584000000000003","city":"Singkawang","latitude":"0.80N","longitude":"108.48E"}
{"date":"2013-09-01","city":"Slough","latitude":"52.24N","longitude":"0.00W"}
{"date":"2010-09-01","average_temperature":"21.01","city":"Soacha","latitude":"4.02N","longitude":"74.73W"}
{"date":"2011-04-01","average_temperature":"27.177","city":"Soc Trang","latitude":"8.84N","longitude":"106.22E"}
{"date":"2012-05-01","average_temperature":"33.623000000000005","city":"Sokoto","latitude":"13.66N","longitude":"5.78E"}
{"date":"2012-06-01","average_temperature":"15.101","city":"Solingen","latitude":"50.63N","longitude":"6.34E"}
{"date":"2013-02-01","average_temperature":"17.823999999999995","city":"Sonipat","latitude":"28.13N","longitude":"77.27E"}
{"date":"2010-11-01","average_temperature":"19.022000000000002","city":"Soweto","latitude":"26.52S","longitude":"28.66E"}
{"date":"2013-05-01","average_temperature":"27.718000000000004","city":"Spanish Town","latitude":"18.48N","longitude":"77.75W"}
{"date":"2011-08-01","average_temperature":"20.072","city":"Spokane","latitude":"47.42N","longitude":"117.24W"}
{"date":"2011-05-01","average_temperature":"18.853","city":"Spring Valley","latitude":"36.17N","longitude":"115.36W"}
{"date":"2013-05-01","average_temperature":"17.999000000000002","city":"Springfield","latitude":"37.78N","longitude":"93.56W"}
{"date":"2011-01-01","average_temperature":"-8.096","city":"Staryy Oskol","latitude":"50.63N","longitude":"36.76E"}
{"date":"2010-06-01","average_temperature":"20.563000000000002","city":"Stavropol","latitude":"44.20N","longitude":"42.48E"}
{"date":"2011-05-01","average_temperature":"13.137","city":"Stavropol","latitude":"44.20N","longitude":"42.48E"}
{"date":"2011-12-01","average_temperature":"8.01","city":"Suining","latitude":"29.74N","longitude":"105.23E"}
{"date":"2011-03-01","average_temperature":"25.11","city":"Sumedang","latitude":"7.23S","longitude":"107.84E"}
{"date":"2010-05-01","average_temperature":"27.255","city":"Surakarta","latitude":"7.23S","longitude":"111.08E"}
{"date":"2013-07-01","average_temperature":"26.377","city":"Surakarta","latitude":"7.23S","longitude":"111.08E"}
{"date":"2011-02-01","average_temperature":"22.699","city":"Surendranagar","latitude":"23.31N","longitude":"72.52E"}
{"date":"2010-02-01","average_temperature":"18.215","city":"Surt","latitude":"31.35N","longitude":"16.96E"}
{"date":"2012-11-01","average_temperature":"21.748","city":"Surt","latitude":"31.35N","longitude":"16.96E"}
{"date":"2010-03-01","average_temperature":"23.345","city":"Taboão Da Serra","latitude":"23.31S","longitude":"46.31W"}
{"date":"2011-03-01","average_temperature":"14.913999999999998","city":"Taichung","latitude":"24.92N","longitude":"120.59E"}
{"date":"2012-11-01","average_temperature":"20.0","city":"Taichung","latitude":"24.92N","longitude":"120.59E"}
{"date":"2012-07-01","average_temperature":"24.444000000000006","city":"Takasaki","latitude":"36.17N","longitude":"139.23E"}
{"date":"2013-09-01","city":"Talca","latitude":"36.17S","longitude":"71.60W"}
{"date":"2012-04-01","average_temperature":"21.638","city":"Tali","latitude":"24.92N","longitude":"120.59E"}
{"date":"2010-12-01","average_temperature":"28.313000000000002","city":"Tamale","latitude":"8.84N","longitude":"0.81W"}
{"date":"2010-10-01","average_temperature":"27.654","city":"Taman","latitude":"7.23S","longitude":"112.70E"}
{"date":"2012-02-01","average_temperature":"21.879","city":"Tandil","latitude":"37.78S","longitude":"58.98W"}
{"date":"2012-05-01","average_temperature":"21.248","city":"Tartus","latitude":"34.56N","longitude":"35.03E"}
{"date":"2010-09-01","average_temperature":"26.772","city":"Tel Aviv Yafo","latitude":"31.35N","longitude":"33.93E"}
{"date":"2012-04-01","average_temperature":"26.835","city":"Thanesar","latitude":"29.74N","longitude":"77.54E"}
{"date":"2012-07-01","average_temperature":"30.796","city":"Thanjavur","latitude":"10.45N","longitude":"79.36E"}
{"date":"2012-06-01","average_temperature":"28.612","city":"Thanyaburi","latitude":"13.66N","longitude":"101.56E"}
{"date":"2012-12-01","average_temperature":"26.986","city":"Thiruvananthapuram","latitude":"8.84N","longitude":"77.03E"}
{"date":"2013-01-01","average_temperature":"27.593000000000004","city":"Thrissur","latitude":"10.45N","longitude":"76.09E"}
{"date":"2013-01-01","average_temperature":"13.404000000000002","city":"Tijuana","latitude":"32.95N","longitude":"117.77W"}
{"date":"2010-11-01","average_temperature":"26.865","city":"Tiruchchirappalli","latitude":"10.45N","longitude":"79.36E"}
{"date":"2012-08-01","average_temperature":"31.076999999999998","city":"Tirupati","latitude":"13.66N","longitude":"80.09E"}
{"date":"2013-08-01","average_temperature":"30.513","city":"Tiruvottiyur","latitude":"13.66N","longitude":"80.09E"}
{"date":"2013-01-01","average_temperature":"-5.981","city":"Tomakomai","latitude":"42.59N","longitude":"141.82E"}
{"date":"2012-06-01","average_temperature":"21.538","city":"Toms River","latitude":"39.38N","longitude":"74.91W"}
{"date":"2011-05-01","average_temperature":"21.901","city":"Tongling","latitude":"31.35N","longitude":"118.74E"}
{"date":"2013-08-01","average_temperature":"24.98","city":"Torreón","latitude":"24.92N","longitude":"102.86W"}
{"date":"2011-08-01","average_temperature":"19.756","city":"Tunja","latitude":"5.63N","longitude":"72.65W"}
{"date":"2011-03-01","average_temperature":"9.477","city":"Turgutlu","latitude":"37.78N","longitude":"28.47E"}
{"date":"2011-03-01","average_temperature":"-1.3409999999999995","city":"Turku","latitude":"60.27N","longitude":"22.70E"}
{"date":"2011-08-01","average_temperature":"15.48","city":"Ufa","latitude":"55.45N","longitude":"56.69E"}
{"date":"2010-05-01","average_temperature":"28.357","city":"Ugep","latitude":"5.63N","longitude":"8.07E"}
{"date":"2013-09-01","city":"Uromi","latitude":"7.23N","longitude":"5.68E"}
{"date":"2011-11-01","average_temperature":"6.99","city":"Utrecht","latitude":"52.24N","longitude":"5.26E"}
{"date":"2010-11-01","average_temperature":"21.88","city":"Uvira","latitude":"4.02S","longitude":"29.73E"}
{"date":"2013-07-01","average_temperature":"23.298","city":"Várzea Grande","latitude":"15.27S","longitude":"55.83W"}
{"date":"2010-06-01","average_temperature":"31.776999999999997","city":"Vadodara","latitude":"21.70N","longitude":"73.56E"}
{"date":"2013-07-01","average_temperature":"9.755","city":"Vanderbijlpark","latitude":"26.52S","longitude":"28.66E"}
{"date":"2011-08-01","average_temperature":"21.396","city":"Varginha","latitude":"21.70S","longitude":"45.87W"}
{"date":"2011-08-01","average_temperature":"16.886","city":"Velikie Luki","latitude":"57.05N","longitude":"30.98E"}
{"date":"2012-09-01","average_temperature":"11.997","city":"Velikiy Novgorod","latitude":"58.66N","longitude":"30.77E"}
{"date":"2010-03-01","average_temperature":"23.016","city":"Viamão","latitude":"29.74S","longitude":"51.69W"}
{"date":"2010-07-01","average_temperature":"13.441","city":"Viamão","latitude":"29.74S","longitude":"51.69W"}
{"date":"2010-08-01","average_temperature":"26.812","city":"Vientiane","latitude":"18.48N","longitude":"103.10E"}
{"date":"2012-11-01","average_temperature":"18.656","city":"Villa Canales","latitude":"15.27N","longitude":"90.83W"}
{"date":"2013-02-01","average_temperature":"19.029","city":"Villa Canales","latitude":"15.27N","longitude":"90.83W"}
{"date":"2010-02-01","average_temperature":"-4.629","city":"Vilnius","latitude":"55.45N","longitude":"25.51E"}
{"date":"2010-06-01","average_temperature":"16.994","city":"Vologda","latitude":"58.66N","longitude":"40.00E"}
{"date":"2010-07-01","average_temperature":"28.592","city":"Volzhskiy","latitude":"49.03N","longitude":"44.08E"}
{"date":"2011-12-01","average_temperature":"25.659000000000002","city":"Wad Madani","latitude":"13.66N","longitude":"33.85E"}
{"date":"2012-10-01","average_temperature":"10.758","city":"Warren","latitude":"42.59N","longitude":"82.91W"}
{"date":"2012-03-01","average_temperature":"4.515","city":"Warsaw","latitude":"52.24N","longitude":"21.02E"}
{"date":"2011-01-01","average_temperature":"26.58","city":"Waru","latitude":"7.23S","longitude":"112.70E"}
{"date":"2012-02-01","average_temperature":"-1.129","city":"Weihai","latitude":"37.78N","longitude":"122.03E"}
{"date":"2012-06-01","average_temperature":"19.482","city":"Wencheng","latitude":"37.78N","longitude":"122.03E"}
{"date":"2011-05-01","average_temperature":"12.303999999999998","city":"West Bromwich","latitude":"52.24N","longitude":"2.63W"}
{"date":"2012-08-01","average_temperature":"16.572","city":"West Bromwich","latitude":"52.24N","longitude":"2.63W"}
{"date":"2013-07-01","average_temperature":"19.508","city":"Wolfsburg","latitude":"52.24N","longitude":"10.51E"}
{"date":"2012-02-01","average_temperature":"19.64","city":"Wollongong","latitude":"34.56S","longitude":"151.78E"}
{"date":"2011-03-01","average_temperature":"6.607","city":"Worcester","latitude":"52.24N","longitude":"2.63W"}
{"date":"2011-06-01","average_temperature":"18.56","city":"Worcester","latitude":"42.59N","longitude":"72.00W"}
{"date":"2011-01-01","average_temperature":"1.7559999999999998","city":"Xiangdong","latitude":"28.13N","longitude":"113.64E"}
{"date":"2012-12-01","average_temperature":"-9.229","city":"Xining","latitude":"36.17N","longitude":"101.44E"}
{"date":"2011-09-01","average_temperature":"15.659","city":"Xinxiang","latitude":"36.17N","longitude":"113.37E"}
{"date":"2012-09-01","average_temperature":"16.954","city":"Xinxiang","latitude":"36.17N","longitude":"113.37E"}
{"date":"2013-06-01","average_temperature":"21.139000000000006","city":"Xinzhou","latitude":"37.78N","longitude":"111.86E"}
{"date":"2010-08-01","average_temperature":"27.748","city":"Yaizu","latitude":"34.56N","longitude":"138.16E"}
{"date":"2010-11-01","average_temperature":"19.866","city":"Yamunanagar","latitude":"29.74N","longitude":"77.54E"}
{"date":"2010-10-01","average_temperature":"16.509999999999998","city":"Yancheng","latitude":"32.95N","longitude":"119.68E"}
{"date":"2010-02-01","average_temperature":"-10.741","city":"Yaroslavl","latitude":"57.05N","longitude":"39.84E"}
{"date":"2010-03-01","average_temperature":"-3.3520000000000003","city":"Yaroslavl","latitude":"57.05N","longitude":"39.84E"}
{"date":"2012-02-01","average_temperature":"-13.618","city":"Yaroslavl","latitude":"57.05N","longitude":"39.84E"}
{"date":"2011-01-01","average_temperature":"1.2560000000000002","city":"Yibin","latitude":"28.13N","longitude":"104.55E"}
{"date":"2010-12-01","average_temperature":"10.243","city":"Yingcheng","latitude":"24.92N","longitude":"113.50E"}
{"date":"2010-09-01","average_temperature":"23.93","city":"Yingcheng","latitude":"31.35N","longitude":"113.09E"}
{"date":"2011-12-01","average_temperature":"6.476","city":"Yokkaichi","latitude":"34.56N","longitude":"136.22E"}
{"date":"2012-08-01","average_temperature":"27.701","city":"Yokkaichi","latitude":"34.56N","longitude":"136.22E"}
{"date":"2013-01-01","average_temperature":"3.917","city":"Yokkaichi","latitude":"34.56N","longitude":"136.22E"}
{"date":"2013-09-01","city":"Yuci","latitude":"37.78N","longitude":"111.86E"}
{"date":"2012-11-01","average_temperature":"11.284","city":"Yueyang","latitude":"29.74N","longitude":"112.62E"}
{"date":"2010-06-01","average_temperature":"28.386999999999997","city":"Zamboanga","latitude":"7.23N","longitude":"122.43E"}
{"date":"2011-10-01","average_temperature":"21.82","city":"Zapopan","latitude":"20.09N","longitude":"104.08W"}
{"date":"2011-02-01","average_temperature":"-17.169","city":"Zelenodolsk","latitude":"55.45N","longitude":"48.19E"}
{"date":"2012-07-01","average_temperature":"20.989","city":"Zelenodolsk","latitude":"55.45N","longitude":"48.19E"}
{"date":"2012-11-01","average_temperature":"16.779","city":"Zhangzhou","latitude":"24.92N","longitude":"117.04E"}
{"date":"2012-04-01","average_temperature":"23.638","city":"Zhongshan","latitude":"21.70N","longitude":"113.37E"}
{"date":"2010-09-01","average_temperature":"13.357000000000001","city":"Zielona Gora","latitude":"52.24N","longitude":"15.77E"}
{"date":"2011-05-01","average_temperature":"15.153","city":"Zielona Gora","latitude":"52.24N","longitude":"15.77E"}
{"date":"2012-03-01","average_temperature":"6.728","city":"Zielona Gora","latitude":"52.24N","longitude":"15.77E"}
{"date":"2011-09-01","average_temperature":"12.013","city":"Zlatoust","latitude":"55.45N","longitude":"59.53E"}
{"date":"2013-08-01","average_temperature":"16.657","city":"Zurich","latitude":"47.42N","longitude":"8.29E"}
