{"date":"2011-10-01","average_temperature":"16.523","city":"A Coruña","latitude":"42.59N","longitude":"8.73W"}
{"date":"2012-07-01","average_temperature":"16.746000000000002","city":"Aalborg","latitude":"57.05N","longitude":"10.33E"}
{"date":"2010-11-01","average_temperature":"-3.7680000000000002","city":"Abakan","latitude":"53.84N","longitude":"91.36E"}
{"date":"2013-05-01","average_temperature":"26.956","city":"Abeokuta","latitude":"7.23N","longitude":"4.05E"}
{"date":"2012-02-01","average_temperature":"6.1880000000000015","city":"Aberdeen","latitude":"57.05N","longitude":"1.48W"}
{"date":"2010-05-01","average_temperature":"28.456999999999997","city":"Abha","latitude":"18.48N","longitude":"42.25E"}
{"date":"2011-11-01","average_temperature":"21.924","city":"Abohar","latitude":"29.74N","longitude":"73.85E"}
{"date":"2010-03-01","average_temperature":"24.757","city":"Abu Dhabi","latitude":"24.92N","longitude":"54.98E"}
{"date":"2013-05-01","average_temperature":"30.626","city":"Abu Dhabi","latitude":"24.92N","longitude":"54.98E"}
{"date":"2012-11-01","average_temperature":"27.456","city":"Accra","latitude":"5.63N","longitude":"0.00W"}
{"date":"2010-06-01","average_temperature":"26.97","city":"Adiwerna","latitude":"7.23S","longitude":"109.46E"}
{"date":"2013-04-01","average_temperature":"19.082","city":"Agadir","latitude":"29.74N","longitude":"9.23W"}
{"date":"2012-07-01","average_temperature":"25.103","city":"Agboville","latitude":"5.63N","longitude":"4.84W"}
{"date":"2011-11-01","average_temperature":"10.802999999999999","city":"Ageo","latitude":"36.17N","longitude":"139.23E"}
{"date":"2010-11-01","average_temperature":"20.836","city":"Ahmadpur East","latitude":"29.74N","longitude":"72.00E"}
{"date":"2012-01-01","average_temperature":"12.98","city":"Ahmadpur East","latitude":"29.74N","longitude":"72.00E"}
{"date":"2010-11-01","average_temperature":"11.507","city":"Akashi","latitude":"34.56N","longitude":"134.27E"}
{"date":"2011-12-01","average_temperature":"-1.231","city":"Aktau","latitude":"44.20N","longitude":"51.43E"}
{"date":"2011-05-01","average_temperature":"16.44","city":"Alcobendas","latitude":"40.99N","longitude":"4.26W"}
{"date":"2011-08-01","average_temperature":"30.504","city":"Aleppo","latitude":"36.17N","longitude":"37.79E"}
{"date":"2013-09-01","city":"Algeciras","latitude":"36.17N","longitude":"5.97W"}
{"date":"2012-08-01","average_temperature":"28.6","city":"Alor Setar","latitude":"5.63N","longitude":"100.09E"}
{"date":"2011-05-01","average_temperature":"31.909000000000002","city":"Ambala","latitude":"29.74N","longitude":"77.54E"}
{"date":"2010-02-01","average_temperature":"26.685","city":"Ambattur","latitude":"13.66N","longitude":"80.09E"}
{"date":"2012-07-01","average_temperature":"31.838","city":"Ambattur","latitude":"13.66N","longitude":"80.09E"}
{"date":"2011-11-01","average_temperature":"21.211","city":"Amritsar","latitude":"31.35N","longitude":"75.39E"}
{"date":"2011-12-01","average_temperature":"5.722","city":"Amsterdam","latitude":"52.24N","longitude":"5.26E"}
{"date":"2012-03-01","average_temperature":"-10.927","city":"Anchorage","latitude":"61.88N","longitude":"151.13W"}
{"date":"2012-10-01","average_temperature":"1.069","city":"Angarsk","latitude":"52.24N","longitude":"105.11E"}
{"date":"2010-01-01","average_temperature":"3.993","city":"Anqing","latitude":"31.35N","longitude":"116.86E"}
{"date":"2012-12-01","average_temperature":"6.162999999999999","city":"Anshun","latitude":"26.52N","longitude":"105.67E"}
{"date":"2012-08-01","average_temperature":"17.414","city":"Antsirabe","latitude":"20.09S","longitude":"47.77E"}
{"date":"2010-12-01","average_temperature":"-6.334","city":"Aqtöbe","latitude":"50.63N","longitude":"57.04E"}
{"date":"2012-01-01","average_temperature":"22.875","city":"Araras","latitude":"21.70S","longitude":"47.60W"}
{"date":"2013-05-01","average_temperature":"24.443","city":"Araruama","latitude":"23.31S","longitude":"42.82W"}
{"date":"2011-11-01","average_temperature":"13.81","city":"Arlington","latitude":"32.95N","longitude":"96.70W"}
{"date":"2012-05-01","average_temperature":"21.626","city":"Aryanah","latitude":"36.17N","longitude":"9.94E"}
{"date":"2013-03-01","average_temperature":"26.938000000000002","city":"Asansol","latitude":"23.31N","longitude":"86.50E"}
{"date":"2011-07-01","average_temperature":"23.691999999999997","city":"Asfi","latitude":"32.95N","longitude":"8.62W"}
{"date":"2013-08-01","average_temperature":"25.459000000000003","city":"Astanajapura","latitude":"7.23S","longitude":"107.84E"}
{"date":"2013-09-01","city":"Aswan","latitude":"23.31N","longitude":"32.33E"}
{"date":"2012-01-01","average_temperature":"-8.814","city":"Atyrau","latitude":"47.42N","longitude":"50.92E"}
{"date":"2012-11-01","average_temperature":"14.782","city":"Auckland","latitude":"36.17S","longitude":"175.03E"}
{"date":"2013-03-01","average_temperature":"0.7040000000000002","city":"Aurora","latitude":"40.99N","longitude":"87.34W"}
{"date":"2013-05-01","average_temperature":"27.28","city":"Awka","latitude":"5.63N","longitude":"6.46E"}
{"date":"2010-12-01","average_temperature":"24.951","city":"Babakan","latitude":"7.23S","longitude":"107.84E"}
{"date":"2013-05-01","average_temperature":"17.084999999999994","city":"Badajoz","latitude":"39.38N","longitude":"6.24W"}
{"date":"2011-04-01","average_temperature":"13.046","city":"Baglan","latitude":"36.17N","longitude":"69.61E"}
{"date":"2011-09-01","average_temperature":"29.399","city":"Bahadurgarh","latitude":"28.13N","longitude":"77.27E"}
{"date":"2013-08-01","average_temperature":"31.749","city":"Bahawalnagar","latitude":"29.74N","longitude":"73.85E"}
{"date":"2011-11-01","average_temperature":"9.475","city":"Baltimore","latitude":"39.38N","longitude":"76.99W"}
{"date":"2010-02-01","average_temperature":"20.040000000000006","city":"Banda","latitude":"24.92N","longitude":"79.80E"}
{"date":"2010-10-01","average_temperature":"26.329","city":"Banda","latitude":"24.92N","longitude":"79.80E"}
{"date":"2010-08-01","average_temperature":"24.703000000000003","city":"Bandar E Anzali","latitude":"37.78N","longitude":"48.81E"}
{"date":"2010-11-01","average_temperature":"25.4","city":"Bandundu","latitude":"4.02S","longitude":"16.88E"}
{"date":"2013-01-01","average_temperature":"17.757","city":"Bangaon","latitude":"23.31N","longitude":"88.25E"}
{"date":"2013-02-01","average_temperature":"21.982","city":"Bansbaria","latitude":"23.31N","longitude":"88.25E"}
{"date":"2011-06-01","average_temperature":"25.872","city":"Banyuwangi","latitude":"8.84S","longitude":"114.32E"}
{"date":"2010-11-01","average_temperature":"1.4240000000000002","city":"Baoding","latitude":"39.38N","longitude":"114.45E"}
{"date":"2011-11-01","average_temperature":"-5.846","city":"Baoshan","latitude":"47.42N","longitude":"131.45E"}
{"date":"2010-05-01","average_temperature":"31.308000000000003","city":"Barasat","latitude":"23.31N","longitude":"88.25E"}
{"date":"2010-05-01","average_temperature":"29.816","city":"Barisal","latitude":"23.31N","longitude":"90.00E"}
{"date":"2012-12-01","average_temperature":"-21.715999999999998","city":"Barnaul","latitude":"53.84N","longitude":"83.18E"}
{"date":"2011-11-01","average_temperature":"19.957","city":"Barra Mansa","latitude":"21.70S","longitude":"44.13W"}
{"date":"2010-04-01","average_temperature":"9.292","city":"Basildon","latitude":"52.24N","longitude":"0.00W"}
{"date":"2010-12-01","average_temperature":"-0.024000000000000018","city":"Basildon","latitude":"52.24N","longitude":"0.00W"}
{"date":"2012-02-01","average_temperature":"3.7230000000000003","city":"Basildon","latitude":"52.24N","longitude":"0.00W"}
{"date":"2013-03-01","average_temperature":"24.678","city":"Basti","latitude":"26.52N","longitude":"82.39E"}
{"date":"2011-06-01","average_temperature":"27.546","city":"Batangas","latitude":"13.66N","longitude":"121.38E"}
{"date":"2011-10-01","average_temperature":"20.055999999999997","city":"Baton Rouge","latitude":"29.74N","longitude":"90.46W"}
{"date":"2013-07-01","average_temperature":"26.928","city":"Bauchi","latitude":"10.45N","longitude":"10.64E"}
{"date":"2012-04-01","average_temperature":"26.533","city":"Bayamo","latitude":"20.09N","longitude":"76.78W"}
{"date":"2011-01-01","average_temperature":"13.802","city":"Beirut","latitude":"34.56N","longitude":"35.03E"}
{"date":"2011-02-01","average_temperature":"13.411","city":"Beirut","latitude":"34.56N","longitude":"35.03E"}
{"date":"2013-05-01","average_temperature":"24.443","city":"Belford Roxo","latitude":"23.31S","longitude":"42.82W"}
{"date":"2010-12-01","average_temperature":"24.28","city":"Belgaum","latitude":"15.27N","longitude":"74.17E"}
{"date":"2010-01-01","average_temperature":"13.157","city":"Bene Beraq","latitude":"32.95N","longitude":"35.43E"}
{"date":"2010-07-01","average_temperature":"25.048000000000002","city":"Benghazi","latitude":"32.95N","longitude":"20.11E"}
{"date":"2013-02-01","average_temperature":"20.939","city":"Benoni","latitude":"26.52S","longitude":"28.66E"}
{"date":"2012-04-01","average_temperature":"9.632","city":"Benxi","latitude":"40.99N","longitude":"123.55E"}
{"date":"2012-12-01","average_temperature":"-16.727","city":"Berezniki","latitude":"58.66N","longitude":"55.38E"}
{"date":"2011-02-01","average_temperature":"0.8909999999999999","city":"Bern","latitude":"47.42N","longitude":"8.29E"}
{"date":"2013-04-01","average_temperature":"8.968","city":"Besançon","latitude":"47.42N","longitude":"5.92E"}
{"date":"2013-08-01","average_temperature":"29.608","city":"Bhagalpur","latitude":"24.92N","longitude":"86.90E"}
{"date":"2011-02-01","average_temperature":"20.829","city":"Bhairab Bazar","latitude":"24.92N","longitude":"90.44E"}
{"date":"2011-06-01","average_temperature":"29.706","city":"Bhopal","latitude":"23.31N","longitude":"77.77E"}
{"date":"2010-09-01","average_temperature":"27.066999999999997","city":"Bidar","latitude":"18.48N","longitude":"77.75E"}
{"date":"2010-01-01","average_temperature":"3.764","city":"Bilbao","latitude":"42.59N","longitude":"2.18W"}
{"date":"2012-11-01","average_temperature":"19.261","city":"Biratnagar","latitude":"26.52N","longitude":"87.76E"}
{"date":"2012-03-01","average_temperature":"23.943","city":"Birganj","latitude":"26.52N","longitude":"84.18E"}
{"date":"2011-07-01","average_temperature":"27.162","city":"Birnin Kebbi","latitude":"12.05N","longitude":"4.93E"}
{"date":"2012-06-01","average_temperature":"28.016","city":"Birnin Kebbi","latitude":"12.05N","longitude":"4.93E"}
{"date":"2011-10-01","average_temperature":"6.211","city":"Biysk","latitude":"52.24N","longitude":"84.09E"}
{"date":"2013-05-01","average_temperature":"10.610999999999999","city":"Biysk","latitude":"52.24N","longitude":"84.09E"}
{"date":"2012-12-01","average_temperature":"3.809","city":"Blackburn","latitude":"53.84N","longitude":"1.36W"}
{"date":"2010-11-01","average_temperature":"28.664","city":"Bobo Dioulasso","latitude":"10.45N","longitude":"4.09W"}
{"date":"2013-09-01","city":"Bojnurd","latitude":"37.78N","longitude":"56.95E"}
{"date":"2012-01-01","average_temperature":"26.540000000000006","city":"Bontang","latitude":"0.80N","longitude":"118.13E"}
{"date":"2012-11-01","average_temperature":"5.646","city":"Botosani","latitude":"47.42N","longitude":"27.24E"}
{"date":"2013-01-01","average_temperature":"-3.52","city":"Botosani","latitude":"47.42N","longitude":"27.24E"}
{"date":"2010-09-01","average_temperature":"20.97","city":"Botucatu","latitude":"23.31S","longitude":"48.06W"}
{"date":"2013-08-01","average_temperature":"18.652","city":"Botucatu","latitude":"23.31S","longitude":"48.06W"}
{"date":"2012-05-01","average_temperature":"14.86","city":"Boulogne Billancourt","latitude":"49.03N","longitude":"2.45E"}
{"date":"2012-09-01","average_temperature":"22.081000000000003","city":"Bozhou","latitude":"32.95N","longitude":"115.85E"}
{"date":"2012-11-01","average_temperature":"-10.985999999999999","city":"Bratsk","latitude":"55.45N","longitude":"102.05E"}
{"date":"2012-07-01","average_temperature":"21.753","city":"Brazzaville","latitude":"4.02S","longitude":"15.27E"}
{"date":"2012-09-01","average_temperature":"16.511","city":"Brescia","latitude":"45.81N","longitude":"10.38E"}
{"date":"2010-06-01","average_temperature":"28.145000000000003","city":"Brikama","latitude":"13.66N","longitude":"17.34W"}
{"date":"2012-02-01","average_temperature":"22.585","city":"Brikama","latitude":"13.66N","longitude":"17.34W"}
{"date":"2012-05-01","average_temperature":"18.250999999999998","city":"Brisbane","latitude":"28.13S","longitude":"153.64E"}
{"date":"2011-09-01","average_temperature":"14.777999999999999","city":"Bristol","latitude":"52.24N","longitude":"2.63W"}
{"date":"2012-05-01","average_temperature":"12.009","city":"Bristol","latitude":"52.24N","longitude":"2.63W"}
{"date":"2012-01-01","average_temperature":"23.338","city":"Brits","latitude":"24.92S","longitude":"28.37E"}
{"date":"2010-05-01","average_temperature":"22.009","city":"Bukavu","latitude":"2.41S","longitude":"28.13E"}
{"date":"2013-01-01","average_temperature":"21.511999999999997","city":"Bukavu","latitude":"2.41S","longitude":"28.13E"}
{"date":"2011-07-01","average_temperature":"36.969","city":"Buraydah","latitude":"26.52N","longitude":"44.78E"}
{"date":"2013-02-01","average_temperature":"5.761","city":"Bursa","latitude":"39.38N","longitude":"29.13E"}
{"date":"2013-09-01","city":"Bushehr","latitude":"29.74N","longitude":"51.69E"}
{"date":"2013-08-01","average_temperature":"18.935","city":"Bydgoszcz","latitude":"53.84N","longitude":"17.73E"}
{"date":"2012-01-01","average_temperature":"-1.101","city":"Bytom","latitude":"50.63N","longitude":"19.01E"}
{"date":"2011-02-01","average_temperature":"27.383000000000006","city":"Cabimas","latitude":"10.45N","longitude":"71.18W"}
{"date":"2010-03-01","average_temperature":"31.591","city":"Calabozo","latitude":"8.84N","longitude":"67.30W"}
{"date":"2012-12-01","average_temperature":"27.971","city":"Calabozo","latitude":"8.84N","longitude":"67.30W"}
{"date":"2013-09-01","city":"Cali","latitude":"4.02N","longitude":"76.34W"}
{"date":"2012-11-01","average_temperature":"2.938","city":"Cambridge","latitude":"42.59N","longitude":"72.00W"}
{"date":"2012-10-01","average_temperature":"26.529","city":"Campeche","latitude":"20.09N","longitude":"90.43W"}
{"date":"2010-01-01","average_temperature":"25.057","city":"Campo Grande","latitude":"20.09S","longitude":"54.60W"}
{"date":"2011-08-01","average_temperature":"28.592","city":"Cape Coral","latitude":"26.52N","longitude":"82.39W"}
{"date":"2012-07-01","average_temperature":"27.857000000000006","city":"Carolina","latitude":"18.48N","longitude":"65.92W"}
{"date":"2013-02-01","average_temperature":"25.544","city":"Carrefour","latitude":"18.48N","longitude":"72.68W"}
{"date":"2010-09-01","average_temperature":"28.728","city":"Cartagena","latitude":"10.45N","longitude":"76.09W"}
{"date":"2011-09-01","average_temperature":"28.213","city":"Caucaia","latitude":"4.02S","longitude":"39.38W"}
{"date":"2013-07-01","average_temperature":"26.945999999999998","city":"Caucaia","latitude":"4.02S","longitude":"39.38W"}
{"date":"2013-06-01","average_temperature":"28.178","city":"Cebu","latitude":"10.45N","longitude":"123.55E"}
{"date":"2013-05-01","average_temperature":"21.309","city":"Celaya","latitude":"20.09N","longitude":"100.66W"}
{"date":"2012-11-01","average_temperature":"23.487","city":"Champdani","latitude":"23.31N","longitude":"88.25E"}
{"date":"2010-11-01","average_temperature":"5.4639999999999995","city":"Chelmsford","latitude":"52.24N","longitude":"0.00W"}
{"date":"2013-02-01","average_temperature":"-5.449","city":"Cherepovets","latitude":"58.66N","longitude":"36.92E"}
{"date":"2013-07-01","average_temperature":"17.689","city":"Cherepovets","latitude":"58.66N","longitude":"36.92E"}
{"date":"2011-07-01","average_temperature":"22.118","city":"Cherkasy","latitude":"49.03N","longitude":"31.84E"}
{"date":"2013-09-01","city":"Chernihiv","latitude":"52.24N","longitude":"31.53E"}
{"date":"2010-12-01","average_temperature":"-4.533","city":"Chernivtsi","latitude":"49.03N","longitude":"26.94E"}
{"date":"2010-03-01","average_temperature":"10.754","city":"Chesapeake","latitude":"36.17N","longitude":"75.58W"}
{"date":"2013-01-01","average_temperature":"19.643","city":"Chillan","latitude":"36.17S","longitude":"71.60W"}
{"date":"2010-11-01","average_temperature":"17.599","city":"Chincha Alta","latitude":"13.66S","longitude":"76.79W"}
{"date":"2011-02-01","average_temperature":"14.507","city":"Christchurch","latitude":"44.20S","longitude":"172.17E"}
{"date":"2012-01-01","average_temperature":"25.043000000000003","city":"Cicalengka","latitude":"7.23S","longitude":"107.84E"}
{"date":"2011-07-01","average_temperature":"24.856","city":"Cimahi","latitude":"7.23S","longitude":"107.84E"}
{"date":"2011-08-01","average_temperature":"25.154","city":"Cimahi","latitude":"7.23S","longitude":"107.84E"}
{"date":"2012-06-01","average_temperature":"25.409000000000002","city":"Ciparay","latitude":"7.23S","longitude":"107.84E"}
{"date":"2010-07-01","average_temperature":"25.267","city":"Cirebon","latitude":"7.23S","longitude":"107.84E"}
{"date":"2010-09-01","average_temperature":"18.62","city":"Cleveland","latitude":"40.99N","longitude":"80.95W"}
{"date":"2010-05-01","average_temperature":"15.738","city":"Cluj Napoca","latitude":"47.42N","longitude":"22.50E"}
{"date":"2010-11-01","average_temperature":"17.610000000000007","city":"Cochabamba","latitude":"16.87S","longitude":"66.98W"}
{"date":"2013-02-01","average_temperature":"9.108","city":"Coimbra","latitude":"40.99N","longitude":"8.52W"}
{"date":"2013-06-01","average_temperature":"18.317999999999998","city":"Coimbra","latitude":"40.99N","longitude":"8.52W"}
{"date":"2012-12-01","average_temperature":"25.180999999999997","city":"Concordia","latitude":"31.35S","longitude":"58.43W"}
{"date":"2013-08-01","average_temperature":"15.712","city":"Cork","latitude":"52.24N","longitude":"7.88W"}
{"date":"2011-01-01","average_temperature":"23.737","city":"Coronel Fabriciano","latitude":"20.09S","longitude":"42.65W"}
{"date":"2010-03-01","average_temperature":"14.462","city":"Costa Mesa","latitude":"32.95N","longitude":"117.77W"}
{"date":"2010-10-01","average_temperature":"17.777","city":"Costa Mesa","latitude":"32.95N","longitude":"117.77W"}
{"date":"2010-06-01","average_temperature":"27.688000000000002","city":"Cotabato","latitude":"7.23N","longitude":"124.05E"}
{"date":"2011-11-01","average_temperature":"28.475","city":"Cotonou","latitude":"7.23N","longitude":"2.43E"}
{"date":"2012-05-01","average_temperature":"12.009","city":"Coventry","latitude":"52.24N","longitude":"2.63W"}
{"date":"2013-01-01","average_temperature":"5.984","city":"Crawley","latitude":"50.63N","longitude":"1.27W"}
{"date":"2013-09-01","city":"Crawley","latitude":"50.63N","longitude":"1.27W"}
{"date":"2011-04-01","average_temperature":"26.531","city":"Cumaná","latitude":"10.45N","longitude":"64.64W"}
{"date":"2012-04-01","average_temperature":"11.508","city":"Cusco","latitude":"13.66S","longitude":"71.83W"}
{"date":"2010-03-01","average_temperature":"3.5989999999999998","city":"Czestochowa","latitude":"50.63N","longitude":"19.01E"}
{"date":"2010-12-01","average_temperature":"27.091","city":"Dadiangas","latitude":"5.63N","longitude":"125.92E"}
{"date":"2013-05-01","average_temperature":"27.680000000000003","city":"Dagupan","latitude":"16.87N","longitude":"120.56E"}
{"date":"2011-06-01","average_temperature":"31.524","city":"Dahuk","latitude":"36.17N","longitude":"43.76E"}
{"date":"2011-07-01","average_temperature":"28.902","city":"Daliang","latitude":"23.31N","longitude":"112.72E"}
{"date":"2013-01-01","average_temperature":"13.348","city":"Danshui","latitude":"23.31N","longitude":"114.47E"}
{"date":"2011-10-01","average_temperature":"25.721","city":"Darbhanga","latitude":"26.52N","longitude":"85.97E"}
{"date":"2013-08-01","average_temperature":"26.639","city":"Darjiling","latitude":"26.52N","longitude":"87.76E"}
{"date":"2010-07-01","average_temperature":"20.723000000000003","city":"Darmstadt","latitude":"50.63N","longitude":"8.87E"}
{"date":"2011-07-01","average_temperature":"24.916","city":"Dawukou","latitude":"39.38N","longitude":"106.13E"}
{"date":"2013-02-01","average_temperature":"16.367","city":"Dehra Dun","latitude":"29.74N","longitude":"77.54E"}
{"date":"2010-09-01","average_temperature":"28.612","city":"Delhi","latitude":"28.13N","longitude":"77.27E"}
{"date":"2013-03-01","average_temperature":"2.4019999999999997","city":"Denver","latitude":"39.38N","longitude":"104.05W"}
{"date":"2010-11-01","average_temperature":"26.879","city":"Depok","latitude":"5.63S","longitude":"106.55E"}
{"date":"2010-06-01","average_temperature":"32.573","city":"Dewas","latitude":"23.31N","longitude":"76.02E"}
{"date":"2012-02-01","average_temperature":"5.273","city":"Dezful","latitude":"32.95N","longitude":"48.83E"}
{"date":"2011-03-01","average_temperature":"8.64","city":"Dezhou","latitude":"37.78N","longitude":"115.93E"}
{"date":"2011-02-01","average_temperature":"19.262","city":"Dhaulpur","latitude":"26.52N","longitude":"77.01E"}
{"date":"2011-05-01","average_temperature":"26.685","city":"Digos","latitude":"7.23N","longitude":"125.68E"}
{"date":"2013-01-01","average_temperature":"16.151","city":"Dinajpur","latitude":"24.92N","longitude":"88.67E"}
{"date":"2012-07-01","average_temperature":"37.812","city":"Doha","latitude":"24.92N","longitude":"51.43E"}
{"date":"2010-07-01","average_temperature":"28.229","city":"Dongtai","latitude":"32.95N","longitude":"119.68E"}
{"date":"2011-10-01","average_temperature":"16.833","city":"Dongtai","latitude":"32.95N","longitude":"119.68E"}
{"date":"2010-02-01","average_temperature":"27.67","city":"Douala","latitude":"4.02N","longitude":"10.45E"}
{"date":"2010-09-01","average_temperature":"24.274","city":"Douala","latitude":"4.02N","longitude":"10.45E"}
{"date":"2012-07-01","average_temperature":"23.206","city":"Douala","latitude":"4.02N","longitude":"10.45E"}
{"date":"2013-06-01","average_temperature":"24.554","city":"Douala","latitude":"4.02N","longitude":"10.45E"}
{"date":"2013-04-01","average_temperature":"23.004","city":"Dourados","latitude":"21.70S","longitude":"54.52W"}
{"date":"2013-07-01","average_temperature":"19.762999999999998","city":"Dourados","latitude":"21.70S","longitude":"54.52W"}
{"date":"2010-08-01","average_temperature":"23.545","city":"Downey","latitude":"34.56N","longitude":"118.70W"}
{"date":"2013-05-01","average_temperature":"18.612000000000002","city":"Durham","latitude":"36.17N","longitude":"79.56W"}
{"date":"2012-04-01","average_temperature":"7.2570000000000014","city":"Dzerzhinsk","latitude":"57.05N","longitude":"42.79E"}
{"date":"2012-12-01","average_temperature":"25.643","city":"El Limón","latitude":"10.45N","longitude":"67.91W"}
{"date":"2012-06-01","average_temperature":"26.364","city":"El Progreso","latitude":"15.27N","longitude":"87.50W"}
{"date":"2013-06-01","average_temperature":"27.021","city":"El Tigre","latitude":"8.84N","longitude":"64.05W"}
{"date":"2012-12-01","average_temperature":"-4.2040000000000015","city":"Elblag","latitude":"53.84N","longitude":"20.45E"}
{"date":"2010-02-01","average_temperature":"22.903000000000002","city":"Eldoret","latitude":"0.80N","longitude":"34.55E"}
{"date":"2012-03-01","average_temperature":"0.8840000000000001","city":"Elista","latitude":"45.81N","longitude":"45.00E"}
{"date":"2012-06-01","average_temperature":"25.283","city":"Elista","latitude":"45.81N","longitude":"45.00E"}
{"date":"2010-08-01","average_temperature":"22.67","city":"Elizabeth","latitude":"40.99N","longitude":"74.56W"}
{"date":"2011-05-01","average_temperature":"33.624","city":"Eluru","latitude":"16.87N","longitude":"80.37E"}
{"date":"2012-10-01","average_temperature":"9.95","city":"Emmen","latitude":"52.24N","longitude":"7.88E"}
{"date":"2012-12-01","average_temperature":"3.353","city":"Enschede","latitude":"52.24N","longitude":"7.88E"}
{"date":"2010-08-01","average_temperature":"19.864","city":"Envigado","latitude":"5.63N","longitude":"75.87W"}
{"date":"2012-04-01","average_temperature":"9.147","city":"Erlangen","latitude":"49.03N","longitude":"9.80E"}
{"date":"2013-06-01","average_temperature":"16.635","city":"Erlangen","latitude":"49.03N","longitude":"9.80E"}
{"date":"2011-07-01","average_temperature":"25.057","city":"Erode","latitude":"12.05N","longitude":"77.26E"}
{"date":"2011-09-01","average_temperature":"20.784000000000002","city":"Escuintla","latitude":"15.27N","longitude":"90.83W"}
{"date":"2010-09-01","average_temperature":"21.0","city":"Esenyurt","latitude":"40.99N","longitude":"27.69E"}
{"date":"2010-12-01","average_temperature":"-2.423","city":"Essen","latitude":"50.63N","longitude":"6.34E"}
{"date":"2011-02-01","average_temperature":"3.556","city":"Essen","latitude":"50.63N","longitude":"6.34E"}
{"date":"2012-10-01","average_temperature":"13.639000000000001","city":"Evansville","latitude":"37.78N","longitude":"87.46W"}
{"date":"2012-01-01","average_temperature":"1.951","city":"Fürth","latitude":"49.03N","longitude":"9.80E"}
{"date":"2011-09-01","average_temperature":"29.188000000000002","city":"Farrukhabad","latitude":"28.13N","longitude":"79.09E"}
{"date":"2010-11-01","average_temperature":"26.837","city":"Feira De Santana","latitude":"12.05S","longitude":"39.45W"}
{"date":"2013-09-01","city":"Feira De Santana","latitude":"12.05S","longitude":"39.45W"}
{"date":"2013-04-01","average_temperature":"23.286","city":"Fernando De La Mora","latitude":"24.92S","longitude":"56.75W"}
{"date":"2010-10-01","average_temperature":"19.398","city":"Ferraz De Vasconcelos","latitude":"23.31S","longitude":"46.31W"}
{"date":"2011-11-01","average_temperature":"8.224","city":"Forlì","latitude":"44.20N","longitude":"11.18E"}
{"date":"2010-02-01","average_temperature":"15.479","city":"Fort Lauderdale","latitude":"26.52N","longitude":"80.60W"}
{"date":"2013-02-01","average_temperature":"19.834","city":"Fort Lauderdale","latitude":"26.52N","longitude":"80.60W"}
{"date":"2013-07-01","average_temperature":"27.245","city":"Fortaleza","latitude":"4.02S","longitude":"40.98W"}
{"date":"2011-04-01","average_temperature":"22.879","city":"Foshan","latitude":"23.31N","longitude":"112.72E"}
{"date":"2010-08-01","average_temperature":"16.811999999999998","city":"Frankfurt","latitude":"50.63N","longitude":"8.87E"}
{"date":"2012-02-01","average_temperature":"12.38","city":"Fresnillo","latitude":"23.31N","longitude":"102.23W"}
{"date":"2011-02-01","average_temperature":"8.667","city":"Fujinomiya","latitude":"34.56N","longitude":"138.16E"}
{"date":"2013-08-01","average_temperature":"27.773000000000003","city":"Fujinomiya","latitude":"34.56N","longitude":"138.16E"}
{"date":"2012-09-01","average_temperature":"23.275","city":"Fukaya","latitude":"36.17N","longitude":"139.23E"}
{"date":"2013-03-01","average_temperature":"-2.98","city":"Göteborg","latitude":"58.66N","longitude":"12.31E"}
{"date":"2010-08-01","average_temperature":"24.683000000000003","city":"Gangawati","latitude":"15.27N","longitude":"75.83E"}
{"date":"2012-03-01","average_temperature":"25.89","city":"Garanhuns","latitude":"8.84S","longitude":"36.49W"}
{"date":"2012-12-01","average_temperature":"9.887","city":"Garland","latitude":"32.95N","longitude":"96.70W"}
{"date":"2013-09-01","city":"Garut","latitude":"7.23S","longitude":"107.84E"}
{"date":"2011-10-01","average_temperature":"15.4","city":"Gaziantep","latitude":"37.78N","longitude":"36.61E"}
{"date":"2013-07-01","average_temperature":"25.498","city":"Gaziantep","latitude":"37.78N","longitude":"36.61E"}
{"date":"2011-09-01","average_temperature":"25.77","city":"Gbongan","latitude":"7.23N","longitude":"4.05E"}
{"date":"2013-05-01","average_temperature":"12.267999999999999","city":"Gelsenkirchen","latitude":"52.24N","longitude":"7.88E"}
{"date":"2013-03-01","average_temperature":"3.42","city":"Geneva","latitude":"45.81N","longitude":"5.77E"}
{"date":"2013-05-01","average_temperature":"11.629000000000001","city":"Getafe","latitude":"40.99N","longitude":"4.26W"}
{"date":"2011-08-01","average_temperature":"28.877","city":"Ghazipur","latitude":"24.92N","longitude":"83.35E"}
{"date":"2011-01-01","average_temperature":"25.991","city":"Girón","latitude":"7.23N","longitude":"73.78W"}
{"date":"2010-12-01","average_temperature":"23.776","city":"Goiânia","latitude":"16.87S","longitude":"48.56W"}
{"date":"2012-03-01","average_temperature":"17.529","city":"Grand Prairie","latitude":"32.95N","longitude":"96.70W"}
{"date":"2013-02-01","average_temperature":"10.199","city":"Grand Prairie","latitude":"32.95N","longitude":"96.70W"}
{"date":"2010-01-01","average_temperature":"24.374000000000002","city":"Gravataí","latitude":"29.74S","longitude":"51.69W"}
{"date":"2010-02-01","average_temperature":"6.2360000000000015","city":"Guangshui","latitude":"31.35N","longitude":"113.09E"}
{"date":"2010-03-01","average_temperature":"25.438000000000002","city":"Guantánamo","latitude":"20.09N","longitude":"75.07W"}
{"date":"2013-09-01","city":"Guaratinguetá","latitude":"23.31S","longitude":"44.56W"}
{"date":"2013-04-01","average_temperature":"25.98","city":"Guarenas","latitude":"10.45N","longitude":"66.27W"}
{"date":"2011-04-01","average_temperature":"22.467","city":"Guayaquil","latitude":"2.41S","longitude":"79.55W"}
{"date":"2012-07-01","average_temperature":"24.626","city":"Guiyang","latitude":"26.52N","longitude":"107.46E"}
{"date":"2010-09-01","average_temperature":"26.269000000000002","city":"Gusau","latitude":"12.05N","longitude":"6.58E"}
{"date":"2013-07-01","average_temperature":"22.976999999999997","city":"Gyor","latitude":"47.42N","longitude":"17.76E"}
{"date":"2013-07-01","average_temperature":"24.320999999999998","city":"Haibowan","latitude":"39.38N","longitude":"106.13E"}
{"date":"2010-06-01","average_temperature":"28.399","city":"Haikou","latitude":"20.09N","longitude":"110.90E"}
{"date":"2013-09-01","city":"Hailar","latitude":"49.03N","longitude":"120.00E"}
{"date":"2010-09-01","average_temperature":"29.15","city":"Haldia","latitude":"21.70N","longitude":"87.40E"}
{"date":"2010-02-01","average_temperature":"-1.258","city":"Halle","latitude":"50.63N","longitude":"11.41E"}
{"date":"2011-05-01","average_temperature":"13.940999999999999","city":"Hamilton","latitude":"42.59N","longitude":"80.73W"}
{"date":"2011-12-01","average_temperature":"-2.764","city":"Hangu","latitude":"39.38N","longitude":"118.61E"}
{"date":"2010-08-01","average_temperature":"24.146","city":"Hanzhong","latitude":"32.95N","longitude":"106.28E"}
{"date":"2012-05-01","average_temperature":"15.530999999999999","city":"Heilbronn","latitude":"49.03N","longitude":"9.80E"}
{"date":"2010-04-01","average_temperature":"15.248","city":"Hengyang","latitude":"26.52N","longitude":"112.84E"}
{"date":"2011-01-01","average_temperature":"1.4330000000000005","city":"Hengyang","latitude":"26.52N","longitude":"112.84E"}
{"date":"2011-08-01","average_temperature":"26.726","city":"Henzada","latitude":"16.87N","longitude":"95.44E"}
{"date":"2010-12-01","average_temperature":"7.487","city":"Hirakata","latitude":"34.56N","longitude":"136.22E"}
{"date":"2011-06-01","average_temperature":"21.085","city":"Hiratsuka","latitude":"36.17N","longitude":"139.23E"}
{"date":"2011-02-01","average_temperature":"0.18199999999999966","city":"Hirosaki","latitude":"40.99N","longitude":"140.59E"}
{"date":"2013-07-01","average_temperature":"21.673","city":"Hirosaki","latitude":"40.99N","longitude":"140.59E"}
{"date":"2012-01-01","average_temperature":"4.238","city":"Hitachi","latitude":"36.17N","longitude":"141.22E"}
{"date":"2011-05-01","average_temperature":"18.483","city":"Hofu","latitude":"34.56N","longitude":"132.32E"}
{"date":"2011-10-01","average_temperature":"27.333000000000002","city":"Holguín","latitude":"20.09N","longitude":"76.78W"}
{"date":"2013-01-01","average_temperature":"-3.952","city":"Horlivka","latitude":"49.03N","longitude":"39.18E"}
{"date":"2012-01-01","average_temperature":"22.358","city":"Hortolândia","latitude":"23.31S","longitude":"48.06W"}
{"date":"2010-12-01","average_temperature":"22.719","city":"Hosur","latitude":"12.05N","longitude":"77.26E"}
{"date":"2011-12-01","average_temperature":"23.001","city":"Hosur","latitude":"12.05N","longitude":"77.26E"}
{"date":"2012-04-01","average_temperature":"28.699","city":"Hosur","latitude":"12.05N","longitude":"77.26E"}
{"date":"2011-10-01","average_temperature":"7.101","city":"Hrodna","latitude":"53.84N","longitude":"23.18E"}
{"date":"2010-10-01","average_temperature":"5.547000000000001","city":"Huadian","latitude":"42.59N","longitude":"126.55E"}
{"date":"2011-08-01","average_temperature":"7.0440000000000005","city":"Huancayo","latitude":"12.05S","longitude":"75.62W"}
{"date":"2012-08-01","average_temperature":"7.189","city":"Huancayo","latitude":"12.05S","longitude":"75.62W"}
{"date":"2010-11-01","average_temperature":"19.504","city":"Huangpu","latitude":"23.31N","longitude":"112.72E"}
{"date":"2011-10-01","average_temperature":"19.726","city":"Huangyan","latitude":"28.13N","longitude":"120.91E"}
{"date":"2013-07-01","average_temperature":"29.482000000000006","city":"Hue","latitude":"16.87N","longitude":"107.16E"}
{"date":"2010-12-01","average_temperature":"-17.757","city":"Hulan","latitude":"45.81N","longitude":"125.77E"}
{"date":"2010-04-01","average_temperature":"29.387","city":"Ibadan","latitude":"7.23N","longitude":"4.05E"}
{"date":"2012-02-01","average_temperature":"11.935","city":"Ica","latitude":"13.66S","longitude":"75.14W"}
{"date":"2012-03-01","average_temperature":"26.476","city":"Ichalkaranji","latitude":"16.87N","longitude":"73.67E"}
{"date":"2013-07-01","average_temperature":"26.915000000000006","city":"Ichinomiya","latitude":"34.56N","longitude":"136.22E"}
{"date":"2012-08-01","average_temperature":"24.756999999999998","city":"Ife","latitude":"7.23N","longitude":"4.05E"}
{"date":"2012-11-01","average_temperature":"7.513","city":"Iida","latitude":"36.17N","longitude":"137.24E"}
{"date":"2012-05-01","average_temperature":"27.061999999999998","city":"Ikire","latitude":"7.23N","longitude":"4.05E"}
{"date":"2013-04-01","average_temperature":"13.069","city":"Inazawa","latitude":"34.56N","longitude":"136.22E"}
{"date":"2012-08-01","average_temperature":"26.362","city":"Iquitos","latitude":"4.02S","longitude":"73.13W"}
{"date":"2012-06-01","average_temperature":"13.673","city":"Irkutsk","latitude":"52.24N","longitude":"105.11E"}
{"date":"2013-04-01","average_temperature":"-0.5299999999999999","city":"Irkutsk","latitude":"52.24N","longitude":"105.11E"}
{"date":"2012-12-01","average_temperature":"2.9609999999999994","city":"Iruma","latitude":"36.17N","longitude":"139.23E"}
{"date":"2013-07-01","average_temperature":"31.053","city":"Islamabad","latitude":"32.95N","longitude":"73.72E"}
{"date":"2013-02-01","average_temperature":"16.365000000000002","city":"Ismailia","latitude":"31.35N","longitude":"32.04E"}
{"date":"2012-10-01","average_temperature":"15.505999999999998","city":"Isparta","latitude":"37.78N","longitude":"30.51E"}
{"date":"2012-08-01","average_temperature":"20.269","city":"Itagüí","latitude":"5.63N","longitude":"75.87W"}
{"date":"2012-03-01","average_temperature":"-5.779","city":"Izhevsk","latitude":"57.05N","longitude":"54.59E"}
{"date":"2010-07-01","average_temperature":"35.497","city":"Jacobabad","latitude":"28.13N","longitude":"68.18E"}
{"date":"2011-06-01","average_temperature":"28.348000000000006","city":"Jalna","latitude":"20.09N","longitude":"75.07E"}
{"date":"2011-08-01","average_temperature":"28.221","city":"Jamalpur","latitude":"24.92N","longitude":"90.44E"}
{"date":"2011-03-01","average_temperature":"29.99","city":"Jamame","latitude":"0.80N","longitude":"42.59E"}
{"date":"2012-06-01","average_temperature":"24.924","city":"Jammu","latitude":"32.95N","longitude":"75.64E"}
{"date":"2012-07-01","average_temperature":"28.721999999999998","city":"Jamuria","latitude":"23.31N","longitude":"86.50E"}
{"date":"2010-05-01","average_temperature":"18.679000000000002","city":"Jandira","latitude":"23.31S","longitude":"46.31W"}
{"date":"2012-02-01","average_temperature":"10.434","city":"Jaramana","latitude":"32.95N","longitude":"35.43E"}
{"date":"2011-08-01","average_temperature":"29.349","city":"Jaunpur","latitude":"26.52N","longitude":"82.39E"}
{"date":"2010-07-01","average_temperature":"25.454","city":"Ji Paraná","latitude":"10.45S","longitude":"61.36W"}
{"date":"2010-06-01","average_temperature":"26.379","city":"Jiangmen","latitude":"23.31N","longitude":"112.72E"}
{"date":"2010-07-01","average_temperature":"21.763","city":"Jiaohe","latitude":"44.20N","longitude":"127.45E"}
{"date":"2011-09-01","average_temperature":"20.118","city":"Jiaozhou","latitude":"36.17N","longitude":"119.34E"}
{"date":"2013-07-01","average_temperature":"28.717","city":"Jiazi","latitude":"23.31N","longitude":"116.21E"}
{"date":"2010-07-01","average_temperature":"33.296","city":"Jiddah","latitude":"21.70N","longitude":"38.94E"}
{"date":"2011-04-01","average_temperature":"31.596999999999998","city":"Jimeta","latitude":"8.84N","longitude":"12.16E"}
{"date":"2011-05-01","average_temperature":"21.884","city":"Jimma","latitude":"7.23N","longitude":"36.49E"}
{"date":"2013-02-01","average_temperature":"1.614","city":"Jinan","latitude":"36.17N","longitude":"117.35E"}
{"date":"2010-08-01","average_temperature":"22.173000000000002","city":"Jiutai","latitude":"44.20N","longitude":"125.22E"}
{"date":"2012-08-01","average_temperature":"29.779000000000003","city":"Jodhpur","latitude":"26.52N","longitude":"73.43E"}
{"date":"2012-05-01","average_temperature":"13.32","city":"Johannesburg","latitude":"26.52S","longitude":"28.66E"}
{"date":"2010-06-01","average_temperature":"23.247","city":"Joliet","latitude":"40.99N","longitude":"87.34W"}
{"date":"2011-05-01","average_temperature":"28.142000000000003","city":"Jos","latitude":"10.45N","longitude":"9.00E"}
{"date":"2013-01-01","average_temperature":"27.412000000000006","city":"Juazeiro Do Norte","latitude":"7.23S","longitude":"39.73W"}
{"date":"2012-05-01","average_temperature":"17.679000000000002","city":"Juiz De Fora","latitude":"21.70S","longitude":"44.13W"}
{"date":"2013-03-01","average_temperature":"22.456999999999997","city":"Kabwe","latitude":"13.66S","longitude":"28.90E"}
{"date":"2012-06-01","average_temperature":"19.828","city":"Kakamigahara","latitude":"36.17N","longitude":"137.24E"}
{"date":"2011-03-01","average_temperature":"22.333000000000002","city":"Kalemie","latitude":"5.63S","longitude":"29.06E"}
{"date":"2010-12-01","average_temperature":"-2.067","city":"Kaliningrad","latitude":"55.45N","longitude":"19.84E"}
{"date":"2011-11-01","average_temperature":"12.546","city":"Kallithéa","latitude":"37.78N","longitude":"24.41E"}
{"date":"2010-03-01","average_temperature":"6.103","city":"Kamagaya","latitude":"36.17N","longitude":"139.23E"}
{"date":"2010-08-01","average_temperature":"27.873","city":"Kamakura","latitude":"34.56N","longitude":"140.11E"}
{"date":"2010-08-01","average_temperature":"25.85","city":"Kandi","latitude":"10.45N","longitude":"2.45E"}
{"date":"2010-01-01","average_temperature":"13.147","city":"Kanpur","latitude":"26.52N","longitude":"80.60E"}
{"date":"2010-11-01","average_temperature":"22.199","city":"Kaohsiung","latitude":"23.31N","longitude":"119.71E"}
{"date":"2010-06-01","average_temperature":"23.984","city":"Karamay","latitude":"45.81N","longitude":"84.23E"}
{"date":"2011-05-01","average_temperature":"17.977999999999998","city":"Karamay","latitude":"45.81N","longitude":"84.23E"}
{"date":"2013-02-01","average_temperature":"-12.938","city":"Karamay","latitude":"45.81N","longitude":"84.23E"}
{"date":"2012-07-01","average_temperature":"24.444000000000006","city":"Kashiwa","latitude":"36.17N","longitude":"139.23E"}
{"date":"2011-10-01","average_temperature":"15.488","city":"Kasukabe","latitude":"36.17N","longitude":"139.23E"}
{"date":"2012-08-01","average_temperature":"29.739","city":"Katihar","latitude":"24.92N","longitude":"86.90E"}
{"date":"2010-12-01","average_temperature":"21.831999999999997","city":"Katumba","latitude":"8.84S","longitude":"33.24E"}
{"date":"2011-10-01","average_temperature":"22.980999999999998","city":"Katumba","latitude":"8.84S","longitude":"33.24E"}
{"date":"2011-08-01","average_temperature":"25.978","city":"Kedungwuni","latitude":"7.23S","longitude":"109.46E"}
{"date":"2011-12-01","average_temperature":"26.749000000000002","city":"Kemang","latitude":"7.23S","longitude":"106.22E"}
{"date":"2010-06-01","average_temperature":"22.335","city":"Kerch","latitude":"45.81N","longitude":"35.77E"}
{"date":"2012-06-01","average_temperature":"19.149","city":"Khabarovsk","latitude":"49.03N","longitude":"134.69E"}
{"date":"2010-09-01","average_temperature":"28.336","city":"Khammam","latitude":"16.87N","longitude":"80.37E"}
{"date":"2012-06-01","average_temperature":"36.15000000000001","city":"Khanewal","latitude":"29.74N","longitude":"72.00E"}
{"date":"2013-06-01","average_temperature":"29.969","city":"Kharagpur","latitude":"21.70N","longitude":"87.40E"}
{"date":"2011-08-01","average_temperature":"21.563000000000002","city":"Kherson","latitude":"47.42N","longitude":"31.97E"}
{"date":"2010-01-01","average_temperature":"0.21700000000000053","city":"Khoy","latitude":"37.78N","longitude":"44.75E"}
{"date":"2011-05-01","average_temperature":"12.154000000000002","city":"Kingston Upon Hull","latitude":"53.84N","longitude":"1.36W"}
{"date":"2013-07-01","average_temperature":"22.146","city":"Kinshasa","latitude":"4.02S","longitude":"15.27E"}
{"date":"2010-11-01","average_temperature":"15.414000000000001","city":"Kirkuk","latitude":"36.17N","longitude":"43.76E"}
{"date":"2012-04-01","average_temperature":"6.715999999999998","city":"Kirov","latitude":"58.66N","longitude":"49.23E"}
{"date":"2011-06-01","average_temperature":"25.615","city":"Kisangani","latitude":"0.80N","longitude":"24.91E"}
{"date":"2012-12-01","average_temperature":"25.101","city":"Kisangani","latitude":"0.80N","longitude":"24.91E"}
{"date":"2011-03-01","average_temperature":"24.826","city":"Kisaran","latitude":"2.41N","longitude":"98.84E"}
{"date":"2010-02-01","average_temperature":"30.769000000000002","city":"Kishi","latitude":"8.84N","longitude":"4.05E"}
{"date":"2010-08-01","average_temperature":"28.454","city":"Kishiwada","latitude":"34.56N","longitude":"136.22E"}
{"date":"2012-05-01","average_temperature":"19.66","city":"Kitwe","latitude":"12.05S","longitude":"27.95E"}
{"date":"2013-03-01","average_temperature":"22.449","city":"Kitwe","latitude":"12.05S","longitude":"27.95E"}
{"date":"2013-02-01","average_temperature":"26.447000000000006","city":"Kluang","latitude":"2.41N","longitude":"103.66E"}
{"date":"2011-02-01","average_temperature":"5.939","city":"Kobe","latitude":"34.56N","longitude":"134.27E"}
{"date":"2013-04-01","average_temperature":"12.478","city":"Kobe","latitude":"34.56N","longitude":"134.27E"}
{"date":"2011-09-01","average_temperature":"16.04","city":"Koblenz","latitude":"50.63N","longitude":"6.34E"}
{"date":"2013-09-01","city":"Kolar","latitude":"13.66N","longitude":"78.44E"}
{"date":"2011-02-01","average_temperature":"1.766","city":"Koriyama","latitude":"37.78N","longitude":"140.34E"}
{"date":"2012-09-01","average_temperature":"23.386999999999997","city":"Koriyama","latitude":"37.78N","longitude":"140.34E"}
{"date":"2010-07-01","average_temperature":"27.485","city":"Korla","latitude":"40.99N","longitude":"85.21E"}
{"date":"2013-08-01","average_temperature":"24.552","city":"Krasnodar","latitude":"45.81N","longitude":"38.08E"}
{"date":"2012-12-01","average_temperature":"-24.353","city":"Krasnoyarsk","latitude":"55.45N","longitude":"93.54E"}
{"date":"2010-05-01","average_temperature":"28.49","city":"Kresek","latitude":"5.63S","longitude":"106.55E"}
{"date":"2013-08-01","average_temperature":"27.563","city":"Kuala Lumpur","latitude":"2.41N","longitude":"102.05E"}
{"date":"2011-10-01","average_temperature":"26.4","city":"Kulti","latitude":"23.31N","longitude":"86.50E"}
{"date":"2011-05-01","average_temperature":"28.380000000000006","city":"Kumasi","latitude":"7.23N","longitude":"0.81W"}
{"date":"2012-12-01","average_temperature":"26.535999999999998","city":"Kumbakonam","latitude":"10.45N","longitude":"79.36E"}
{"date":"2011-08-01","average_temperature":"27.79","city":"Kure","latitude":"34.56N","longitude":"132.32E"}
{"date":"2011-02-01","average_temperature":"-11.919","city":"Kursk","latitude":"52.24N","longitude":"36.79E"}
{"date":"2011-04-01","average_temperature":"32.448","city":"Kusti","latitude":"13.66N","longitude":"32.20E"}
{"date":"2010-05-01","average_temperature":"19.471","city":"Kwekwe","latitude":"18.48S","longitude":"30.42E"}
{"date":"2010-05-01","average_temperature":"20.14","city":"López Mateos","latitude":"20.09N","longitude":"98.96W"}
{"date":"2012-03-01","average_temperature":"25.623","city":"La Romana","latitude":"18.48N","longitude":"69.30W"}
{"date":"2011-05-01","average_temperature":"25.925","city":"La Vega","latitude":"18.48N","longitude":"70.99W"}
{"date":"2010-05-01","average_temperature":"26.011","city":"Lafayette","latitude":"29.74N","longitude":"92.31W"}
{"date":"2012-01-01","average_temperature":"15.12","city":"Lafayette","latitude":"29.74N","longitude":"92.31W"}
{"date":"2011-07-01","average_temperature":"25.234","city":"Lafia","latitude":"8.84N","longitude":"8.92E"}
{"date":"2012-07-01","average_temperature":"34.235","city":"Lahore","latitude":"31.35N","longitude":"73.51E"}
{"date":"2013-05-01","average_temperature":"21.306","city":"Laiwu","latitude":"36.17N","longitude":"117.35E"}
{"date":"2011-03-01","average_temperature":"22.877","city":"Lakhimpur","latitude":"28.13N","longitude":"80.91E"}
{"date":"2011-09-01","average_temperature":"28.005000000000006","city":"Lakhimpur","latitude":"28.13N","longitude":"80.91E"}
{"date":"2013-04-01","average_temperature":"27.076","city":"Lakhimpur","latitude":"28.13N","longitude":"80.91E"}
{"date":"2010-08-01","average_temperature":"27.849","city":"Lalitpur","latitude":"24.92N","longitude":"78.03E"}
{"date":"2012-11-01","average_temperature":"13.902999999999999","city":"Lancaster","latitude":"34.56N","longitude":"118.70W"}
{"date":"2013-09-01","city":"Langfang","latitude":"39.38N","longitude":"116.53E"}
{"date":"2010-09-01","average_temperature":"22.296999999999997","city":"Laohekou","latitude":"32.95N","longitude":"112.02E"}
{"date":"2011-04-01","average_temperature":"27.910999999999998","city":"Lapu Lapu","latitude":"10.45N","longitude":"123.55E"}
{"date":"2010-01-01","average_temperature":"18.659","city":"Las Palmas","latitude":"28.13N","longitude":"15.45W"}
{"date":"2011-04-01","average_temperature":"26.889","city":"Lawang","latitude":"7.23S","longitude":"112.70E"}
{"date":"2013-09-01","city":"Leninsk Kuznetskiy","latitude":"53.84N","longitude":"85.91E"}
{"date":"2012-09-01","average_temperature":"13.822","city":"Liège","latitude":"50.63N","longitude":"6.34E"}
{"date":"2010-07-01","average_temperature":"25.446","city":"Lincoln","latitude":"40.99N","longitude":"95.86W"}
{"date":"2013-01-01","average_temperature":"26.631","city":"Lira","latitude":"2.41N","longitude":"32.95E"}
{"date":"2011-06-01","average_temperature":"16.47","city":"Longjing","latitude":"42.59N","longitude":"128.73E"}
{"date":"2011-02-01","average_temperature":"18.136","city":"Loni","latitude":"28.13N","longitude":"77.27E"}
{"date":"2011-07-01","average_temperature":"8.099","city":"Los Angeles","latitude":"37.78S","longitude":"73.22W"}
{"date":"2011-05-01","average_temperature":"14.984000000000002","city":"Lowell","latitude":"42.59N","longitude":"72.00W"}
{"date":"2013-09-01","average_temperature":"15.883","city":"Lowell","latitude":"42.59N","longitude":"72.00W"}
{"date":"2012-12-01","average_temperature":"23.288","city":"Luanshya","latitude":"13.66S","longitude":"28.90E"}
{"date":"2010-07-01","average_temperature":"21.27","city":"Lublin","latitude":"50.63N","longitude":"21.55E"}
{"date":"2010-12-01","average_temperature":"-5.156000000000001","city":"Lublin","latitude":"50.63N","longitude":"21.55E"}
{"date":"2010-09-01","average_temperature":"13.204","city":"Mülheim","latitude":"50.63N","longitude":"6.34E"}
{"date":"2010-04-01","average_temperature":"9.319","city":"Maastricht","latitude":"50.63N","longitude":"6.34E"}
{"date":"2013-07-01","average_temperature":"28.732000000000006","city":"Maba","latitude":"24.92N","longitude":"113.50E"}
{"date":"2013-02-01","average_temperature":"26.501","city":"Macapá","latitude":"0.80N","longitude":"50.63W"}
{"date":"2010-08-01","average_temperature":"26.738000000000003","city":"Madanapalle","latitude":"13.66N","longitude":"78.44E"}
{"date":"2011-12-01","average_temperature":"19.767000000000003","city":"Madhyamgram","latitude":"23.31N","longitude":"88.25E"}
{"date":"2010-04-01","average_temperature":"12.155999999999999","city":"Madison","latitude":"42.59N","longitude":"89.45W"}
{"date":"2010-07-01","average_temperature":"28.493000000000002","city":"Maiduguri","latitude":"12.05N","longitude":"13.15E"}
{"date":"2012-12-01","average_temperature":"27.093000000000004","city":"Makurdi","latitude":"7.23N","longitude":"8.92E"}
{"date":"2013-05-01","average_temperature":"27.87","city":"Malambo","latitude":"10.45N","longitude":"74.45W"}
{"date":"2011-11-01","average_temperature":"23.416999999999998","city":"Malegaon","latitude":"20.09N","longitude":"75.07E"}
{"date":"2012-07-01","average_temperature":"16.944000000000006","city":"Malmö","latitude":"55.45N","longitude":"14.17E"}
{"date":"2011-05-01","average_temperature":"34.106","city":"Mandsaur","latitude":"24.92N","longitude":"74.48E"}
{"date":"2010-09-01","average_temperature":"24.739","city":"Mangaluru","latitude":"13.66N","longitude":"75.14E"}
{"date":"2012-03-01","average_temperature":"28.311","city":"Mangaluru","latitude":"13.66N","longitude":"75.14E"}
{"date":"2011-01-01","average_temperature":"24.081999999999997","city":"Manzanillo","latitude":"20.09N","longitude":"76.78W"}
{"date":"2010-08-01","average_temperature":"28.805","city":"Maracaibo","latitude":"10.45N","longitude":"71.18W"}
{"date":"2011-08-01","average_temperature":"27.49","city":"Maracanaú","latitude":"4.02S","longitude":"39.38W"}
{"date":"2012-09-01","average_temperature":"27.891","city":"Maradi","latitude":"13.66N","longitude":"7.43E"}
{"date":"2013-03-01","average_temperature":"31.811","city":"Maradi","latitude":"13.66N","longitude":"7.43E"}
{"date":"2013-07-01","average_temperature":"18.316","city":"Maringá","latitude":"23.31S","longitude":"51.55W"}
{"date":"2011-08-01","average_temperature":"27.146","city":"Marivan","latitude":"36.17N","longitude":"45.75E"}
{"date":"2013-07-01","average_temperature":"24.093000000000004","city":"Marseille","latitude":"42.59N","longitude":"6.55E"}
{"date":"2012-02-01","average_temperature":"26.785","city":"Martapura","latitude":"4.02S","longitude":"114.91E"}
{"date":"2012-12-01","average_temperature":"26.853","city":"Martapura","latitude":"4.02S","longitude":"114.91E"}
{"date":"2011-05-01","average_temperature":"18.11","city":"Matsubara","latitude":"34.56N","longitude":"136.22E"}
{"date":"2010-06-01","average_temperature":"29.072","city":"Metairie","latitude":"29.74N","longitude":"90.46W"}
{"date":"2010-10-01","average_temperature":"21.488000000000003","city":"Metairie","latitude":"29.74N","longitude":"90.46W"}
{"date":"2012-02-01","average_temperature":"-1.859","city":"Metz","latitude":"49.03N","longitude":"7.35E"}
{"date":"2010-01-01","average_temperature":"14.772999999999998","city":"Miami","latitude":"26.52N","longitude":"80.60W"}
{"date":"2010-07-01","average_temperature":"27.474","city":"Mianyang","latitude":"31.35N","longitude":"105.55E"}
{"date":"2013-05-01","average_temperature":"10.322000000000001","city":"Middlesbrough","latitude":"53.84N","longitude":"1.36W"}
{"date":"2012-05-01","average_temperature":"11.883","city":"Milan","latitude":"45.81N","longitude":"8.08E"}
{"date":"2010-02-01","average_temperature":"21.276","city":"Minatitlán","latitude":"18.48N","longitude":"94.65W"}
{"date":"2013-05-01","average_temperature":"21.306","city":"Mingshui","latitude":"36.17N","longitude":"117.35E"}
{"date":"2010-12-01","average_temperature":"26.045","city":"Miri","latitude":"4.02N","longitude":"113.30E"}
{"date":"2013-07-01","average_temperature":"27.566","city":"Miyakonojo","latitude":"31.35N","longitude":"131.94E"}
{"date":"2011-06-01","average_temperature":"28.611","city":"Mobile","latitude":"31.35N","longitude":"88.59W"}
{"date":"2012-05-01","average_temperature":"27.321","city":"Monterrey","latitude":"26.52N","longitude":"100.30W"}
{"date":"2012-11-01","average_temperature":"11.005","city":"Montgomery","latitude":"32.95N","longitude":"87.13W"}
{"date":"2010-01-01","average_temperature":"24.204","city":"Mopti","latitude":"15.27N","longitude":"4.17W"}
{"date":"2013-02-01","average_temperature":"18.257","city":"Morena","latitude":"26.52N","longitude":"78.81E"}
{"date":"2010-08-01","average_temperature":"25.368","city":"Mormugao","latitude":"15.27N","longitude":"74.17E"}
{"date":"2012-06-01","average_temperature":"26.849","city":"Mormugao","latitude":"15.27N","longitude":"74.17E"}
{"date":"2011-10-01","average_temperature":"29.289","city":"Mossoró","latitude":"5.63S","longitude":"37.13W"}
{"date":"2010-10-01","average_temperature":"27.109","city":"Moundou","latitude":"8.84N","longitude":"15.41E"}
{"date":"2012-06-01","average_temperature":"16.994","city":"Mudanjiang","latitude":"44.20N","longitude":"129.69E"}
{"date":"2012-07-01","average_temperature":"21.088","city":"Mudanjiang","latitude":"44.20N","longitude":"129.69E"}
{"date":"2012-07-01","average_temperature":"16.395","city":"Mulhouse","latitude":"47.42N","longitude":"8.29E"}
{"date":"2010-07-01","average_temperature":"14.889000000000001","city":"Murmansk","latitude":"68.31N","longitude":"34.70E"}
{"date":"2013-06-01","average_temperature":"19.561","city":"Murom","latitude":"55.45N","longitude":"42.52E"}
{"date":"2010-04-01","average_temperature":"31.994","city":"Muzaffargarh","latitude":"29.74N","longitude":"72.00E"}
{"date":"2012-02-01","average_temperature":"24.189","city":"Mwanza","latitude":"2.41S","longitude":"32.95E"}
{"date":"2012-10-01","average_temperature":"28.078000000000003","city":"Nadiad","latitude":"23.31N","longitude":"72.52E"}
{"date":"2010-11-01","average_temperature":"13.368","city":"Nador","latitude":"34.56N","longitude":"3.89W"}
{"date":"2012-05-01","average_temperature":"20.495","city":"Nador","latitude":"34.56N","longitude":"3.89W"}
{"date":"2011-03-01","average_temperature":"26.476000000000006","city":"Naga","latitude":"13.66N","longitude":"123.03E"}
{"date":"2013-02-01","average_temperature":"20.548000000000002","city":"Nagda","latitude":"23.31N","longitude":"76.02E"}
{"date":"2011-01-01","average_temperature":"26.027","city":"Nakhon Si Thammarat","latitude":"8.84N","longitude":"99.73E"}
{"date":"2013-02-01","average_temperature":"18.209","city":"Nakuru","latitude":"0.80S","longitude":"36.16E"}
{"date":"2011-11-01","average_temperature":"-2.806","city":"Nalchik","latitude":"42.59N","longitude":"43.64E"}
{"date":"2010-02-01","average_temperature":"26.463","city":"Nalgonda","latitude":"16.87N","longitude":"78.70E"}
{"date":"2011-02-01","average_temperature":"25.243","city":"Nalgonda","latitude":"16.87N","longitude":"78.70E"}
{"date":"2012-08-01","average_temperature":"28.54","city":"Nam Dinh","latitude":"20.09N","longitude":"105.78E"}
{"date":"2013-06-01","average_temperature":"31.476","city":"Nandyal","latitude":"15.27N","longitude":"79.17E"}
{"date":"2013-08-01","average_temperature":"30.493","city":"Nantong","latitude":"31.35N","longitude":"120.63E"}
{"date":"2010-08-01","average_temperature":"26.84","city":"Nantou","latitude":"23.31N","longitude":"121.46E"}
{"date":"2012-01-01","average_temperature":"6.0950000000000015","city":"Nashville","latitude":"36.17N","longitude":"87.51W"}
{"date":"2011-10-01","average_temperature":"15.218","city":"Naucalpan","latitude":"20.09N","longitude":"98.96W"}
{"date":"2011-10-01","average_temperature":"28.097","city":"Navadwip","latitude":"23.31N","longitude":"88.25E"}
{"date":"2011-04-01","average_temperature":"19.149","city":"Navoi","latitude":"39.38N","longitude":"64.51E"}
{"date":"2011-06-01","average_temperature":"36.076","city":"Nawabshah","latitude":"26.52N","longitude":"68.06E"}
{"date":"2012-04-01","average_temperature":"12.065","city":"Nevinnomyssk","latitude":"44.20N","longitude":"42.48E"}
{"date":"2012-03-01","average_temperature":"21.103","city":"New Orleans","latitude":"29.74N","longitude":"90.46W"}
{"date":"2012-12-01","average_temperature":"20.35","city":"Newcastle","latitude":"28.13S","longitude":"30.00E"}
{"date":"2013-05-01","average_temperature":"18.358","city":"Neyagawa","latitude":"34.56N","longitude":"136.22E"}
{"date":"2010-12-01","average_temperature":"22.49","city":"Nguru","latitude":"13.66N","longitude":"10.73E"}
{"date":"2012-06-01","average_temperature":"31.945999999999998","city":"Niamey","latitude":"13.66N","longitude":"2.48E"}
{"date":"2010-03-01","average_temperature":"16.090999999999998","city":"Nicolás Romero","latitude":"20.09N","longitude":"98.96W"}
{"date":"2012-04-01","average_temperature":"26.042","city":"Nilópolis","latitude":"23.31S","longitude":"42.82W"}
{"date":"2010-11-01","average_temperature":"9.228","city":"Nis","latitude":"42.59N","longitude":"21.82E"}
{"date":"2010-11-01","average_temperature":"0.7199999999999998","city":"Nizhnekamsk","latitude":"55.45N","longitude":"51.02E"}
{"date":"2010-03-01","average_temperature":"-5.095","city":"Nizhniy Tagil","latitude":"57.05N","longitude":"60.49E"}
{"date":"2012-06-01","average_temperature":"26.566999999999997","city":"Nnewi","latitude":"5.63N","longitude":"6.46E"}
{"date":"2013-09-01","average_temperature":"24.601","city":"Nogales","latitude":"31.35N","longitude":"111.20W"}
{"date":"2011-07-01","average_temperature":"28.277","city":"Nonthaburi","latitude":"13.66N","longitude":"99.91E"}
{"date":"2013-08-01","average_temperature":"17.791","city":"Norwich","latitude":"52.24N","longitude":"0.00W"}
{"date":"2010-07-01","average_temperature":"18.881","city":"Nova Friburgo","latitude":"21.70S","longitude":"42.40W"}
{"date":"2011-12-01","average_temperature":"26.454","city":"Nsukka","latitude":"7.23N","longitude":"7.30E"}
{"date":"2013-08-01","average_temperature":"25.382","city":"Nukus","latitude":"42.59N","longitude":"58.91E"}
{"date":"2011-11-01","average_temperature":"13.571","city":"Ogaki","latitude":"34.56N","longitude":"136.22E"}
{"date":"2010-02-01","average_temperature":"28.336","city":"Okrika","latitude":"4.02N","longitude":"7.23E"}
{"date":"2012-07-01","average_temperature":"17.677","city":"Oldenburg","latitude":"52.24N","longitude":"7.88E"}
{"date":"2010-06-01","average_temperature":"28.514","city":"Olongapo","latitude":"15.27N","longitude":"120.83E"}
{"date":"2013-04-01","average_temperature":"27.879","city":"Ondo","latitude":"7.23N","longitude":"4.05E"}
{"date":"2011-08-01","average_temperature":"26.422","city":"Opobo","latitude":"4.02N","longitude":"7.23E"}
{"date":"2010-09-01","average_temperature":"12.595999999999998","city":"Opole","latitude":"50.63N","longitude":"19.01E"}
{"date":"2011-08-01","average_temperature":"19.398","city":"Opole","latitude":"50.63N","longitude":"19.01E"}
{"date":"2011-02-01","average_temperature":"-11.919","city":"Orël","latitude":"52.24N","longitude":"36.79E"}
{"date":"2013-03-01","average_temperature":"24.366","city":"Orai","latitude":"26.52N","longitude":"78.81E"}
{"date":"2011-01-01","average_temperature":"-5.55","city":"Orsha","latitude":"53.84N","longitude":"31.36E"}
{"date":"2011-02-01","average_temperature":"-9.869","city":"Orsha","latitude":"53.84N","longitude":"31.36E"}
{"date":"2012-11-01","average_temperature":"8.718","city":"Ota","latitude":"36.17N","longitude":"139.23E"}
{"date":"2012-11-01","average_temperature":"23.714","city":"Pôrto Seguro","latitude":"16.87S","longitude":"38.51W"}
{"date":"2011-03-01","average_temperature":"8.065","city":"Padova","latitude":"45.81N","longitude":"12.69E"}
{"date":"2011-02-01","average_temperature":"16.683","city":"Pakpattan","latitude":"29.74N","longitude":"73.85E"}
{"date":"2011-10-01","average_temperature":"27.496","city":"Pali","latitude":"26.52N","longitude":"73.43E"}
{"date":"2012-08-01","average_temperature":"22.641","city":"Pamplona","latitude":"42.59N","longitude":"2.18W"}
{"date":"2011-11-01","average_temperature":"27.179","city":"Pamulang","latitude":"5.63S","longitude":"106.55E"}
{"date":"2011-11-01","average_temperature":"24.11","city":"Panihati","latitude":"23.31N","longitude":"88.25E"}
{"date":"2013-03-01","average_temperature":"24.221","city":"Paranaguá","latitude":"24.92S","longitude":"47.88W"}
{"date":"2012-01-01","average_temperature":"5.867000000000001","city":"Paris","latitude":"49.03N","longitude":"2.45E"}
{"date":"2011-07-01","average_temperature":"27.73","city":"Parnaíba","latitude":"2.41S","longitude":"40.98W"}
{"date":"2013-08-01","average_temperature":"25.459000000000003","city":"Paseh","latitude":"7.23S","longitude":"107.84E"}
{"date":"2011-10-01","average_temperature":"28.151999999999997","city":"Patan","latitude":"23.31N","longitude":"72.52E"}
{"date":"2011-09-01","average_temperature":"26.790000000000006","city":"Pate","latitude":"24.92N","longitude":"120.59E"}
{"date":"2013-06-01","average_temperature":"24.287","city":"Pathankot","latitude":"32.95N","longitude":"75.64E"}
{"date":"2011-06-01","average_temperature":"26.343000000000004","city":"Pati","latitude":"7.23S","longitude":"111.08E"}
{"date":"2012-09-01","average_temperature":"16.227","city":"Pavlohrad","latitude":"49.03N","longitude":"36.73E"}
{"date":"2011-09-01","average_temperature":"25.21","city":"Payakumbuh","latitude":"0.80S","longitude":"100.45E"}
{"date":"2013-01-01","average_temperature":"26.49","city":"Pekalongan","latitude":"7.23S","longitude":"109.46E"}
{"date":"2013-05-01","average_temperature":"27.215","city":"Pekalongan","latitude":"7.23S","longitude":"109.46E"}
{"date":"2010-10-01","average_temperature":"3.265","city":"Penza","latitude":"53.84N","longitude":"45.00E"}
{"date":"2010-03-01","average_temperature":"21.241","city":"Pereira","latitude":"5.63N","longitude":"75.87W"}
{"date":"2011-04-01","average_temperature":"21.203000000000003","city":"Petapa","latitude":"15.27N","longitude":"90.83W"}
{"date":"2012-12-01","average_temperature":"26.051","city":"Petrópolis","latitude":"23.31S","longitude":"42.82W"}
{"date":"2010-03-01","average_temperature":"29.934","city":"Phnum Pénh","latitude":"12.05N","longitude":"105.21E"}
{"date":"2010-11-01","average_temperature":"16.224","city":"Pietermaritzburg","latitude":"29.74S","longitude":"29.54E"}
{"date":"2010-01-01","average_temperature":"13.819","city":"Pilibhit","latitude":"28.13N","longitude":"79.09E"}
{"date":"2013-08-01","average_temperature":"18.215","city":"Pindamonhangaba","latitude":"23.31S","longitude":"46.31W"}
{"date":"2010-02-01","average_temperature":"-0.77","city":"Pingliang","latitude":"36.17N","longitude":"107.40E"}
{"date":"2013-03-01","average_temperature":"5.766","city":"Pitesti","latitude":"44.20N","longitude":"24.60E"}
{"date":"2011-12-01","average_temperature":"2.628","city":"Plock","latitude":"52.24N","longitude":"18.39E"}
{"date":"2013-06-01","average_temperature":"18.086","city":"Plock","latitude":"52.24N","longitude":"18.39E"}
{"date":"2012-03-01","average_temperature":"24.441000000000006","city":"Ponce","latitude":"18.48N","longitude":"65.92W"}
{"date":"2013-06-01","average_temperature":"13.825","city":"Poole","latitude":"50.63N","longitude":"1.27W"}
{"date":"2012-05-01","average_temperature":"23.921","city":"Port Louis","latitude":"20.09S","longitude":"58.01E"}
{"date":"2011-11-01","average_temperature":"26.453000000000007","city":"Port Moresby","latitude":"8.84S","longitude":"146.76E"}
{"date":"2012-08-01","average_temperature":"29.101","city":"Portmore","latitude":"18.48N","longitude":"76.06W"}
{"date":"2012-06-01","average_temperature":"12.655999999999999","city":"Preston","latitude":"53.84N","longitude":"1.36W"}
{"date":"2011-04-01","average_temperature":"6.559","city":"Provo","latitude":"39.38N","longitude":"112.37W"}
{"date":"2011-10-01","average_temperature":"11.890999999999998","city":"Pueblo","latitude":"37.78N","longitude":"103.73W"}
{"date":"2012-01-01","average_temperature":"16.173000000000002","city":"Puerto Montt","latitude":"40.99S","longitude":"72.43W"}
{"date":"2010-06-01","average_temperature":"27.883000000000006","city":"Puerto Plata","latitude":"20.09N","longitude":"69.95W"}
{"date":"2010-08-01","average_temperature":"28.732000000000006","city":"Puerto Vallarta","latitude":"20.09N","longitude":"105.78W"}
{"date":"2013-02-01","average_temperature":"26.842","city":"Purwokerto","latitude":"7.23S","longitude":"109.46E"}
{"date":"2011-06-01","average_temperature":"17.683","city":"Pyatigorsk","latitude":"44.20N","longitude":"42.48E"}
{"date":"2013-05-01","average_temperature":"25.978","city":"Qingyuan","latitude":"23.31N","longitude":"112.72E"}
{"date":"2011-03-01","average_temperature":"9.599","city":"Quchan","latitude":"37.78N","longitude":"58.98E"}
{"date":"2013-08-01","average_temperature":"19.557000000000002","city":"Radom","latitude":"50.63N","longitude":"21.55E"}
{"date":"2010-09-01","average_temperature":"28.54","city":"Rae Bareli","latitude":"26.52N","longitude":"80.60E"}
{"date":"2012-04-01","average_temperature":"15.68","city":"Rafsanjan","latitude":"29.74N","longitude":"55.38E"}
{"date":"2011-01-01","average_temperature":"19.297","city":"Raigarh","latitude":"21.70N","longitude":"83.94E"}
{"date":"2010-02-01","average_temperature":"23.506","city":"Raipur","latitude":"21.70N","longitude":"82.21E"}
{"date":"2010-08-01","average_temperature":"28.805","city":"Rajamahendri","latitude":"16.87N","longitude":"82.05E"}
{"date":"2012-06-01","average_temperature":"30.489","city":"Rajshahi","latitude":"24.92N","longitude":"88.67E"}
{"date":"2010-05-01","average_temperature":"22.451","city":"Ramat Gan","latitude":"32.95N","longitude":"35.43E"}
{"date":"2010-08-01","average_temperature":"25.756999999999998","city":"Rancaekek","latitude":"7.23S","longitude":"107.84E"}
{"date":"2010-01-01","average_temperature":"21.56","city":"Randfontein","latitude":"26.52S","longitude":"26.87E"}
{"date":"2010-09-01","average_temperature":"27.288","city":"Ratlam","latitude":"23.31N","longitude":"74.27E"}
{"date":"2013-09-01","city":"Ravenna","latitude":"44.20N","longitude":"11.18E"}
{"date":"2012-11-01","average_temperature":"28.343000000000004","city":"Rayong","latitude":"12.05N","longitude":"101.92E"}
{"date":"2013-01-01","average_temperature":"11.709","city":"Reggio Di Calabria","latitude":"37.78N","longitude":"16.27E"}
{"date":"2012-05-01","average_temperature":"14.508","city":"Remscheid","latitude":"50.63N","longitude":"6.34E"}
{"date":"2012-02-01","average_temperature":"4.998","city":"Reno","latitude":"39.38N","longitude":"120.69W"}
{"date":"2013-02-01","average_temperature":"4.662","city":"Reno","latitude":"39.38N","longitude":"120.69W"}
{"date":"2010-07-01","average_temperature":"14.362","city":"Resistencia","latitude":"28.13S","longitude":"59.09W"}
{"date":"2010-11-01","average_temperature":"11.181","city":"Rialto","latitude":"34.56N","longitude":"116.76W"}
{"date":"2012-01-01","average_temperature":"9.993","city":"Richmond","latitude":"37.78N","longitude":"122.03W"}
{"date":"2011-08-01","average_temperature":"23.325","city":"Rio De Janeiro","latitude":"23.31S","longitude":"42.82W"}
{"date":"2013-09-01","city":"Riobamba","latitude":"2.41S","longitude":"77.95W"}
{"date":"2010-07-01","average_temperature":"37.603","city":"Riyadh","latitude":"24.92N","longitude":"46.11E"}
{"date":"2012-07-01","average_temperature":"37.859","city":"Riyadh","latitude":"24.92N","longitude":"46.11E"}
{"date":"2010-10-01","average_temperature":"16.817999999999998","city":"Rosario","latitude":"32.95S","longitude":"60.32W"}
{"date":"2010-06-01","average_temperature":"24.156999999999996","city":"Rostov Na Donu","latitude":"47.42N","longitude":"39.08E"}
{"date":"2013-06-01","average_temperature":"20.642","city":"Ruiru","latitude":"0.80S","longitude":"37.77E"}
{"date":"2012-05-01","average_temperature":"13.282","city":"Rybinsk","latitude":"58.66N","longitude":"40.00E"}
{"date":"2012-06-01","average_temperature":"19.269000000000002","city":"São José","latitude":"28.13S","longitude":"48.18W"}
{"date":"2012-12-01","average_temperature":"24.51","city":"São José Dos Campos","latitude":"23.31S","longitude":"46.31W"}
{"date":"2010-04-01","average_temperature":"20.855","city":"São Vicente","latitude":"23.31S","longitude":"46.31W"}
{"date":"2013-01-01","average_temperature":"8.32","city":"Sacramento","latitude":"37.78N","longitude":"122.03W"}
{"date":"2010-02-01","average_temperature":"21.095","city":"Sagar","latitude":"23.31N","longitude":"79.51E"}
{"date":"2010-08-01","average_temperature":"17.555999999999997","city":"Saint Étienne","latitude":"45.81N","longitude":"3.46E"}
{"date":"2010-03-01","average_temperature":"7.754","city":"Saint Louis","latitude":"39.38N","longitude":"89.48W"}
{"date":"2010-09-01","average_temperature":"20.785","city":"Saint Louis","latitude":"39.38N","longitude":"89.48W"}
{"date":"2010-03-01","average_temperature":"6.933","city":"Salem","latitude":"44.20N","longitude":"122.98W"}
{"date":"2010-02-01","average_temperature":"11.079999999999998","city":"Salinas","latitude":"36.17N","longitude":"121.33W"}
{"date":"2010-12-01","average_temperature":"11.447","city":"Saltillo","latitude":"24.92N","longitude":"101.08W"}
{"date":"2010-12-01","average_temperature":"25.675","city":"Salto","latitude":"31.35S","longitude":"58.43W"}
{"date":"2010-12-01","average_temperature":"-5.307","city":"Salzburg","latitude":"47.42N","longitude":"13.03E"}
{"date":"2010-04-01","average_temperature":"6.68","city":"Samara","latitude":"53.84N","longitude":"50.45E"}
{"date":"2012-04-01","average_temperature":"11.869000000000002","city":"Samara","latitude":"53.84N","longitude":"50.45E"}
{"date":"2013-02-01","average_temperature":"23.226","city":"Sambalpur","latitude":"21.70N","longitude":"83.94E"}
{"date":"2013-07-01","average_temperature":"28.945999999999998","city":"San Antonio","latitude":"29.74N","longitude":"97.85W"}
{"date":"2010-08-01","average_temperature":"22.079","city":"San Cristóbal","latitude":"7.23N","longitude":"72.16W"}
{"date":"2013-09-01","average_temperature":"21.391","city":"San Diego","latitude":"32.95N","longitude":"117.77W"}
{"date":"2012-02-01","average_temperature":"26.764","city":"San Fernando","latitude":"15.27N","longitude":"120.83E"}
{"date":"2012-06-01","average_temperature":"25.744","city":"San José","latitude":"10.45N","longitude":"84.27W"}
{"date":"2013-07-01","average_temperature":"27.37","city":"San Miguelito","latitude":"8.84N","longitude":"80.27W"}
{"date":"2013-05-01","average_temperature":"27.081000000000003","city":"San Pédro","latitude":"5.63N","longitude":"6.46W"}
{"date":"2013-07-01","average_temperature":"18.090999999999998","city":"San Pablo De Las Salinas","latitude":"20.09N","longitude":"98.96W"}
{"date":"2010-01-01","average_temperature":"25.092","city":"San Pedro","latitude":"13.66N","longitude":"121.38E"}
{"date":"2011-07-01","average_temperature":"28.156","city":"Sanchung","latitude":"24.92N","longitude":"120.59E"}
{"date":"2010-02-01","average_temperature":"22.899","city":"Sancti Spíritus","latitude":"21.70N","longitude":"78.75W"}
{"date":"2011-11-01","average_temperature":"17.201","city":"Sanming","latitude":"26.52N","longitude":"118.21E"}
{"date":"2013-07-01","average_temperature":"20.656999999999996","city":"Santa Clara","latitude":"37.78N","longitude":"122.03W"}
{"date":"2012-09-01","average_temperature":"24.745","city":"Santa Clarita","latitude":"34.56N","longitude":"118.70W"}
{"date":"2012-08-01","average_temperature":"28.689","city":"Santiago De Cuba","latitude":"20.09N","longitude":"75.07W"}
{"date":"2013-05-01","average_temperature":"18.317","city":"Santos","latitude":"23.31S","longitude":"46.31W"}
{"date":"2013-04-01","average_temperature":"6.497999999999999","city":"Saransk","latitude":"53.84N","longitude":"45.00E"}
{"date":"2010-02-01","average_temperature":"31.0","city":"Sarh","latitude":"8.84N","longitude":"18.65E"}
{"date":"2012-11-01","average_temperature":"28.035999999999998","city":"Sarh","latitude":"8.84N","longitude":"18.65E"}
{"date":"2012-11-01","average_temperature":"-8.18","city":"Saskatoon","latitude":"52.24N","longitude":"107.74W"}
{"date":"2013-08-01","average_temperature":"27.432","city":"Semnan","latitude":"36.17N","longitude":"53.70E"}
{"date":"2011-09-01","average_temperature":"28.505","city":"Serekunda","latitude":"13.66N","longitude":"17.34W"}
{"date":"2013-03-01","average_temperature":"28.334","city":"Seremban","latitude":"2.41N","longitude":"102.05E"}
{"date":"2010-12-01","average_temperature":"23.813","city":"Sete Lagoas","latitude":"20.09S","longitude":"44.36W"}
{"date":"2010-08-01","average_temperature":"27.546999999999997","city":"Seto","latitude":"36.17N","longitude":"137.24E"}
{"date":"2010-04-01","average_temperature":"12.684000000000001","city":"Shahe","latitude":"36.17N","longitude":"115.36E"}
{"date":"2010-08-01","average_temperature":"25.948","city":"Shahe","latitude":"36.17N","longitude":"115.36E"}
{"date":"2013-04-01","average_temperature":"28.980999999999998","city":"Shahjahanpur","latitude":"28.13N","longitude":"79.09E"}
{"date":"2013-01-01","average_temperature":"4.211","city":"Shahreza","latitude":"31.35N","longitude":"52.77E"}
{"date":"2012-08-01","average_temperature":"29.229","city":"Shahrud","latitude":"36.17N","longitude":"55.69E"}
{"date":"2010-11-01","average_temperature":"12.591","city":"Shaoxing","latitude":"29.74N","longitude":"120.00E"}
{"date":"2010-12-01","average_temperature":"16.669999999999998","city":"Shiliguri","latitude":"26.52N","longitude":"87.76E"}
{"date":"2011-09-01","average_temperature":"24.658","city":"Shinyanga","latitude":"4.02S","longitude":"32.95E"}
{"date":"2012-11-01","average_temperature":"23.487","city":"Shrirampur","latitude":"23.31N","longitude":"88.25E"}
{"date":"2011-04-01","average_temperature":"8.131","city":"Sibiu","latitude":"45.81N","longitude":"24.23E"}
{"date":"2011-10-01","average_temperature":"6.989","city":"Sibiu","latitude":"45.81N","longitude":"24.23E"}
{"date":"2010-11-01","average_temperature":"22.914","city":"Silchar","latitude":"24.92N","longitude":"92.22E"}
{"date":"2010-11-01","average_temperature":"27.231","city":"Sincelejo","latitude":"8.84N","longitude":"75.41W"}
{"date":"2012-02-01","average_temperature":"2.48","city":"Siverek","latitude":"37.78N","longitude":"38.64E"}
{"date":"2011-08-01","average_temperature":"27.871","city":"Sobral","latitude":"4.02S","longitude":"40.98W"}
{"date":"2010-07-01","average_temperature":"18.773000000000003","city":"Sorocaba","latitude":"23.31S","longitude":"48.06W"}
{"date":"2010-11-01","average_temperature":"4.003","city":"Springfield","latitude":"42.59N","longitude":"72.00W"}
{"date":"2013-01-01","average_temperature":"23.373","city":"Srikakulam","latitude":"18.48N","longitude":"84.51E"}
{"date":"2011-01-01","average_temperature":"0.24600000000000002","city":"Stara Zagora","latitude":"42.59N","longitude":"26.18E"}
{"date":"2010-02-01","average_temperature":"-5.23","city":"Staryy Oskol","latitude":"50.63N","longitude":"36.76E"}
{"date":"2011-02-01","average_temperature":"-1.4269999999999998","city":"Stavanger","latitude":"58.66N","longitude":"6.15E"}
{"date":"2010-07-01","average_temperature":"22.686","city":"Sterlitamak","latitude":"53.84N","longitude":"55.91E"}
{"date":"2011-11-01","average_temperature":"11.478","city":"Stockton","latitude":"37.78N","longitude":"122.03W"}
{"date":"2012-09-01","average_temperature":"19.045","city":"Stockton","latitude":"37.78N","longitude":"122.03W"}
{"date":"2013-06-01","average_temperature":"16.578","city":"Strasbourg","latitude":"49.03N","longitude":"7.35E"}
{"date":"2010-01-01","average_temperature":"26.254","city":"Sukabumi","latitude":"7.23S","longitude":"106.22E"}
{"date":"2012-09-01","average_temperature":"24.723000000000003","city":"Suleja","latitude":"8.84N","longitude":"7.30E"}
{"date":"2011-05-01","average_temperature":"20.691000000000006","city":"Sur","latitude":"32.95N","longitude":"35.43E"}
{"date":"2011-06-01","average_temperature":"26.343000000000004","city":"Surakarta","latitude":"7.23S","longitude":"111.08E"}
{"date":"2012-12-01","average_temperature":"26.805999999999997","city":"Surat Thani","latitude":"8.84N","longitude":"99.73E"}
{"date":"2013-04-01","average_temperature":"-1.0990000000000002","city":"Surgut","latitude":"61.88N","longitude":"73.02E"}
{"date":"2010-02-01","average_temperature":"26.18","city":"Suriapet","latitude":"16.87N","longitude":"80.37E"}
{"date":"2013-07-01","average_temperature":"29.298000000000002","city":"Susah","latitude":"36.17N","longitude":"9.94E"}
{"date":"2013-06-01","average_temperature":"18.124000000000002","city":"Suzano","latitude":"23.31S","longitude":"46.31W"}
{"date":"2013-09-01","city":"Suzhou","latitude":"34.56N","longitude":"116.76E"}
{"date":"2010-07-01","average_temperature":"21.381","city":"Szczecin","latitude":"53.84N","longitude":"15.00E"}
{"date":"2012-05-01","average_temperature":"22.715999999999998","city":"Tabora","latitude":"5.63S","longitude":"32.29E"}
{"date":"2011-06-01","average_temperature":"11.719","city":"Tacoma","latitude":"47.42N","longitude":"121.97W"}
{"date":"2011-09-01","average_temperature":"17.351000000000006","city":"Taganrog","latitude":"47.42N","longitude":"39.08E"}
{"date":"2011-12-01","average_temperature":"25.824","city":"Tagum","latitude":"7.23N","longitude":"125.68E"}
{"date":"2013-05-01","average_temperature":"16.756999999999998","city":"Takasaki","latitude":"36.17N","longitude":"139.23E"}
{"date":"2013-08-01","average_temperature":"27.199","city":"Talisay","latitude":"10.45N","longitude":"123.55E"}
{"date":"2012-06-01","average_temperature":"26.244","city":"Tallahassee","latitude":"29.74N","longitude":"84.92W"}
{"date":"2013-04-01","average_temperature":"20.023","city":"Tallahassee","latitude":"29.74N","longitude":"84.92W"}
{"date":"2011-09-01","average_temperature":"13.522","city":"Tallinn","latitude":"58.66N","longitude":"24.62E"}
{"date":"2010-04-01","average_temperature":"30.93","city":"Tamale","latitude":"8.84N","longitude":"0.81W"}
{"date":"2012-10-01","average_temperature":"27.268","city":"Tamale","latitude":"8.84N","longitude":"0.81W"}
{"date":"2013-07-01","average_temperature":"26.7","city":"Tamale","latitude":"8.84N","longitude":"0.81W"}
{"date":"2013-04-01","average_temperature":"27.215","city":"Taman","latitude":"7.23S","longitude":"109.46E"}
{"date":"2011-04-01","average_temperature":"5.77","city":"Tambov","latitude":"52.24N","longitude":"42.04E"}
{"date":"2011-06-01","average_temperature":"27.709","city":"Tambun","latitude":"5.63S","longitude":"106.55E"}
{"date":"2010-03-01","average_temperature":"21.039","city":"Tampico","latitude":"21.70N","longitude":"97.79W"}
{"date":"2013-07-01","average_temperature":"26.46","city":"Tanete","latitude":"5.63S","longitude":"119.46E"}
{"date":"2011-03-01","average_temperature":"27.788","city":"Tanga","latitude":"5.63S","longitude":"38.74E"}
{"date":"2010-01-01","average_temperature":"-6.178","city":"Tanggu","latitude":"39.38N","longitude":"118.61E"}
{"date":"2010-11-01","average_temperature":"26.546","city":"Tanza","latitude":"15.27N","longitude":"120.83E"}
{"date":"2010-06-01","average_temperature":"28.514","city":"Tarlac","latitude":"15.27N","longitude":"120.83E"}
{"date":"2012-12-01","average_temperature":"26.678","city":"Tebingtinggi","latitude":"4.02N","longitude":"98.84E"}
{"date":"2012-11-01","average_temperature":"27.456","city":"Tema","latitude":"5.63N","longitude":"0.00W"}
{"date":"2012-02-01","average_temperature":"20.956999999999997","city":"Tembisa","latitude":"26.52S","longitude":"28.66E"}
{"date":"2013-07-01","average_temperature":"33.059000000000005","city":"Tempe","latitude":"32.95N","longitude":"112.02W"}
{"date":"2013-03-01","average_temperature":"29.198","city":"Tenali","latitude":"16.87N","longitude":"80.37E"}
{"date":"2010-06-01","average_temperature":"26.689","city":"Tepic","latitude":"21.70N","longitude":"104.71W"}
{"date":"2010-12-01","average_temperature":"25.38","city":"Thanjavur","latitude":"10.45N","longitude":"79.36E"}
{"date":"2011-03-01","average_temperature":"26.756","city":"Thaton","latitude":"16.87N","longitude":"97.12E"}
{"date":"2012-12-01","average_temperature":"-22.949","city":"Tieli","latitude":"47.42N","longitude":"129.08E"}
{"date":"2010-03-01","average_temperature":"-3.68","city":"Tieling","latitude":"42.59N","longitude":"124.36E"}
{"date":"2011-07-01","average_temperature":"16.02","city":"Tilburg","latitude":"52.24N","longitude":"5.26E"}
{"date":"2012-12-01","average_temperature":"27.964000000000002","city":"Timon","latitude":"5.63S","longitude":"43.59W"}
{"date":"2010-10-01","average_temperature":"28.855999999999998","city":"Tirupati","latitude":"13.66N","longitude":"80.09E"}
{"date":"2012-07-01","average_temperature":"27.514000000000006","city":"Tiruppur","latitude":"10.45N","longitude":"77.73E"}
{"date":"2013-07-01","average_temperature":"22.902","city":"Toledo","latitude":"40.99N","longitude":"83.08W"}
{"date":"2010-06-01","average_temperature":"22.649","city":"Tondabayashi","latitude":"34.56N","longitude":"136.22E"}
{"date":"2012-03-01","average_temperature":"8.296","city":"Tondabayashi","latitude":"34.56N","longitude":"136.22E"}
{"date":"2011-06-01","average_temperature":"22.638","city":"Tongliao","latitude":"44.20N","longitude":"122.98E"}
{"date":"2010-02-01","average_temperature":"6.558999999999998","city":"Tottori","latitude":"34.56N","longitude":"134.27E"}
{"date":"2010-03-01","average_temperature":"11.005999999999998","city":"Toulon","latitude":"42.59N","longitude":"6.55E"}
{"date":"2010-01-01","average_temperature":"26.938","city":"Townsville","latitude":"18.48S","longitude":"147.04E"}
{"date":"2012-10-01","average_temperature":"22.784000000000002","city":"Townsville","latitude":"18.48S","longitude":"147.04E"}
{"date":"2012-10-01","average_temperature":"9.614","city":"Trier","latitude":"49.03N","longitude":"7.35E"}
{"date":"2013-05-01","average_temperature":"31.415","city":"Trincomalee","latitude":"8.84N","longitude":"81.89E"}
{"date":"2011-02-01","average_temperature":"-9.525","city":"Trois Rivières","latitude":"45.81N","longitude":"72.69W"}
{"date":"2011-12-01","average_temperature":"24.368","city":"Tshikapa","latitude":"5.63S","longitude":"20.99E"}
{"date":"2011-07-01","average_temperature":"25.288","city":"Tsukuba","latitude":"36.17N","longitude":"139.23E"}
{"date":"2011-08-01","average_temperature":"18.269","city":"Tula","latitude":"53.84N","longitude":"36.82E"}
{"date":"2010-02-01","average_temperature":"13.415","city":"Tunis","latitude":"36.17N","longitude":"9.94E"}
{"date":"2011-11-01","average_temperature":"8.345","city":"Turgutlu","latitude":"37.78N","longitude":"28.47E"}
{"date":"2012-03-01","average_temperature":"4.348","city":"Turhal","latitude":"40.99N","longitude":"36.21E"}
{"date":"2013-05-01","average_temperature":"27.17","city":"Turmero","latitude":"10.45N","longitude":"67.91W"}
{"date":"2011-11-01","average_temperature":"22.985","city":"Uberaba","latitude":"20.09S","longitude":"47.77W"}
{"date":"2010-11-01","average_temperature":"23.717","city":"Uberlândia","latitude":"18.48S","longitude":"49.01W"}
{"date":"2011-03-01","average_temperature":"29.918000000000003","city":"Ugep","latitude":"5.63N","longitude":"8.07E"}
{"date":"2010-10-01","average_temperature":"1.255","city":"Ukhta","latitude":"63.49N","longitude":"52.20E"}
{"date":"2011-07-01","average_temperature":"16.949","city":"Ukhta","latitude":"63.49N","longitude":"52.20E"}
{"date":"2013-05-01","average_temperature":"30.921","city":"Ulubaria","latitude":"23.31N","longitude":"88.25E"}
{"date":"2012-05-01","average_temperature":"34.033","city":"Unnao","latitude":"26.52N","longitude":"80.60E"}
{"date":"2010-09-01","average_temperature":"15.614","city":"Ussuriysk","latitude":"44.20N","longitude":"131.93E"}
{"date":"2013-04-01","average_temperature":"28.059","city":"Uyo","latitude":"5.63N","longitude":"8.07E"}
{"date":"2012-11-01","average_temperature":"27.166","city":"Várzea Grande","latitude":"15.27S","longitude":"55.83W"}
{"date":"2010-01-01","average_temperature":"23.738000000000003","city":"Várzea Paulista","latitude":"23.31S","longitude":"46.31W"}
{"date":"2013-05-01","average_temperature":"16.976","city":"Valencia","latitude":"39.38N","longitude":"0.00W"}
{"date":"2010-08-01","average_temperature":"28.691999999999997","city":"Van","latitude":"37.78N","longitude":"42.71E"}
{"date":"2010-09-01","average_temperature":"27.288","city":"Vejalpur","latitude":"23.31N","longitude":"74.27E"}
{"date":"2011-08-01","average_temperature":"23.744","city":"Venice","latitude":"45.81N","longitude":"12.69E"}
{"date":"2010-06-01","average_temperature":"9.0","city":"Vereeniging","latitude":"26.52S","longitude":"28.66E"}
{"date":"2012-07-01","average_temperature":"21.293000000000003","city":"Verona","latitude":"45.81N","longitude":"10.38E"}
{"date":"2013-05-01","average_temperature":"34.889","city":"Vijayawada","latitude":"16.87N","longitude":"80.37E"}
{"date":"2010-12-01","average_temperature":"-7.196000000000001","city":"Vilnius","latitude":"55.45N","longitude":"25.51E"}
{"date":"2011-11-01","average_temperature":"3.3520000000000003","city":"Vilnius","latitude":"55.45N","longitude":"25.51E"}
{"date":"2011-03-01","average_temperature":"15.843","city":"Vina Del Mar","latitude":"32.95S","longitude":"71.81W"}
{"date":"2012-10-01","average_temperature":"25.945999999999998","city":"Virar","latitude":"20.09N","longitude":"73.36E"}
{"date":"2013-08-01","average_temperature":"26.605","city":"Vizianagaram","latitude":"18.48N","longitude":"82.82E"}
{"date":"2010-02-01","average_temperature":"-3.1490000000000005","city":"Volgodonsk","latitude":"47.42N","longitude":"41.45E"}
{"date":"2013-04-01","average_temperature":"11.6","city":"Volgodonsk","latitude":"47.42N","longitude":"41.45E"}
{"date":"2012-06-01","average_temperature":"15.992","city":"Vologda","latitude":"58.66N","longitude":"40.00E"}
{"date":"2010-01-01","average_temperature":"-10.24","city":"Volzhskiy","latitude":"49.03N","longitude":"44.08E"}
{"date":"2012-06-01","average_temperature":"33.238","city":"Wardha","latitude":"20.09N","longitude":"78.48E"}
{"date":"2012-09-01","average_temperature":"28.328000000000007","city":"Wardha","latitude":"20.09N","longitude":"78.48E"}
{"date":"2013-09-01","city":"Waru","latitude":"7.23S","longitude":"112.70E"}
{"date":"2012-12-01","average_temperature":"-0.18899999999999995","city":"West Jordan","latitude":"40.99N","longitude":"112.90W"}
{"date":"2011-06-01","average_temperature":"16.817","city":"Wiesbaden","latitude":"50.63N","longitude":"8.87E"}
{"date":"2011-09-01","average_temperature":"15.636","city":"Wolfsburg","latitude":"52.24N","longitude":"10.51E"}
{"date":"2011-02-01","average_temperature":"6.5440000000000005","city":"Wolverhampton","latitude":"52.24N","longitude":"2.63W"}
{"date":"2010-06-01","average_temperature":"20.446","city":"Wufeng","latitude":"28.13N","longitude":"104.55E"}
{"date":"2013-06-01","average_temperature":"24.9","city":"Wuhu","latitude":"31.35N","longitude":"118.74E"}
{"date":"2011-09-01","average_temperature":"23.794","city":"Xiangdong","latitude":"28.13N","longitude":"113.64E"}
{"date":"2012-07-01","average_temperature":"28.355","city":"Xinpu","latitude":"34.56N","longitude":"118.70E"}
{"date":"2010-02-01","average_temperature":"2.306","city":"Xintai","latitude":"36.17N","longitude":"117.35E"}
{"date":"2012-04-01","average_temperature":"1.996","city":"Yakeshi","latitude":"49.03N","longitude":"120.00E"}
{"date":"2010-11-01","average_temperature":"20.951999999999998","city":"Yangjiang","latitude":"21.70N","longitude":"111.63E"}
{"date":"2013-02-01","average_temperature":"-13.760000000000002","city":"Yanji","latitude":"42.59N","longitude":"128.73E"}
{"date":"2013-02-01","average_temperature":"-0.5","city":"Yantai","latitude":"37.78N","longitude":"122.03E"}
{"date":"2011-11-01","average_temperature":"13.571","city":"Yao","latitude":"34.56N","longitude":"136.22E"}
{"date":"2010-05-01","average_temperature":"21.982","city":"Yichun","latitude":"28.13N","longitude":"113.64E"}
{"date":"2010-09-01","average_temperature":"17.862000000000005","city":"Yingkou","latitude":"40.99N","longitude":"123.55E"}
{"date":"2013-03-01","average_temperature":"26.785","city":"Yogyakarta","latitude":"7.23S","longitude":"111.08E"}
{"date":"2013-01-01","average_temperature":"3.5039999999999996","city":"Yonago","latitude":"36.17N","longitude":"133.26E"}
{"date":"2011-07-01","average_temperature":"22.793000000000003","city":"Yushu","latitude":"44.20N","longitude":"127.45E"}
{"date":"2013-08-01","average_temperature":"18.025","city":"Zaanstad","latitude":"52.24N","longitude":"5.26E"}
{"date":"2012-02-01","average_temperature":"16.517","city":"Zamora","latitude":"20.09N","longitude":"102.37W"}
{"date":"2010-06-01","average_temperature":"26.011999999999997","city":"Zaozhuang","latitude":"34.56N","longitude":"116.76E"}
{"date":"2010-01-01","average_temperature":"17.694000000000003","city":"Zapopan","latitude":"20.09N","longitude":"104.08W"}
{"date":"2010-06-01","average_temperature":"24.276999999999997","city":"Zapopan","latitude":"20.09N","longitude":"104.08W"}
{"date":"2012-03-01","average_temperature":"-5.6160000000000005","city":"Zelenodolsk","latitude":"55.45N","longitude":"48.19E"}
{"date":"2010-10-01","average_temperature":"21.211","city":"Zhangzhou","latitude":"24.92N","longitude":"117.04E"}
{"date":"2013-08-01","average_temperature":"28.552","city":"Zhanjiang","latitude":"21.70N","longitude":"109.90E"}
{"date":"2010-08-01","average_temperature":"26.745","city":"Zhicheng","latitude":"29.74N","longitude":"110.77E"}
{"date":"2010-10-01","average_temperature":"24.343000000000004","city":"Zhongshan","latitude":"21.70N","longitude":"113.37E"}
{"date":"2013-07-01","average_temperature":"20.015","city":"Zhoucheng","latitude":"24.92N","longitude":"102.86E"}
{"date":"2011-07-01","average_temperature":"26.945999999999998","city":"Zouxian","latitude":"36.17N","longitude":"117.35E"}
