{"date":"2010-07-01","average_temperature":"26.256","city":"Abakaliki","latitude":"5.63N","longitude":"8.07E"}
{"date":"2010-08-01","average_temperature":"15.501","city":"Abakan","latitude":"53.84N","longitude":"91.36E"}
{"date":"2011-06-01","average_temperature":"26.461","city":"Abeokuta","latitude":"7.23N","longitude":"4.05E"}
{"date":"2010-04-01","average_temperature":"9.589","city":"Abiko","latitude":"36.17N","longitude":"139.23E"}
{"date":"2012-01-01","average_temperature":"19.008000000000006","city":"Achalpur","latitude":"21.70N","longitude":"77.02E"}
{"date":"2012-05-01","average_temperature":"14.729000000000001","city":"Acheng","latitude":"45.81N","longitude":"128.08E"}
{"date":"2011-07-01","average_temperature":"31.072","city":"Acuña","latitude":"29.74N","longitude":"101.54W"}
{"date":"2012-08-01","average_temperature":"24.636999999999997","city":"Agadir","latitude":"29.74N","longitude":"9.23W"}
{"date":"2012-12-01","average_temperature":"16.416","city":"Agra","latitude":"26.52N","longitude":"78.81E"}
{"date":"2011-01-01","average_temperature":"13.5","city":"Aguascalientes","latitude":"21.70N","longitude":"102.98W"}
{"date":"2010-11-01","average_temperature":"24.295","city":"Ahmadnagar","latitude":"18.48N","longitude":"74.37E"}
{"date":"2010-08-01","average_temperature":"27.903","city":"Ajdabiya","latitude":"31.35N","longitude":"20.73E"}
{"date":"2011-05-01","average_temperature":"13.735999999999999","city":"Akita","latitude":"39.38N","longitude":"139.42E"}
{"date":"2011-02-01","average_temperature":"-1.359","city":"Akron","latitude":"40.99N","longitude":"80.95W"}
{"date":"2012-12-01","average_temperature":"-8.77","city":"Aksu","latitude":"40.99N","longitude":"80.95E"}
{"date":"2013-07-01","average_temperature":"31.053","city":"Aligarh","latitude":"28.13N","longitude":"77.27E"}
{"date":"2011-10-01","average_temperature":"7.611000000000001","city":"Almaty","latitude":"42.59N","longitude":"76.36E"}
{"date":"2011-07-01","average_temperature":"30.947","city":"Alwar","latitude":"28.13N","longitude":"77.27E"}
{"date":"2012-05-01","average_temperature":"31.809","city":"Ambur","latitude":"12.05N","longitude":"78.90E"}
{"date":"2013-05-01","average_temperature":"18.933","city":"Americana","latitude":"23.31S","longitude":"48.06W"}
{"date":"2011-08-01","average_temperature":"25.52","city":"Amol","latitude":"36.17N","longitude":"51.71E"}
{"date":"2012-11-01","average_temperature":"19.733","city":"Amritsar","latitude":"31.35N","longitude":"75.39E"}
{"date":"2012-07-01","average_temperature":"21.425","city":"Anápolis","latitude":"16.87S","longitude":"48.56W"}
{"date":"2010-08-01","average_temperature":"27.776","city":"Ananindeua","latitude":"0.80S","longitude":"49.02W"}
{"date":"2010-01-01","average_temperature":"1.75","city":"Angers","latitude":"47.42N","longitude":"1.18W"}
{"date":"2012-06-01","average_temperature":"21.516","city":"Ankang","latitude":"32.95N","longitude":"108.19E"}
{"date":"2013-05-01","average_temperature":"19.075","city":"Anqiu","latitude":"36.17N","longitude":"119.34E"}
{"date":"2011-03-01","average_temperature":"14.561","city":"Antakya","latitude":"36.17N","longitude":"35.80E"}
{"date":"2012-09-01","average_temperature":"14.333","city":"Apeldoorn","latitude":"52.24N","longitude":"5.26E"}
{"date":"2010-01-01","average_temperature":"12.425","city":"Apodaca","latitude":"26.52N","longitude":"100.30W"}
{"date":"2013-04-01","average_temperature":"9.416","city":"Aqtöbe","latitude":"50.63N","longitude":"57.04E"}
{"date":"2012-05-01","average_temperature":"20.14","city":"Arica","latitude":"18.48S","longitude":"70.99W"}
{"date":"2012-03-01","average_temperature":"1.3319999999999999","city":"Armavir","latitude":"45.81N","longitude":"40.38E"}
{"date":"2012-07-01","average_temperature":"17.329","city":"Arnhem","latitude":"52.24N","longitude":"5.26E"}
{"date":"2013-01-01","average_temperature":"5.088","city":"Asgabat","latitude":"37.78N","longitude":"58.98E"}
{"date":"2010-11-01","average_temperature":"21.836","city":"Asyut","latitude":"26.52N","longitude":"30.45E"}
{"date":"2010-06-01","average_temperature":"24.661","city":"Athens","latitude":"37.78N","longitude":"24.41E"}
{"date":"2013-07-01","average_temperature":"23.86","city":"Atlanta","latitude":"34.56N","longitude":"83.68W"}
{"date":"2013-04-01","average_temperature":"5.0950000000000015","city":"Aurora","latitude":"39.38N","longitude":"104.05W"}
{"date":"2011-02-01","average_temperature":"28.462","city":"Awka","latitude":"5.63N","longitude":"6.46E"}
{"date":"2012-09-01","average_temperature":"25.838","city":"Awka","latitude":"5.63N","longitude":"6.46E"}
{"date":"2013-04-01","average_temperature":"28.047","city":"Awka","latitude":"5.63N","longitude":"6.46E"}
{"date":"2013-04-01","average_temperature":"29.436999999999998","city":"Azamgarh","latitude":"26.52N","longitude":"82.39E"}
{"date":"2011-04-01","average_temperature":"27.715999999999998","city":"Badlapur","latitude":"18.48N","longitude":"72.68E"}
{"date":"2010-03-01","average_temperature":"25.892","city":"Bafoussam","latitude":"5.63N","longitude":"9.69E"}
{"date":"2010-11-01","average_temperature":"23.071","city":"Bagaha","latitude":"26.52N","longitude":"84.18E"}
{"date":"2010-01-01","average_temperature":"12.974","city":"Bahraich","latitude":"28.13N","longitude":"80.91E"}
{"date":"2011-01-01","average_temperature":"7.1690000000000005","city":"Bakersfield","latitude":"36.17N","longitude":"119.34W"}
{"date":"2012-12-01","average_temperature":"-10.178999999999998","city":"Balakovo","latitude":"52.24N","longitude":"47.30E"}
{"date":"2013-04-01","average_temperature":"24.508000000000003","city":"Bamenda","latitude":"5.63N","longitude":"9.69E"}
{"date":"2010-06-01","average_temperature":"24.024","city":"Bandar E Anzali","latitude":"37.78N","longitude":"48.81E"}
{"date":"2010-04-01","average_temperature":"16.637999999999998","city":"Bantou","latitude":"24.92N","longitude":"118.82E"}
{"date":"2011-10-01","average_temperature":"28.097","city":"Baranagar","latitude":"23.31N","longitude":"88.25E"}
{"date":"2011-12-01","average_temperature":"21.295","city":"Barbacena","latitude":"21.70S","longitude":"44.13W"}
{"date":"2012-02-01","average_temperature":"23.273000000000003","city":"Barbacena","latitude":"21.70S","longitude":"44.13W"}
{"date":"2012-04-01","average_temperature":"21.081999999999997","city":"Barbacena","latitude":"21.70S","longitude":"44.13W"}
{"date":"2011-12-01","average_temperature":"12.917","city":"Barcelona","latitude":"40.99N","longitude":"2.13E"}
{"date":"2012-01-01","average_temperature":"25.679000000000002","city":"Barcelona","latitude":"10.45N","longitude":"64.64W"}
{"date":"2013-03-01","average_temperature":"26.5","city":"Barcelona","latitude":"10.45N","longitude":"64.64W"}
{"date":"2010-01-01","average_temperature":"26.191999999999997","city":"Barreiras","latitude":"12.05S","longitude":"44.38W"}
{"date":"2013-01-01","average_temperature":"22.503","city":"Barueri","latitude":"23.31S","longitude":"46.31W"}
{"date":"2013-02-01","average_temperature":"3.087","city":"Basildon","latitude":"52.24N","longitude":"0.00W"}
{"date":"2010-03-01","average_temperature":"29.451","city":"Basirhat","latitude":"23.31N","longitude":"88.25E"}
{"date":"2010-05-01","average_temperature":"14.835999999999999","city":"Beian","latitude":"47.42N","longitude":"126.71E"}
{"date":"2011-03-01","average_temperature":"3.87","city":"Bellevue","latitude":"47.42N","longitude":"121.97W"}
{"date":"2010-08-01","average_temperature":"20.301","city":"Belo Horizonte","latitude":"20.09S","longitude":"44.36W"}
{"date":"2011-06-01","average_temperature":"25.711","city":"Bengbu","latitude":"32.95N","longitude":"117.77E"}
{"date":"2011-06-01","average_temperature":"26.99","city":"Bengkulu","latitude":"4.02S","longitude":"102.05E"}
{"date":"2013-01-01","average_temperature":"26.51","city":"Bengkulu","latitude":"4.02S","longitude":"102.05E"}
{"date":"2012-09-01","average_temperature":"14.770999999999999","city":"Benoni","latitude":"26.52S","longitude":"28.66E"}
{"date":"2013-02-01","average_temperature":"24.51","city":"Berbera","latitude":"10.45N","longitude":"45.00E"}
{"date":"2010-06-01","average_temperature":"18.895","city":"Bergamo","latitude":"45.81N","longitude":"10.38E"}
{"date":"2012-03-01","average_temperature":"8.888","city":"Bergamo","latitude":"45.81N","longitude":"10.38E"}
{"date":"2010-05-01","average_temperature":"4.836","city":"Bergen","latitude":"60.27N","longitude":"6.49E"}
{"date":"2010-03-01","average_temperature":"29.002","city":"Bhadravati","latitude":"13.66N","longitude":"75.14E"}
{"date":"2012-10-01","average_temperature":"25.938000000000002","city":"Bhadravati","latitude":"13.66N","longitude":"75.14E"}
{"date":"2010-09-01","average_temperature":"20.084","city":"Bharatpur","latitude":"28.13N","longitude":"84.55E"}
{"date":"2012-11-01","average_temperature":"25.308000000000003","city":"Bhavnagar","latitude":"21.70N","longitude":"71.83E"}
{"date":"2010-06-01","average_temperature":"35.019","city":"Bhiwani","latitude":"28.13N","longitude":"75.45E"}
{"date":"2012-08-01","average_temperature":"25.923000000000002","city":"Bida","latitude":"8.84N","longitude":"5.68E"}
{"date":"2011-10-01","average_temperature":"27.776","city":"Bikaner","latitude":"28.13N","longitude":"73.64E"}
{"date":"2011-05-01","average_temperature":"15.458","city":"Bila Tserkva","latitude":"49.03N","longitude":"29.39E"}
{"date":"2011-12-01","average_temperature":"1.5130000000000001","city":"Bila Tserkva","latitude":"49.03N","longitude":"29.39E"}
{"date":"2012-06-01","average_temperature":"33.652","city":"Bilaspur","latitude":"21.70N","longitude":"82.21E"}
{"date":"2010-10-01","average_temperature":"27.546","city":"Bissau","latitude":"12.05N","longitude":"14.79W"}
{"date":"2011-05-01","average_temperature":"30.105","city":"Bissau","latitude":"12.05N","longitude":"14.79W"}
{"date":"2011-08-01","average_temperature":"14.307","city":"Blackpool","latitude":"53.84N","longitude":"4.09W"}
{"date":"2011-08-01","average_temperature":"17.794","city":"Bochum","latitude":"52.24N","longitude":"7.88E"}
{"date":"2010-08-01","average_temperature":"21.164","city":"Bogotá","latitude":"4.02N","longitude":"74.73W"}
{"date":"2011-08-01","average_temperature":"21.69","city":"Bogotá","latitude":"4.02N","longitude":"74.73W"}
{"date":"2010-12-01","average_temperature":"19.248","city":"Boksburg","latitude":"26.52S","longitude":"28.66E"}
{"date":"2012-12-01","average_temperature":"3.5260000000000002","city":"Bonn","latitude":"50.63N","longitude":"6.34E"}
{"date":"2011-11-01","average_temperature":"6.3740000000000006","city":"Boston","latitude":"42.59N","longitude":"72.00W"}
{"date":"2010-08-01","average_temperature":"16.335","city":"Bournemouth","latitude":"50.63N","longitude":"1.27W"}
{"date":"2012-03-01","average_temperature":"3.006","city":"Brasov","latitude":"45.81N","longitude":"26.54E"}
{"date":"2013-08-01","average_temperature":"17.096","city":"Brest","latitude":"49.03N","longitude":"4.90W"}
{"date":"2011-10-01","average_temperature":"25.415","city":"Brownsville","latitude":"26.52N","longitude":"96.72W"}
{"date":"2012-02-01","average_temperature":"0.879","city":"Brugge","latitude":"50.63N","longitude":"3.80E"}
{"date":"2013-04-01","average_temperature":"13.487","city":"Bucharest","latitude":"44.20N","longitude":"26.83E"}
{"date":"2010-08-01","average_temperature":"29.494","city":"Budaun","latitude":"28.13N","longitude":"79.09E"}
{"date":"2010-07-01","average_temperature":"22.15","city":"Buenaventura","latitude":"4.02N","longitude":"76.34W"}
{"date":"2010-12-01","average_temperature":"26.659000000000002","city":"Bukit Mertajam","latitude":"5.63N","longitude":"100.09E"}
{"date":"2011-12-01","average_temperature":"16.203","city":"Bulandshahr","latitude":"28.13N","longitude":"77.27E"}
{"date":"2013-02-01","average_temperature":"27.042","city":"Bulaon","latitude":"15.27N","longitude":"120.83E"}
{"date":"2011-11-01","average_temperature":"9.218","city":"Burgos","latitude":"42.59N","longitude":"4.36W"}
{"date":"2012-09-01","average_temperature":"27.828000000000007","city":"Cà Mau","latitude":"8.84N","longitude":"104.59E"}
{"date":"2012-07-01","average_temperature":"26.959","city":"Cabanatuan","latitude":"15.27N","longitude":"120.83E"}
{"date":"2012-03-01","average_temperature":"25.555999999999997","city":"Cachoeiro De Itapemirim","latitude":"20.09S","longitude":"40.95W"}
{"date":"2010-06-01","average_temperature":"21.835","city":"Cadiz","latitude":"36.17N","longitude":"5.97W"}
{"date":"2012-06-01","average_temperature":"19.775","city":"Cairns","latitude":"16.87S","longitude":"145.67E"}
{"date":"2011-02-01","average_temperature":"27.801","city":"Campos","latitude":"21.70S","longitude":"40.67W"}
{"date":"2012-12-01","average_temperature":"27.985","city":"Cartagena","latitude":"10.45N","longitude":"76.09W"}
{"date":"2012-10-01","average_temperature":"15.014000000000001","city":"Cary","latitude":"36.17N","longitude":"79.56W"}
{"date":"2011-04-01","average_temperature":"29.276","city":"Champdani","latitude":"23.31N","longitude":"88.25E"}
{"date":"2011-09-01","average_temperature":"29.188000000000002","city":"Chandausi","latitude":"28.13N","longitude":"79.09E"}
{"date":"2010-08-01","average_temperature":"32.541","city":"Chandler","latitude":"32.95N","longitude":"112.02W"}
{"date":"2010-10-01","average_temperature":"28.201","city":"Chandpur","latitude":"23.31N","longitude":"90.00E"}
{"date":"2010-07-01","average_temperature":"23.631","city":"Changchun","latitude":"44.20N","longitude":"125.22E"}
{"date":"2011-04-01","average_temperature":"7.824","city":"Changchun","latitude":"44.20N","longitude":"125.22E"}
{"date":"2012-10-01","average_temperature":"18.16","city":"Changde","latitude":"28.13N","longitude":"111.82E"}
{"date":"2013-07-01","average_temperature":"26.005000000000006","city":"Charlotte","latitude":"34.56N","longitude":"81.73W"}
{"date":"2010-08-01","average_temperature":"29.090999999999998","city":"Chas","latitude":"23.31N","longitude":"86.50E"}
{"date":"2013-05-01","average_temperature":"10.809000000000001","city":"Chelmsford","latitude":"52.24N","longitude":"0.00W"}
{"date":"2012-08-01","average_temperature":"16.572","city":"Cheltenham","latitude":"52.24N","longitude":"2.63W"}
{"date":"2010-10-01","average_temperature":"7.809999999999999","city":"Chengde","latitude":"40.99N","longitude":"117.16E"}
{"date":"2012-07-01","average_temperature":"20.64","city":"Chengdu","latitude":"31.35N","longitude":"103.66E"}
{"date":"2012-12-01","average_temperature":"21.383000000000003","city":"Chiclayo","latitude":"7.23S","longitude":"80.27W"}
{"date":"2013-09-01","city":"Chingola","latitude":"12.05S","longitude":"27.95E"}
{"date":"2012-04-01","average_temperature":"12.359000000000002","city":"Chisinau","latitude":"47.42N","longitude":"29.61E"}
{"date":"2011-06-01","average_temperature":"16.061999999999998","city":"Chita","latitude":"52.24N","longitude":"112.99E"}
{"date":"2011-04-01","average_temperature":"26.748","city":"Choloma","latitude":"15.27N","longitude":"87.50W"}
{"date":"2013-07-01","average_temperature":"29.032","city":"Chongqing","latitude":"29.74N","longitude":"107.08E"}
{"date":"2011-12-01","average_temperature":"15.8","city":"Chupei","latitude":"24.92N","longitude":"120.59E"}
{"date":"2011-05-01","average_temperature":"34.634","city":"Churu","latitude":"28.13N","longitude":"75.45E"}
{"date":"2013-04-01","average_temperature":"25.78","city":"Cicalengka","latitude":"7.23S","longitude":"107.84E"}
{"date":"2011-05-01","average_temperature":"25.661","city":"Cikampek","latitude":"7.23S","longitude":"107.84E"}
{"date":"2011-07-01","average_temperature":"26.088","city":"Ciomas","latitude":"7.23S","longitude":"106.22E"}
{"date":"2012-06-01","average_temperature":"26.78","city":"Cisaat","latitude":"7.23S","longitude":"106.22E"}
{"date":"2013-07-01","average_temperature":"27.565","city":"Clearwater","latitude":"28.13N","longitude":"82.73W"}
{"date":"2011-02-01","average_temperature":"16.149","city":"Cochabamba","latitude":"16.87S","longitude":"66.98W"}
{"date":"2010-06-01","average_temperature":"24.276999999999997","city":"Colima","latitude":"20.09N","longitude":"104.08W"}
{"date":"2012-06-01","average_temperature":"15.101","city":"Cologne","latitude":"50.63N","longitude":"6.34E"}
{"date":"2012-06-01","average_temperature":"14.717","city":"Colombo","latitude":"24.92S","longitude":"49.66W"}
{"date":"2012-06-01","average_temperature":"24.135","city":"Columbia","latitude":"34.56N","longitude":"81.73W"}
{"date":"2012-03-01","average_temperature":"16.076999999999998","city":"Concepcion","latitude":"36.17S","longitude":"73.59W"}
{"date":"2011-10-01","average_temperature":"17.294999999999998","city":"Concord","latitude":"37.78N","longitude":"122.03W"}
{"date":"2011-09-01","average_temperature":"13.884","city":"Cork","latitude":"52.24N","longitude":"7.88W"}
{"date":"2013-01-01","average_temperature":"-2.557","city":"Cracow","latitude":"50.63N","longitude":"19.01E"}
{"date":"2010-06-01","average_temperature":"15.134","city":"Crawley","latitude":"50.63N","longitude":"1.27W"}
{"date":"2012-02-01","average_temperature":"-0.975","city":"Düsseldorf","latitude":"50.63N","longitude":"6.34E"}
{"date":"2013-02-01","average_temperature":"-0.379","city":"Dabrowa Gornicza","latitude":"50.63N","longitude":"19.01E"}
{"date":"2013-02-01","average_temperature":"25.517","city":"Dagupan","latitude":"16.87N","longitude":"120.56E"}
{"date":"2011-03-01","average_temperature":"5.8889999999999985","city":"Darmstadt","latitude":"50.63N","longitude":"8.87E"}
{"date":"2012-07-01","average_temperature":"31.971","city":"Daska","latitude":"32.95N","longitude":"73.72E"}
{"date":"2010-12-01","average_temperature":"6.996","city":"Daxian","latitude":"31.35N","longitude":"107.43E"}
{"date":"2011-12-01","average_temperature":"6.981","city":"Daxian","latitude":"31.35N","longitude":"107.43E"}
{"date":"2012-05-01","average_temperature":"16.477999999999998","city":"Debrecen","latitude":"47.42N","longitude":"22.50E"}
{"date":"2013-01-01","average_temperature":"2.708","city":"Derbent","latitude":"42.59N","longitude":"48.00E"}
{"date":"2011-06-01","average_temperature":"30.287000000000006","city":"Dewas","latitude":"23.31N","longitude":"76.02E"}
{"date":"2010-06-01","average_temperature":"28.69","city":"Dezful","latitude":"32.95N","longitude":"48.83E"}
{"date":"2013-01-01","average_temperature":"17.116","city":"Dhaka","latitude":"23.31N","longitude":"90.00E"}
{"date":"2011-09-01","average_temperature":"28.697","city":"Dhaulpur","latitude":"26.52N","longitude":"77.01E"}
{"date":"2010-08-01","average_temperature":"17.852999999999998","city":"Diadema","latitude":"23.31S","longitude":"46.31W"}
{"date":"2013-09-01","city":"Dimitrovgrad","latitude":"53.84N","longitude":"50.45E"}
{"date":"2011-03-01","average_temperature":"25.964","city":"Dinajpur","latitude":"24.92N","longitude":"88.67E"}
{"date":"2013-07-01","average_temperature":"26.776000000000003","city":"Dindigul","latitude":"10.45N","longitude":"77.73E"}
{"date":"2012-03-01","average_temperature":"23.299","city":"Divinópolis","latitude":"20.09S","longitude":"44.36W"}
{"date":"2010-04-01","average_temperature":"11.782","city":"Dongtai","latitude":"32.95N","longitude":"119.68E"}
{"date":"2013-03-01","average_temperature":"20.133","city":"Dos Quebradas","latitude":"5.63N","longitude":"75.87W"}
{"date":"2010-02-01","average_temperature":"0.495","city":"Drobeta Turnu Severin","latitude":"44.20N","longitude":"22.36E"}
{"date":"2011-03-01","average_temperature":"6.521000000000001","city":"Duisburg","latitude":"50.63N","longitude":"6.34E"}
{"date":"2013-02-01","average_temperature":"13.985999999999999","city":"Durango","latitude":"24.92N","longitude":"104.63W"}
{"date":"2012-01-01","average_temperature":"-6.065","city":"Dushanbe","latitude":"39.38N","longitude":"68.67E"}
{"date":"2013-08-01","average_temperature":"17.843","city":"Dzerzhinsk","latitude":"57.05N","longitude":"42.79E"}
{"date":"2013-06-01","average_temperature":"15.043","city":"Ede","latitude":"52.24N","longitude":"5.26E"}
{"date":"2012-10-01","average_temperature":"26.206999999999997","city":"Ede","latitude":"7.23N","longitude":"4.05E"}
{"date":"2012-10-01","average_temperature":"12.436","city":"Edison","latitude":"40.99N","longitude":"74.56W"}
{"date":"2013-06-01","average_temperature":"20.892","city":"Edison","latitude":"40.99N","longitude":"74.56W"}
{"date":"2010-03-01","average_temperature":"29.965000000000003","city":"Eluru","latitude":"16.87N","longitude":"80.37E"}
{"date":"2011-02-01","average_temperature":"2.943","city":"Enschede","latitude":"52.24N","longitude":"7.88E"}
{"date":"2012-06-01","average_temperature":"26.596","city":"Enugu","latitude":"7.23N","longitude":"7.30E"}
{"date":"2011-10-01","average_temperature":"9.488999999999999","city":"Erlangen","latitude":"49.03N","longitude":"9.80E"}
{"date":"2011-03-01","average_temperature":"3.491","city":"Erzincan","latitude":"39.38N","longitude":"39.54E"}
{"date":"2010-10-01","average_temperature":"14.145999999999999","city":"Esenyurt","latitude":"40.99N","longitude":"27.69E"}
{"date":"2011-01-01","average_temperature":"-1.4260000000000002","city":"Esfahan","latitude":"32.95N","longitude":"50.74E"}
{"date":"2010-04-01","average_temperature":"22.267","city":"Esmeraldas","latitude":"20.09S","longitude":"44.36W"}
{"date":"2011-03-01","average_temperature":"22.723000000000003","city":"Esmeraldas","latitude":"20.09S","longitude":"44.36W"}
{"date":"2013-05-01","average_temperature":"11.463","city":"Essen","latitude":"50.63N","longitude":"6.34E"}
{"date":"2011-01-01","average_temperature":"-1.06","city":"Evansville","latitude":"37.78N","longitude":"87.46W"}
{"date":"2011-04-01","average_temperature":"15.882","city":"Evansville","latitude":"37.78N","longitude":"87.46W"}
{"date":"2013-07-01","average_temperature":"31.171","city":"Ezhou","latitude":"29.74N","longitude":"114.46E"}
{"date":"2013-07-01","average_temperature":"26.747","city":"Fayetteville","latitude":"34.56N","longitude":"79.78W"}
{"date":"2011-09-01","average_temperature":"16.195","city":"Fort Collins","latitude":"40.99N","longitude":"104.38W"}
{"date":"2011-06-01","average_temperature":"26.72","city":"Fortaleza","latitude":"4.02S","longitude":"40.98W"}
{"date":"2011-10-01","average_temperature":"28.585","city":"Fortaleza","latitude":"4.02S","longitude":"40.98W"}
{"date":"2013-09-01","city":"Foshan","latitude":"23.31N","longitude":"112.72E"}
{"date":"2012-08-01","average_temperature":"27.54","city":"Freetown","latitude":"8.84N","longitude":"13.78W"}
{"date":"2011-01-01","average_temperature":"0.8170000000000001","city":"Fujisawa","latitude":"36.17N","longitude":"139.23E"}
{"date":"2010-07-01","average_temperature":"18.415","city":"Fullerton","latitude":"32.95N","longitude":"117.77W"}
{"date":"2011-12-01","average_temperature":"21.778000000000002","city":"Gandhinagar","latitude":"23.31N","longitude":"72.52E"}
{"date":"2012-04-01","average_temperature":"19.595","city":"Ganzhou","latitude":"26.52N","longitude":"114.63E"}
{"date":"2010-08-01","average_temperature":"19.428","city":"Garden Grove","latitude":"32.95N","longitude":"117.77W"}
{"date":"2013-09-01","city":"Gashua","latitude":"13.66N","longitude":"10.73E"}
{"date":"2010-09-01","average_temperature":"13.145999999999999","city":"Gdansk","latitude":"53.84N","longitude":"17.73E"}
{"date":"2010-07-01","average_temperature":"24.671999999999997","city":"Gebze","latitude":"40.99N","longitude":"29.82E"}
{"date":"2010-06-01","average_temperature":"16.916","city":"Gelsenkirchen","latitude":"52.24N","longitude":"7.88E"}
{"date":"2012-03-01","average_temperature":"8.017999999999999","city":"Gelsenkirchen","latitude":"52.24N","longitude":"7.88E"}
{"date":"2010-12-01","average_temperature":"4.022","city":"Getafe","latitude":"40.99N","longitude":"4.26W"}
{"date":"2013-03-01","average_temperature":"10.309000000000001","city":"Gijón","latitude":"44.20N","longitude":"6.71W"}
{"date":"2010-04-01","average_temperature":"18.885","city":"Gilbert","latitude":"32.95N","longitude":"112.02W"}
{"date":"2010-04-01","average_temperature":"21.114","city":"Girardot","latitude":"4.02N","longitude":"74.73W"}
{"date":"2012-06-01","average_temperature":"21.471999999999998","city":"Girardot","latitude":"4.02N","longitude":"74.73W"}
{"date":"2013-04-01","average_temperature":"21.213","city":"Girardot","latitude":"4.02N","longitude":"74.73W"}
{"date":"2010-03-01","average_temperature":"4.87","city":"Glasgow","latitude":"55.45N","longitude":"2.83W"}
{"date":"2010-01-01","average_temperature":"19.270000000000003","city":"Godhra","latitude":"23.31N","longitude":"74.27E"}
{"date":"2011-10-01","average_temperature":"26.483","city":"Gojra","latitude":"31.35N","longitude":"73.51E"}
{"date":"2011-03-01","average_temperature":"20.716","city":"Gondar","latitude":"12.05N","longitude":"37.81E"}
{"date":"2011-12-01","average_temperature":"7.796999999999999","city":"Grand Prairie","latitude":"32.95N","longitude":"96.70W"}
{"date":"2010-10-01","average_temperature":"17.807000000000002","city":"Gravataí","latitude":"29.74S","longitude":"51.69W"}
{"date":"2012-05-01","average_temperature":"21.443","city":"Greensboro","latitude":"36.17N","longitude":"79.56W"}
{"date":"2012-10-01","average_temperature":"18.036","city":"Guangshui","latitude":"31.35N","longitude":"113.09E"}
{"date":"2013-07-01","average_temperature":"30.296000000000006","city":"Guangshui","latitude":"31.35N","longitude":"113.09E"}
{"date":"2011-08-01","average_temperature":"28.473000000000006","city":"Guantánamo","latitude":"20.09N","longitude":"75.07W"}
{"date":"2011-03-01","average_temperature":"21.225","city":"Guarapuava","latitude":"24.92S","longitude":"51.43W"}
{"date":"2012-07-01","average_temperature":"14.443","city":"Guarapuava","latitude":"24.92S","longitude":"51.43W"}
{"date":"2012-07-01","average_temperature":"32.802","city":"Gudalur","latitude":"12.05N","longitude":"80.55E"}
{"date":"2011-01-01","average_temperature":"10.79","city":"Gujranwala","latitude":"32.95N","longitude":"73.72E"}
{"date":"2011-02-01","average_temperature":"25.763","city":"Gulbarga","latitude":"16.87N","longitude":"77.02E"}
{"date":"2012-04-01","average_temperature":"31.914","city":"Gulbarga","latitude":"16.87N","longitude":"77.02E"}
{"date":"2010-06-01","average_temperature":"34.638000000000005","city":"Guna","latitude":"24.92N","longitude":"78.03E"}
{"date":"2012-04-01","average_temperature":"32.592","city":"Gusau","latitude":"12.05N","longitude":"6.58E"}
{"date":"2012-03-01","average_temperature":"20.191","city":"Hòa Bình","latitude":"20.09N","longitude":"105.78E"}
{"date":"2010-10-01","average_temperature":"18.380000000000006","city":"Habikino","latitude":"34.56N","longitude":"136.22E"}
{"date":"2011-03-01","average_temperature":"31.101","city":"Hadejia","latitude":"12.05N","longitude":"9.86E"}
{"date":"2010-06-01","average_temperature":"28.514","city":"Hagonoy","latitude":"15.27N","longitude":"120.83E"}
{"date":"2013-02-01","average_temperature":"27.042","city":"Hagonoy","latitude":"15.27N","longitude":"120.83E"}
{"date":"2011-02-01","average_temperature":"15.607999999999999","city":"Hai Phong","latitude":"21.70N","longitude":"106.44E"}
{"date":"2013-05-01","average_temperature":"27.322","city":"Haikou","latitude":"20.09N","longitude":"110.90E"}
{"date":"2010-01-01","average_temperature":"19.407","city":"Haldia","latitude":"21.70N","longitude":"87.40E"}
{"date":"2010-10-01","average_temperature":"27.928","city":"Haldia","latitude":"21.70N","longitude":"87.40E"}
{"date":"2011-06-01","average_temperature":"32.96700000000001","city":"Hapur","latitude":"28.13N","longitude":"77.27E"}
{"date":"2010-08-01","average_temperature":"28.158","city":"Hat Yai","latitude":"7.23N","longitude":"99.73E"}
{"date":"2013-01-01","average_temperature":"27.706999999999997","city":"Hat Yai","latitude":"7.23N","longitude":"99.73E"}
{"date":"2011-01-01","average_temperature":"-6.808","city":"Hebi","latitude":"36.17N","longitude":"113.37E"}
{"date":"2010-10-01","average_temperature":"5.172999999999999","city":"Hengshan","latitude":"45.81N","longitude":"130.38E"}
{"date":"2010-07-01","average_temperature":"21.193","city":"Hildesheim","latitude":"52.24N","longitude":"10.51E"}
{"date":"2011-04-01","average_temperature":"12.274000000000001","city":"Himeji","latitude":"34.56N","longitude":"134.27E"}
{"date":"2011-08-01","average_temperature":"23.57","city":"Hirosaki","latitude":"40.99N","longitude":"140.59E"}
{"date":"2011-12-01","average_temperature":"26.474","city":"Ho Chi Minh City","latitude":"10.45N","longitude":"107.18E"}
{"date":"2011-07-01","average_temperature":"31.038","city":"Hoshiarpur","latitude":"31.35N","longitude":"75.39E"}
{"date":"2012-05-01","average_temperature":"24.708000000000002","city":"Hsichih","latitude":"24.92N","longitude":"122.36E"}
{"date":"2012-09-01","average_temperature":"26.205","city":"Hsinchu","latitude":"24.92N","longitude":"120.59E"}
{"date":"2011-08-01","average_temperature":"27.354","city":"Huaihua","latitude":"28.13N","longitude":"110.00E"}
{"date":"2012-02-01","average_temperature":"2.827","city":"Huainan","latitude":"32.95N","longitude":"117.77E"}
{"date":"2012-03-01","average_temperature":"20.831","city":"Huambo","latitude":"13.66S","longitude":"15.69E"}
{"date":"2012-05-01","average_temperature":"7.952000000000001","city":"Huancayo","latitude":"12.05S","longitude":"75.62W"}
{"date":"2012-02-01","average_temperature":"4.831","city":"Huangzhou","latitude":"29.74N","longitude":"114.46E"}
{"date":"2010-01-01","average_temperature":"21.255","city":"Hue","latitude":"16.87N","longitude":"107.16E"}
{"date":"2010-10-01","average_temperature":"24.929","city":"Hue","latitude":"16.87N","longitude":"107.16E"}
{"date":"2011-06-01","average_temperature":"29.783","city":"Hue","latitude":"16.87N","longitude":"107.16E"}
{"date":"2012-12-01","average_temperature":"10.644","city":"Huelva","latitude":"37.78N","longitude":"6.10W"}
{"date":"2010-12-01","average_temperature":"14.408","city":"Humen","latitude":"23.31N","longitude":"114.47E"}
{"date":"2012-11-01","average_temperature":"24.641","city":"Hyderabad","latitude":"16.87N","longitude":"78.70E"}
{"date":"2011-09-01","average_temperature":"18.072","city":"Ibarra","latitude":"0.80N","longitude":"77.95W"}
{"date":"2011-01-01","average_temperature":"22.933000000000003","city":"Ibb","latitude":"13.66N","longitude":"43.76E"}
{"date":"2013-07-01","average_temperature":"25.206","city":"Ife","latitude":"7.23N","longitude":"4.05E"}
{"date":"2010-08-01","average_temperature":"22.272","city":"Iguala","latitude":"18.48N","longitude":"99.72W"}
{"date":"2010-05-01","average_temperature":"27.765","city":"Ijero","latitude":"7.23N","longitude":"5.68E"}
{"date":"2010-06-01","average_temperature":"26.27","city":"Ijero","latitude":"7.23N","longitude":"5.68E"}
{"date":"2012-02-01","average_temperature":"28.872","city":"Ikire","latitude":"7.23N","longitude":"4.05E"}
{"date":"2012-09-01","average_temperature":"25.14","city":"Ikire","latitude":"7.23N","longitude":"4.05E"}
{"date":"2010-06-01","average_temperature":"26.611","city":"Ikirun","latitude":"7.23N","longitude":"4.05E"}
{"date":"2013-08-01","average_temperature":"27.487","city":"Iligan","latitude":"8.84N","longitude":"124.05E"}
{"date":"2010-05-01","average_temperature":"28.092","city":"Ilobu","latitude":"7.23N","longitude":"4.05E"}
{"date":"2011-06-01","average_temperature":"28.217","city":"Iloilo","latitude":"10.45N","longitude":"121.91E"}
{"date":"2010-07-01","average_temperature":"27.105","city":"Indramayu","latitude":"5.63S","longitude":"108.16E"}
{"date":"2011-12-01","average_temperature":"-1.2719999999999998","city":"Innsbruck","latitude":"47.42N","longitude":"10.66E"}
{"date":"2012-03-01","average_temperature":"3.746","city":"Innsbruck","latitude":"47.42N","longitude":"10.66E"}
{"date":"2010-01-01","average_temperature":"6.006","city":"Irving","latitude":"32.95N","longitude":"96.70W"}
{"date":"2010-03-01","average_temperature":"23.112","city":"Islamabad","latitude":"32.95N","longitude":"73.72E"}
{"date":"2010-12-01","average_temperature":"6.625","city":"Isparta","latitude":"37.78N","longitude":"30.51E"}
{"date":"2012-07-01","average_temperature":"18.989","city":"Itajaí","latitude":"26.52S","longitude":"48.36W"}
{"date":"2012-08-01","average_temperature":"28.74","city":"Jaén","latitude":"37.78N","longitude":"4.07W"}
{"date":"2011-04-01","average_temperature":"27.654","city":"Jakarta","latitude":"5.63S","longitude":"106.55E"}
{"date":"2013-02-01","average_temperature":"15.640999999999998","city":"Jalandhar","latitude":"31.35N","longitude":"75.39E"}
{"date":"2011-03-01","average_temperature":"24.905","city":"Jamalpur","latitude":"24.92N","longitude":"90.44E"}
{"date":"2011-02-01","average_temperature":"6.837999999999999","city":"Jammu","latitude":"32.95N","longitude":"75.64E"}
{"date":"2011-06-01","average_temperature":"23.884","city":"Jammu","latitude":"32.95N","longitude":"75.64E"}
{"date":"2013-06-01","average_temperature":"26.98","city":"Jember","latitude":"8.84S","longitude":"114.32E"}
{"date":"2012-10-01","average_temperature":"12.436","city":"Jersey City","latitude":"40.99N","longitude":"74.56W"}
{"date":"2010-05-01","average_temperature":"21.263","city":"Jiangyou","latitude":"31.35N","longitude":"105.55E"}
{"date":"2012-02-01","average_temperature":"-14.966","city":"Jiaohe","latitude":"44.20N","longitude":"127.45E"}
{"date":"2011-05-01","average_temperature":"12.784","city":"Jilin","latitude":"44.20N","longitude":"127.45E"}
{"date":"2012-12-01","average_temperature":"5.196000000000001","city":"Jingdezhen","latitude":"29.74N","longitude":"116.31E"}
{"date":"2011-03-01","average_temperature":"2.551","city":"Jinxi","latitude":"40.99N","longitude":"121.42E"}
{"date":"2010-11-01","average_temperature":"27.072","city":"João Pessoa","latitude":"7.23S","longitude":"34.86W"}
{"date":"2011-08-01","average_temperature":"29.956999999999997","city":"Jodhpur","latitude":"26.52N","longitude":"73.43E"}
{"date":"2010-01-01","average_temperature":"3.653","city":"Joetsu","latitude":"37.78N","longitude":"138.31E"}
{"date":"2010-04-01","average_temperature":"13.732999999999999","city":"Joliet","latitude":"40.99N","longitude":"87.34W"}
{"date":"2012-08-01","average_temperature":"25.796","city":"Juàzeiro","latitude":"8.84S","longitude":"39.73W"}
{"date":"2011-11-01","average_temperature":"18.817","city":"Jujuy","latitude":"24.92S","longitude":"65.62W"}
{"date":"2012-02-01","average_temperature":"18.958","city":"Jujuy","latitude":"24.92S","longitude":"65.62W"}
{"date":"2012-06-01","average_temperature":"2.766","city":"Juliaca","latitude":"15.27S","longitude":"70.83W"}
{"date":"2012-03-01","average_temperature":"22.706999999999997","city":"Jundiaí","latitude":"23.31S","longitude":"46.31W"}
{"date":"2012-09-01","average_temperature":"19.933","city":"Kütahya","latitude":"39.38N","longitude":"29.13E"}
{"date":"2010-02-01","average_temperature":"27.521","city":"Kabankalan","latitude":"10.45N","longitude":"123.55E"}
{"date":"2013-05-01","average_temperature":"21.245","city":"Kabul","latitude":"34.56N","longitude":"70.05E"}
{"date":"2013-07-01","average_temperature":"26.805","city":"Kabul","latitude":"34.56N","longitude":"70.05E"}
{"date":"2010-03-01","average_temperature":"10.888","city":"Kahramanmaras","latitude":"37.78N","longitude":"36.61E"}
{"date":"2012-09-01","average_temperature":"25.993000000000002","city":"Kalyan","latitude":"20.09N","longitude":"73.36E"}
{"date":"2010-11-01","average_temperature":"24.085","city":"Kananga","latitude":"5.63S","longitude":"22.60E"}
{"date":"2012-03-01","average_temperature":"24.792","city":"Kananga","latitude":"5.63S","longitude":"22.60E"}
{"date":"2011-09-01","average_temperature":"26.099","city":"Kandi","latitude":"10.45N","longitude":"2.45E"}
{"date":"2010-06-01","average_temperature":"26.875","city":"Kaohsiung","latitude":"23.31N","longitude":"119.71E"}
{"date":"2011-06-01","average_temperature":"28.441999999999997","city":"Kaohsiung","latitude":"23.31N","longitude":"119.71E"}
{"date":"2012-06-01","average_temperature":"31.775","city":"Kapra","latitude":"16.87N","longitude":"78.70E"}
{"date":"2010-11-01","average_temperature":"9.808","city":"Karaman","latitude":"37.78N","longitude":"32.54E"}
{"date":"2011-04-01","average_temperature":"31.125999999999998","city":"Karimnagar","latitude":"18.48N","longitude":"79.44E"}
{"date":"2012-05-01","average_temperature":"15.241","city":"Karlsruhe","latitude":"49.03N","longitude":"7.35E"}
{"date":"2010-03-01","average_temperature":"24.656999999999996","city":"Kasur","latitude":"31.35N","longitude":"73.51E"}
{"date":"2013-09-01","city":"Kasur","latitude":"31.35N","longitude":"73.51E"}
{"date":"2012-06-01","average_temperature":"17.298000000000002","city":"Katowice","latitude":"50.63N","longitude":"19.01E"}
{"date":"2011-03-01","average_temperature":"21.307","city":"Katumba","latitude":"8.84S","longitude":"33.24E"}
{"date":"2010-11-01","average_temperature":"9.515","city":"Kawaguchi","latitude":"36.17N","longitude":"139.23E"}
{"date":"2010-07-01","average_temperature":"27.608","city":"Kerman","latitude":"29.74N","longitude":"57.23E"}
{"date":"2011-06-01","average_temperature":"16.441000000000006","city":"Khabarovsk","latitude":"49.03N","longitude":"134.69E"}
{"date":"2013-06-01","average_temperature":"19.044","city":"Khabarovsk","latitude":"49.03N","longitude":"134.69E"}
{"date":"2011-01-01","average_temperature":"18.648","city":"Khandwa","latitude":"21.70N","longitude":"77.02E"}
{"date":"2011-03-01","average_temperature":"3.398","city":"Kielce","latitude":"50.63N","longitude":"21.55E"}
{"date":"2012-10-01","average_temperature":"24.288","city":"Kikwit","latitude":"5.63S","longitude":"19.37E"}
{"date":"2010-06-01","average_temperature":"28.367","city":"Killeen","latitude":"31.35N","longitude":"98.01W"}
{"date":"2012-04-01","average_temperature":"23.492","city":"Kindu","latitude":"2.41S","longitude":"26.52E"}
{"date":"2013-06-01","average_temperature":"17.644000000000005","city":"Kingston","latitude":"44.20N","longitude":"76.02W"}
{"date":"2013-05-01","average_temperature":"25.093000000000004","city":"Kinshasa","latitude":"4.02S","longitude":"15.27E"}
{"date":"2010-11-01","average_temperature":"8.044","city":"Kislovodsk","latitude":"44.20N","longitude":"42.48E"}
{"date":"2010-09-01","average_temperature":"14.892","city":"Kitchener","latitude":"44.20N","longitude":"80.50W"}
{"date":"2010-10-01","average_temperature":"18.347","city":"Kobe","latitude":"34.56N","longitude":"134.27E"}
{"date":"2013-03-01","average_temperature":"7.955","city":"Kodaira","latitude":"36.17N","longitude":"139.23E"}
{"date":"2010-12-01","average_temperature":"12.652000000000001","city":"Kohat","latitude":"32.95N","longitude":"71.81E"}
{"date":"2011-10-01","average_temperature":"25.191","city":"Koidu","latitude":"8.84N","longitude":"10.54W"}
{"date":"2011-12-01","average_temperature":"26.513","city":"Kollam","latitude":"8.84N","longitude":"77.03E"}
{"date":"2012-11-01","average_temperature":"11.014000000000001","city":"Komaki","latitude":"34.56N","longitude":"136.22E"}
{"date":"2012-12-01","average_temperature":"25.688000000000002","city":"Kotte","latitude":"7.23N","longitude":"80.27E"}
{"date":"2013-05-01","average_temperature":"27.938000000000002","city":"Kotte","latitude":"7.23N","longitude":"80.27E"}
{"date":"2012-03-01","average_temperature":"1.723","city":"Krasnodar","latitude":"45.81N","longitude":"38.08E"}
{"date":"2011-07-01","average_temperature":"27.072","city":"Kresek","latitude":"5.63S","longitude":"106.55E"}
{"date":"2012-11-01","average_temperature":"26.671999999999997","city":"Kuantan","latitude":"4.02N","longitude":"103.66E"}
{"date":"2012-07-01","average_temperature":"15.66","city":"Kyzyl","latitude":"52.24N","longitude":"94.60E"}
{"date":"2012-09-01","average_temperature":"24.561","city":"Lafia","latitude":"8.84N","longitude":"8.92E"}
{"date":"2013-09-01","city":"Lafia","latitude":"8.84N","longitude":"8.92E"}
{"date":"2012-12-01","average_temperature":"-1.55","city":"Lakewood","latitude":"39.38N","longitude":"104.05W"}
{"date":"2011-07-01","average_temperature":"17.672","city":"Lambaré","latitude":"24.92S","longitude":"58.52W"}
{"date":"2011-10-01","average_temperature":"10.779000000000002","city":"Lansing","latitude":"42.59N","longitude":"85.09W"}
{"date":"2010-12-01","average_temperature":"27.302","city":"Lapu Lapu","latitude":"10.45N","longitude":"123.55E"}
{"date":"2010-04-01","average_temperature":"33.216","city":"Latur","latitude":"18.48N","longitude":"76.06E"}
{"date":"2011-03-01","average_temperature":"28.908","city":"Latur","latitude":"18.48N","longitude":"76.06E"}
{"date":"2012-02-01","average_temperature":"25.211","city":"Latur","latitude":"18.48N","longitude":"76.06E"}
{"date":"2013-02-01","average_temperature":"4.8610000000000015","city":"León","latitude":"42.59N","longitude":"6.55W"}
{"date":"2010-10-01","average_temperature":"11.357999999999999","city":"Le Havre","latitude":"49.03N","longitude":"0.00W"}
{"date":"2013-08-01","average_temperature":"27.64","city":"Legaspi","latitude":"13.66N","longitude":"123.03E"}
{"date":"2012-04-01","average_temperature":"11.345","city":"Leghorn","latitude":"44.20N","longitude":"11.18E"}
{"date":"2010-07-01","average_temperature":"20.128","city":"Legnica","latitude":"50.63N","longitude":"16.48E"}
{"date":"2011-07-01","average_temperature":"29.078000000000003","city":"Lengshuijiang","latitude":"28.13N","longitude":"111.82E"}
{"date":"2013-05-01","average_temperature":"18.84","city":"Leshan","latitude":"29.74N","longitude":"103.38E"}
{"date":"2011-12-01","average_temperature":"4.686","city":"Leverkusen","latitude":"50.63N","longitude":"6.34E"}
{"date":"2010-08-01","average_temperature":"28.802000000000003","city":"Licheng","latitude":"23.31N","longitude":"114.47E"}
{"date":"2013-05-01","average_temperature":"25.896","city":"Licheng","latitude":"23.31N","longitude":"114.47E"}
{"date":"2010-03-01","average_temperature":"6.899","city":"Lille","latitude":"50.63N","longitude":"3.80E"}
{"date":"2012-05-01","average_temperature":"19.215999999999998","city":"Limeira","latitude":"21.70S","longitude":"47.60W"}
{"date":"2011-02-01","average_temperature":"8.206","city":"Linhai","latitude":"28.13N","longitude":"120.91E"}
{"date":"2011-11-01","average_temperature":"2.1430000000000002","city":"Linz","latitude":"49.03N","longitude":"14.69E"}
{"date":"2012-01-01","average_temperature":"7.877999999999999","city":"Little Rock","latitude":"34.56N","longitude":"91.46W"}
{"date":"2010-02-01","average_temperature":"27.325","city":"Lobito","latitude":"12.05S","longitude":"13.15E"}
{"date":"2011-08-01","average_temperature":"28.241999999999997","city":"Long Xuyên","latitude":"10.45N","longitude":"105.55E"}
{"date":"2010-02-01","average_temperature":"25.645","city":"Loum","latitude":"5.63N","longitude":"9.69E"}
{"date":"2013-05-01","average_temperature":"22.49","city":"Luziânia","latitude":"16.87S","longitude":"48.56W"}
{"date":"2011-03-01","average_temperature":"2.0069999999999997","city":"Lvov","latitude":"50.63N","longitude":"24.08E"}
{"date":"2010-01-01","average_temperature":"9.781","city":"Maba","latitude":"24.92N","longitude":"113.50E"}
{"date":"2011-09-01","average_temperature":"25.005000000000006","city":"Maba","latitude":"24.92N","longitude":"113.50E"}
{"date":"2012-05-01","average_temperature":"29.139","city":"Mabalacat","latitude":"15.27N","longitude":"120.83E"}
{"date":"2012-07-01","average_temperature":"28.936","city":"Magangué","latitude":"8.84N","longitude":"75.41W"}
{"date":"2013-05-01","average_temperature":"27.215","city":"Magelang","latitude":"7.23S","longitude":"109.46E"}
{"date":"2011-05-01","average_temperature":"33.142","city":"Mahbubnagar","latitude":"16.87N","longitude":"78.70E"}
{"date":"2010-02-01","average_temperature":"28.827","city":"Maiduguri","latitude":"12.05N","longitude":"13.15E"}
{"date":"2011-04-01","average_temperature":"13.285","city":"Malatya","latitude":"37.78N","longitude":"38.64E"}
{"date":"2012-10-01","average_temperature":"25.964000000000002","city":"Managua","latitude":"12.05N","longitude":"85.48W"}
{"date":"2012-02-01","average_temperature":"25.879","city":"Manaus","latitude":"2.41S","longitude":"60.27W"}
{"date":"2011-05-01","average_temperature":"28.363000000000003","city":"Mangaluru","latitude":"13.66N","longitude":"75.14E"}
{"date":"2010-08-01","average_temperature":"17.62","city":"Mannheim","latitude":"49.03N","longitude":"7.35E"}
{"date":"2011-08-01","average_temperature":"22.561999999999998","city":"Matadi","latitude":"5.63S","longitude":"12.91E"}
{"date":"2010-08-01","average_temperature":"28.253","city":"Matanzas","latitude":"23.31N","longitude":"81.26W"}
{"date":"2011-12-01","average_temperature":"23.851999999999997","city":"Matanzas","latitude":"23.31N","longitude":"81.26W"}
{"date":"2011-02-01","average_temperature":"25.302","city":"Matola","latitude":"26.52S","longitude":"32.24E"}
{"date":"2010-08-01","average_temperature":"17.852999999999998","city":"Mauá","latitude":"23.31S","longitude":"46.31W"}
{"date":"2012-05-01","average_temperature":"28.353","city":"Mawlamyine","latitude":"16.87N","longitude":"97.12E"}
{"date":"2010-02-01","average_temperature":"3.424","city":"Maykop","latitude":"44.20N","longitude":"40.25E"}
{"date":"2010-07-01","average_temperature":"25.229","city":"Mazatlán","latitude":"23.31N","longitude":"105.73W"}
{"date":"2011-09-01","average_temperature":"27.394","city":"Medan","latitude":"4.02N","longitude":"98.84E"}
{"date":"2011-05-01","average_temperature":"27.837","city":"Mergui","latitude":"12.05N","longitude":"98.63E"}
{"date":"2012-07-01","average_temperature":"32.300000000000004","city":"Mesa","latitude":"32.95N","longitude":"112.02W"}
{"date":"2010-06-01","average_temperature":"19.589","city":"Mexico","latitude":"20.09N","longitude":"98.96W"}
{"date":"2013-04-01","average_temperature":"19.011","city":"Mexico","latitude":"20.09N","longitude":"98.96W"}
{"date":"2012-05-01","average_temperature":"7.547000000000001","city":"Mezhdurechensk","latitude":"53.84N","longitude":"88.64E"}
{"date":"2010-07-01","average_temperature":"29.344","city":"Miami","latitude":"26.52N","longitude":"80.60W"}
{"date":"2012-03-01","average_temperature":"4.196999999999999","city":"Miandoab","latitude":"36.17N","longitude":"45.75E"}
{"date":"2012-03-01","average_temperature":"7.848","city":"Middlesbrough","latitude":"53.84N","longitude":"1.36W"}
{"date":"2012-06-01","average_temperature":"12.655999999999999","city":"Middlesbrough","latitude":"53.84N","longitude":"1.36W"}
{"date":"2011-01-01","average_temperature":"19.065","city":"Midrand","latitude":"26.52S","longitude":"28.66E"}
{"date":"2011-12-01","average_temperature":"26.409000000000002","city":"Miri","latitude":"4.02N","longitude":"113.30E"}
{"date":"2012-03-01","average_temperature":"5.617000000000001","city":"Misato","latitude":"36.17N","longitude":"139.23E"}
{"date":"2012-06-01","average_temperature":"15.101","city":"Moers","latitude":"50.63N","longitude":"6.34E"}
{"date":"2012-11-01","average_temperature":"27.642","city":"Mombasa","latitude":"4.02S","longitude":"39.38E"}
{"date":"2010-08-01","average_temperature":"20.813000000000002","city":"Montes Claros","latitude":"16.87S","longitude":"43.53W"}
{"date":"2010-05-01","average_temperature":"13.53","city":"Monza","latitude":"45.81N","longitude":"10.38E"}
{"date":"2013-05-01","average_temperature":"34.707","city":"Mopti","latitude":"15.27N","longitude":"4.17W"}
{"date":"2011-09-01","average_temperature":"23.851000000000006","city":"Moriguchi","latitude":"34.56N","longitude":"136.22E"}
{"date":"2012-01-01","average_temperature":"-7.713000000000001","city":"Moscow","latitude":"55.45N","longitude":"36.85E"}
{"date":"2010-08-01","average_temperature":"22.092","city":"Moshi","latitude":"4.02S","longitude":"37.77E"}
{"date":"2011-01-01","average_temperature":"23.888","city":"Moundou","latitude":"8.84N","longitude":"15.41E"}
{"date":"2012-03-01","average_temperature":"5.784","city":"Mulhouse","latitude":"47.42N","longitude":"8.29E"}
{"date":"2010-11-01","average_temperature":"1.9480000000000004","city":"Murom","latitude":"55.45N","longitude":"42.52E"}
{"date":"2010-07-01","average_temperature":"27.733","city":"Murwara","latitude":"23.31N","longitude":"81.26E"}
{"date":"2012-04-01","average_temperature":"21.594","city":"Musoma","latitude":"0.80S","longitude":"34.55E"}
{"date":"2010-09-01","average_temperature":"28.297","city":"Nadiad","latitude":"23.31N","longitude":"72.52E"}
{"date":"2010-04-01","average_temperature":"32.318000000000005","city":"Naihati","latitude":"23.31N","longitude":"88.25E"}
{"date":"2012-06-01","average_temperature":"31.590999999999998","city":"Najran","latitude":"16.87N","longitude":"43.53E"}
{"date":"2012-03-01","average_temperature":"-1.791","city":"Nalchik","latitude":"42.59N","longitude":"43.64E"}
{"date":"2013-07-01","average_temperature":"24.548000000000002","city":"Namangan","latitude":"40.99N","longitude":"72.43E"}
{"date":"2012-08-01","average_temperature":"29.593000000000004","city":"Nandyal","latitude":"15.27N","longitude":"79.17E"}
{"date":"2013-09-01","city":"Nanpiao","latitude":"40.99N","longitude":"121.42E"}
{"date":"2010-02-01","average_temperature":"3.306","city":"Narashino","latitude":"36.17N","longitude":"139.23E"}
{"date":"2010-01-01","average_temperature":"6.1770000000000005","city":"Narita","latitude":"36.17N","longitude":"141.22E"}
{"date":"2010-08-01","average_temperature":"29.761","city":"Narsingdi","latitude":"23.31N","longitude":"90.00E"}
{"date":"2013-04-01","average_temperature":"29.011999999999997","city":"Narsingdi","latitude":"23.31N","longitude":"90.00E"}
{"date":"2010-01-01","average_temperature":"0.3460000000000001","city":"Nashville","latitude":"36.17N","longitude":"87.51W"}
{"date":"2011-02-01","average_temperature":"27.236","city":"Natal","latitude":"5.63S","longitude":"35.52W"}
{"date":"2012-01-01","average_temperature":"12.901","city":"Naucalpan","latitude":"20.09N","longitude":"98.96W"}
{"date":"2012-09-01","average_temperature":"21.088","city":"Navoi","latitude":"39.38N","longitude":"64.51E"}
{"date":"2011-03-01","average_temperature":"14.106","city":"Netanya","latitude":"32.95N","longitude":"35.43E"}
{"date":"2010-12-01","average_temperature":"19.479","city":"Neuquen","latitude":"39.38S","longitude":"68.67W"}
{"date":"2012-08-01","average_temperature":"14.743","city":"Newcastle Upon Tyne","latitude":"55.45N","longitude":"2.83W"}
{"date":"2010-12-01","average_temperature":"0.11800000000000033","city":"Newport News","latitude":"37.78N","longitude":"77.29W"}
{"date":"2012-07-01","average_temperature":"29.840999999999998","city":"Neyveli","latitude":"12.05N","longitude":"78.90E"}
{"date":"2011-11-01","average_temperature":"21.873","city":"Ngaoundéré","latitude":"7.23N","longitude":"13.78E"}
{"date":"2013-08-01","average_temperature":"27.183000000000003","city":"Nguru","latitude":"13.66N","longitude":"10.73E"}
{"date":"2012-03-01","average_temperature":"6.292999999999998","city":"Nis","latitude":"42.59N","longitude":"21.82E"}
{"date":"2011-05-01","average_temperature":"18.11","city":"Nishio","latitude":"34.56N","longitude":"136.22E"}
{"date":"2012-04-01","average_temperature":"2.8469999999999995","city":"Nizhnevartovsk","latitude":"60.27N","longitude":"77.84E"}
{"date":"2011-11-01","average_temperature":"-8.279","city":"Nizhniy Tagil","latitude":"57.05N","longitude":"60.49E"}
{"date":"2012-07-01","average_temperature":"12.781","city":"North Shore","latitude":"36.17S","longitude":"175.03E"}
{"date":"2013-06-01","average_temperature":"14.698","city":"Northampton","latitude":"52.24N","longitude":"0.00W"}
{"date":"2012-02-01","average_temperature":"3.7230000000000003","city":"Norwich","latitude":"52.24N","longitude":"0.00W"}
{"date":"2012-05-01","average_temperature":"12.341","city":"Norwich","latitude":"52.24N","longitude":"0.00W"}
{"date":"2013-04-01","average_temperature":"7.53","city":"Norwich","latitude":"52.24N","longitude":"0.00W"}
{"date":"2012-10-01","average_temperature":"13.222000000000001","city":"Novocherkassk","latitude":"47.42N","longitude":"39.08E"}
{"date":"2012-12-01","average_temperature":"-20.153","city":"Novokuznetsk","latitude":"53.84N","longitude":"85.91E"}
{"date":"2010-01-01","average_temperature":"-2.9930000000000003","city":"Obihiro","latitude":"42.59N","longitude":"144.00E"}
{"date":"2011-10-01","average_temperature":"26.516","city":"Obosi","latitude":"5.63N","longitude":"6.46E"}
{"date":"2013-06-01","average_temperature":"26.237","city":"Ocumare Del Tuy","latitude":"10.45N","longitude":"66.27W"}
{"date":"2011-04-01","average_temperature":"8.555","city":"Odesa","latitude":"45.81N","longitude":"31.15E"}
{"date":"2013-03-01","average_temperature":"10.33","city":"Ogaki","latitude":"34.56N","longitude":"136.22E"}
{"date":"2010-05-01","average_temperature":"28.443","city":"Okrika","latitude":"4.02N","longitude":"7.23E"}
{"date":"2013-06-01","average_temperature":"27.006","city":"Okrika","latitude":"4.02N","longitude":"7.23E"}
{"date":"2011-11-01","average_temperature":"2.42","city":"Olomouc","latitude":"49.03N","longitude":"17.14E"}
{"date":"2010-10-01","average_temperature":"15.880999999999998","city":"Ome","latitude":"36.17N","longitude":"139.23E"}
{"date":"2012-02-01","average_temperature":"-19.677","city":"Omsk","latitude":"55.45N","longitude":"73.70E"}
{"date":"2011-12-01","average_temperature":"26.978","city":"Oron","latitude":"5.63N","longitude":"8.07E"}
{"date":"2013-07-01","average_temperature":"26.405","city":"Oron","latitude":"5.63N","longitude":"8.07E"}
{"date":"2012-09-01","average_temperature":"14.234000000000002","city":"Orsk","latitude":"50.63N","longitude":"59.58E"}
{"date":"2013-08-01","average_temperature":"19.726","city":"Orsk","latitude":"50.63N","longitude":"59.58E"}
{"date":"2012-12-01","average_temperature":"12.1","city":"Oruro","latitude":"18.48S","longitude":"67.61W"}
{"date":"2011-07-01","average_temperature":"25.290000000000006","city":"Oshogbo","latitude":"7.23N","longitude":"4.05E"}
{"date":"2011-01-01","average_temperature":"14.276","city":"Osorno","latitude":"40.99S","longitude":"72.43W"}
{"date":"2012-03-01","average_temperature":"12.45","city":"Osorno","latitude":"40.99S","longitude":"72.43W"}
{"date":"2012-10-01","average_temperature":"8.677999999999999","city":"Osorno","latitude":"40.99S","longitude":"72.43W"}
{"date":"2010-10-01","average_temperature":"11.394","city":"Otaru","latitude":"42.59N","longitude":"141.82E"}
{"date":"2012-03-01","average_temperature":"-2.8250000000000006","city":"Oulu","latitude":"65.09N","longitude":"24.89E"}
{"date":"2011-07-01","average_temperature":"23.987","city":"Oxnard","latitude":"34.56N","longitude":"118.70W"}
{"date":"2011-06-01","average_temperature":"21.085","city":"Oyama","latitude":"36.17N","longitude":"139.23E"}
{"date":"2012-05-01","average_temperature":"17.939999999999994","city":"Pátrai","latitude":"37.78N","longitude":"22.37E"}
{"date":"2013-02-01","average_temperature":"25.544","city":"Pétionville","latitude":"18.48N","longitude":"72.68W"}
{"date":"2013-04-01","average_temperature":"26.222","city":"Pôrto Velho","latitude":"8.84S","longitude":"64.05W"}
{"date":"2013-06-01","average_temperature":"30.133000000000003","city":"Pabna","latitude":"23.31N","longitude":"90.00E"}
{"date":"2012-10-01","average_temperature":"26.503","city":"Pacet","latitude":"7.23S","longitude":"107.84E"}
{"date":"2012-11-01","average_temperature":"26.206999999999997","city":"Pacet","latitude":"7.23S","longitude":"107.84E"}
{"date":"2010-11-01","average_temperature":"8.780000000000001","city":"Padova","latitude":"45.81N","longitude":"12.69E"}
{"date":"2011-01-01","average_temperature":"26.143","city":"Pagadian","latitude":"7.23N","longitude":"124.05E"}
{"date":"2011-12-01","average_temperature":"26.784000000000002","city":"Palembang","latitude":"2.41S","longitude":"105.27E"}
{"date":"2011-09-01","average_temperature":"18.029","city":"Palhoça","latitude":"28.13S","longitude":"48.18W"}
{"date":"2013-02-01","average_temperature":"10.993","city":"Palma","latitude":"39.38N","longitude":"2.08E"}
{"date":"2012-04-01","average_temperature":"26.564","city":"Palu","latitude":"0.80S","longitude":"119.73E"}
{"date":"2010-01-01","average_temperature":"26.787000000000006","city":"Pamulang","latitude":"5.63S","longitude":"106.55E"}
{"date":"2011-10-01","average_temperature":"26.091","city":"Panamá","latitude":"8.84N","longitude":"80.27W"}
{"date":"2012-02-01","average_temperature":"24.693","city":"Panvel","latitude":"18.48N","longitude":"72.68E"}
{"date":"2010-11-01","average_temperature":"27.552","city":"Parakou","latitude":"8.84N","longitude":"2.43E"}
{"date":"2011-04-01","average_temperature":"13.315","city":"Parma","latitude":"44.20N","longitude":"11.18E"}
{"date":"2012-07-01","average_temperature":"28.416","city":"Pasadena","latitude":"29.74N","longitude":"96.00W"}
{"date":"2012-06-01","average_temperature":"27.718000000000004","city":"Pasarkemis","latitude":"5.63S","longitude":"106.55E"}
{"date":"2011-04-01","average_temperature":"19.871","city":"Passo Fundo","latitude":"28.13S","longitude":"51.82W"}
{"date":"2012-07-01","average_temperature":"26.561999999999998","city":"Pasuruan","latitude":"7.23S","longitude":"112.70E"}
{"date":"2012-06-01","average_temperature":"26.063000000000002","city":"Pate","latitude":"24.92N","longitude":"120.59E"}
{"date":"2012-09-01","average_temperature":"27.509","city":"Pembroke Pines","latitude":"26.52N","longitude":"80.60W"}
{"date":"2012-04-01","average_temperature":"21.364","city":"Peoria","latitude":"32.95N","longitude":"112.02W"}
{"date":"2011-06-01","average_temperature":"22.476999999999997","city":"Peoria","latitude":"40.99N","longitude":"89.47W"}
{"date":"2013-08-01","average_temperature":"22.658","city":"Peoria","latitude":"40.99N","longitude":"89.47W"}
{"date":"2010-07-01","average_temperature":"27.936","city":"Perbaungan","latitude":"4.02N","longitude":"98.84E"}
{"date":"2013-01-01","average_temperature":"26.902","city":"Perbaungan","latitude":"4.02N","longitude":"98.84E"}
{"date":"2013-03-01","average_temperature":"27.924","city":"Perbaungan","latitude":"4.02N","longitude":"98.84E"}
{"date":"2012-12-01","average_temperature":"29.079","city":"Petrolina","latitude":"8.84S","longitude":"39.73W"}
{"date":"2010-11-01","average_temperature":"-2.725","city":"Petropavl","latitude":"55.45N","longitude":"68.03E"}
{"date":"2013-04-01","average_temperature":"31.189","city":"Phitsanulok","latitude":"16.87N","longitude":"100.47E"}
{"date":"2011-02-01","average_temperature":"14.339","city":"Piedras Negras","latitude":"28.13N","longitude":"100.91W"}
{"date":"2010-02-01","average_temperature":"24.83","city":"Pindamonhangaba","latitude":"23.31S","longitude":"46.31W"}
{"date":"2010-09-01","average_temperature":"20.063","city":"Pindamonhangaba","latitude":"23.31S","longitude":"46.31W"}
{"date":"2010-03-01","average_temperature":"0.9159999999999999","city":"Poltava","latitude":"49.03N","longitude":"34.29E"}
{"date":"2010-04-01","average_temperature":"27.97","city":"Port Gentil","latitude":"0.80S","longitude":"8.84E"}
{"date":"2011-04-01","average_temperature":"25.176","city":"Port Saint Lucie","latitude":"26.52N","longitude":"80.60W"}
{"date":"2012-12-01","average_temperature":"19.82","city":"Port Saint Lucie","latitude":"26.52N","longitude":"80.60W"}
{"date":"2013-05-01","average_temperature":"15.562000000000001","city":"Porto Alegre","latitude":"29.74S","longitude":"51.69W"}
{"date":"2013-06-01","average_temperature":"15.514000000000001","city":"Posadas","latitude":"28.13S","longitude":"55.45W"}
{"date":"2011-12-01","average_temperature":"21.831999999999997","city":"Potchefstroom","latitude":"26.52S","longitude":"26.87E"}
{"date":"2010-10-01","average_temperature":"24.118","city":"Presidente Prudente","latitude":"21.70S","longitude":"51.06W"}
{"date":"2011-01-01","average_temperature":"24.09","city":"Proddatur","latitude":"15.27N","longitude":"79.17E"}
{"date":"2013-07-01","average_temperature":"30.694000000000003","city":"Punto Fijo","latitude":"12.05N","longitude":"70.68W"}
{"date":"2012-03-01","average_temperature":"26.228","city":"Purwodadi","latitude":"7.23S","longitude":"111.08E"}
{"date":"2011-02-01","average_temperature":"8.482000000000001","city":"Qandahar","latitude":"31.35N","longitude":"65.97E"}
{"date":"2011-04-01","average_temperature":"10.398","city":"Qingdao","latitude":"36.17N","longitude":"121.33E"}
{"date":"2012-04-01","average_temperature":"23.309","city":"Qingyuan","latitude":"23.31N","longitude":"112.72E"}
{"date":"2010-10-01","average_temperature":"12.299000000000001","city":"Qinhuangdao","latitude":"39.38N","longitude":"118.61E"}
{"date":"2010-02-01","average_temperature":"21.947000000000006","city":"Queenstown","latitude":"31.35S","longitude":"26.39E"}
{"date":"2010-07-01","average_temperature":"24.229","city":"Queimados","latitude":"23.31S","longitude":"42.82W"}
{"date":"2011-02-01","average_temperature":"27.791","city":"Quelimane","latitude":"18.48S","longitude":"37.18E"}
{"date":"2011-12-01","average_temperature":"27.092","city":"Quelimane","latitude":"18.48S","longitude":"37.18E"}
{"date":"2011-12-01","average_temperature":"17.457","city":"Quetzaltenango","latitude":"15.27N","longitude":"90.83W"}
{"date":"2013-06-01","average_temperature":"30.851000000000006","city":"Qui Nhon","latitude":"13.66N","longitude":"109.82E"}
{"date":"2013-04-01","average_temperature":"30.26","city":"Rabak","latitude":"13.66N","longitude":"32.20E"}
{"date":"2011-08-01","average_temperature":"19.202","city":"Radom","latitude":"50.63N","longitude":"21.55E"}
{"date":"2013-08-01","average_temperature":"26.161","city":"Rajapalaiyam","latitude":"8.84N","longitude":"77.03E"}
{"date":"2012-03-01","average_temperature":"3.159","city":"Ramnicu Valcea","latitude":"45.81N","longitude":"24.23E"}
{"date":"2010-03-01","average_temperature":"27.899","city":"Rangkasbitung","latitude":"5.63S","longitude":"106.55E"}
{"date":"2010-06-01","average_temperature":"31.636999999999997","city":"Raniganj","latitude":"23.31N","longitude":"86.50E"}
{"date":"2010-12-01","average_temperature":"-4.12","city":"Ratisbon","latitude":"49.03N","longitude":"12.24E"}
{"date":"2010-03-01","average_temperature":"29.409000000000002","city":"Raurkela","latitude":"21.70N","longitude":"85.67E"}
{"date":"2011-02-01","average_temperature":"22.96","city":"Raurkela","latitude":"21.70N","longitude":"85.67E"}
{"date":"2013-01-01","average_temperature":"24.967","city":"Rawang","latitude":"4.02N","longitude":"102.05E"}
{"date":"2011-02-01","average_temperature":"-13.884","city":"Regina","latitude":"50.63N","longitude":"105.21W"}
{"date":"2010-10-01","average_temperature":"17.713","city":"Rialto","latitude":"34.56N","longitude":"116.76W"}
{"date":"2010-11-01","average_temperature":"13.966","city":"Richardson","latitude":"32.95N","longitude":"96.70W"}
{"date":"2012-06-01","average_temperature":"18.482","city":"Richmond","latitude":"37.78N","longitude":"122.03W"}
{"date":"2013-03-01","average_temperature":"24.021","city":"Rio Claro","latitude":"21.70S","longitude":"47.60W"}
{"date":"2011-04-01","average_temperature":"17.156","city":"Rio Cuarto","latitude":"32.95S","longitude":"64.15W"}
{"date":"2013-09-01","city":"Rio Cuarto","latitude":"32.95S","longitude":"64.15W"}
{"date":"2012-01-01","average_temperature":"21.368000000000002","city":"Riobamba","latitude":"2.41S","longitude":"77.95W"}
{"date":"2012-11-01","average_temperature":"19.195","city":"Rongcheng","latitude":"23.31N","longitude":"116.21E"}
{"date":"2011-04-01","average_temperature":"18.148000000000003","city":"Rosario","latitude":"32.95S","longitude":"60.32W"}
{"date":"2011-04-01","average_temperature":"12.554","city":"Rotterdam","latitude":"52.24N","longitude":"5.26E"}
{"date":"2012-11-01","average_temperature":"6.4689999999999985","city":"Rotterdam","latitude":"52.24N","longitude":"5.26E"}
{"date":"2010-08-01","average_temperature":"17.583000000000002","city":"Rouen","latitude":"49.03N","longitude":"0.00W"}
{"date":"2013-09-01","city":"São Gonçalo","latitude":"23.31S","longitude":"42.82W"}
{"date":"2010-03-01","average_temperature":"23.345","city":"São Paulo","latitude":"23.31S","longitude":"46.31W"}
{"date":"2011-11-01","average_temperature":"18.997","city":"Sabratah","latitude":"32.95N","longitude":"12.45E"}
{"date":"2012-12-01","average_temperature":"2.9609999999999994","city":"Sagamihara","latitude":"36.17N","longitude":"139.23E"}
{"date":"2011-06-01","average_temperature":"29.677","city":"Sagar","latitude":"23.31N","longitude":"79.51E"}
{"date":"2010-10-01","average_temperature":"24.979","city":"Saharanpur","latitude":"29.74N","longitude":"77.54E"}
{"date":"2012-02-01","average_temperature":"5.954","city":"Saint Helens","latitude":"53.84N","longitude":"4.09W"}
{"date":"2013-06-01","average_temperature":"12.274","city":"Saint Helens","latitude":"53.84N","longitude":"4.09W"}
{"date":"2012-09-01","average_temperature":"24.503","city":"Sakura","latitude":"36.17N","longitude":"141.22E"}
{"date":"2013-07-01","average_temperature":"21.658","city":"Saltillo","latitude":"24.92N","longitude":"101.08W"}
{"date":"2010-08-01","average_temperature":"23.801","city":"Samara","latitude":"53.84N","longitude":"50.45E"}
{"date":"2010-10-01","average_temperature":"13.394","city":"Samsun","latitude":"40.99N","longitude":"36.21E"}
{"date":"2010-12-01","average_temperature":"11.064","city":"San Bernardo","latitude":"32.95S","longitude":"69.89W"}
{"date":"2011-03-01","average_temperature":"26.401","city":"San José","latitude":"10.45N","longitude":"84.27W"}
{"date":"2010-11-01","average_temperature":"12.107000000000001","city":"San Jose","latitude":"37.78N","longitude":"122.03W"}
{"date":"2012-10-01","average_temperature":"18.267","city":"San Juan Del Río","latitude":"20.09N","longitude":"100.66W"}
{"date":"2011-07-01","average_temperature":"26.671","city":"San Miguelito","latitude":"8.84N","longitude":"80.27W"}
{"date":"2011-06-01","average_temperature":"25.989","city":"Sanming","latitude":"26.52N","longitude":"118.21E"}
{"date":"2013-02-01","average_temperature":"12.835","city":"Santa Ana","latitude":"32.95N","longitude":"117.77W"}
{"date":"2011-03-01","average_temperature":"25.924","city":"Santa Cruz","latitude":"13.66N","longitude":"121.38E"}
{"date":"2013-01-01","average_temperature":"17.882","city":"Santa Cruz De Tenerife","latitude":"28.13N","longitude":"15.45W"}
{"date":"2010-11-01","average_temperature":"25.642","city":"Santiago","latitude":"16.87N","longitude":"122.23E"}
{"date":"2012-03-01","average_temperature":"25.623","city":"Santo Domingo","latitude":"18.48N","longitude":"69.30W"}
{"date":"2010-11-01","average_temperature":"21.184","city":"Santo Domingo","latitude":"0.80S","longitude":"79.55W"}
{"date":"2011-12-01","average_temperature":"1.893","city":"Saqqez","latitude":"36.17N","longitude":"45.75E"}
{"date":"2012-03-01","average_temperature":"-5.4380000000000015","city":"Saransk","latitude":"53.84N","longitude":"45.00E"}
{"date":"2011-11-01","average_temperature":"-6.767","city":"Semey","latitude":"50.63N","longitude":"79.86E"}
{"date":"2012-02-01","average_temperature":"22.13","city":"Seoni","latitude":"21.70N","longitude":"78.75E"}
{"date":"2013-01-01","average_temperature":"27.274","city":"Shah Alam","latitude":"2.41N","longitude":"102.05E"}
{"date":"2011-10-01","average_temperature":"26.428","city":"Shahjahanpur","latitude":"28.13N","longitude":"79.09E"}
{"date":"2012-03-01","average_temperature":"17.652","city":"Shaping","latitude":"23.31N","longitude":"112.72E"}
{"date":"2011-10-01","average_temperature":"11.321","city":"Sheffield","latitude":"53.84N","longitude":"1.36W"}
{"date":"2011-04-01","average_temperature":"10.264000000000001","city":"Shihezi","latitude":"44.20N","longitude":"84.97E"}
{"date":"2010-11-01","average_temperature":"22.914","city":"Shillong","latitude":"24.92N","longitude":"92.22E"}
{"date":"2011-09-01","average_temperature":"17.795","city":"Shimla","latitude":"31.35N","longitude":"77.28E"}
{"date":"2013-08-01","average_temperature":"24.458000000000002","city":"Shimoga","latitude":"13.66N","longitude":"75.14E"}
{"date":"2012-01-01","average_temperature":"1.943","city":"Shiyan","latitude":"32.95N","longitude":"110.11E"}
{"date":"2013-06-01","average_temperature":"23.28","city":"Siirt","latitude":"37.78N","longitude":"42.71E"}
{"date":"2010-07-01","average_temperature":"31.849","city":"Sikar","latitude":"28.13N","longitude":"75.45E"}
{"date":"2011-03-01","average_temperature":"30.681","city":"Sikasso","latitude":"10.45N","longitude":"5.73W"}
{"date":"2012-09-01","average_temperature":"29.918000000000006","city":"Sirsa","latitude":"29.74N","longitude":"75.69E"}
{"date":"2012-01-01","average_temperature":"-4.385","city":"Sivas","latitude":"39.38N","longitude":"37.46E"}
{"date":"2012-04-01","average_temperature":"19.62","city":"Sogamoso","latitude":"5.63N","longitude":"72.65W"}
{"date":"2010-01-01","average_temperature":"27.881999999999998","city":"Soledad","latitude":"10.45N","longitude":"74.45W"}
{"date":"2013-02-01","average_temperature":"23.41","city":"Songea","latitude":"10.45S","longitude":"35.18E"}
{"date":"2013-04-01","average_temperature":"29.304000000000002","city":"Sonipat","latitude":"28.13N","longitude":"77.27E"}
{"date":"2010-01-01","average_temperature":"27.555","city":"Sorong","latitude":"0.80S","longitude":"130.98E"}
{"date":"2010-09-01","average_temperature":"12.595999999999998","city":"Sosnowiec","latitude":"50.63N","longitude":"19.01E"}
{"date":"2012-09-01","average_temperature":"15.085","city":"Sosnowiec","latitude":"50.63N","longitude":"19.01E"}
{"date":"2011-05-01","average_temperature":"18.158","city":"Split","latitude":"44.20N","longitude":"15.65E"}
{"date":"2013-06-01","average_temperature":"15.645","city":"Spokane","latitude":"47.42N","longitude":"117.24W"}
{"date":"2012-08-01","average_temperature":"28.234","city":"Srikakulam","latitude":"18.48N","longitude":"84.51E"}
{"date":"2011-11-01","average_temperature":"7.112","city":"Sterling Heights","latitude":"42.59N","longitude":"82.91W"}
{"date":"2012-06-01","average_temperature":"21.401","city":"Suita","latitude":"34.56N","longitude":"136.22E"}
{"date":"2013-09-01","city":"Sukaraja","latitude":"7.23S","longitude":"106.22E"}
{"date":"2011-05-01","average_temperature":"36.505","city":"Sukkur","latitude":"28.13N","longitude":"68.18E"}
{"date":"2011-07-01","average_temperature":"25.579","city":"Suleja","latitude":"8.84N","longitude":"7.30E"}
{"date":"2010-12-01","average_temperature":"8.099","city":"Sunrise Manor","latitude":"36.17N","longitude":"115.36W"}
{"date":"2013-05-01","average_temperature":"23.747","city":"Surt","latitude":"31.35N","longitude":"16.96E"}
{"date":"2010-01-01","average_temperature":"21.124","city":"Sydney","latitude":"34.56S","longitude":"151.78E"}
{"date":"2012-08-01","average_temperature":"28.035","city":"Taipei","latitude":"24.92N","longitude":"122.36E"}
{"date":"2013-08-01","average_temperature":"26.71","city":"Taitung","latitude":"23.31N","longitude":"121.46E"}
{"date":"2010-06-01","average_temperature":"21.521","city":"Takasaki","latitude":"36.17N","longitude":"139.23E"}
{"date":"2013-03-01","average_temperature":"28.858","city":"Takoradi","latitude":"5.63N","longitude":"1.61W"}
{"date":"2012-09-01","average_temperature":"21.430999999999997","city":"Talara","latitude":"4.02S","longitude":"81.16W"}
{"date":"2013-06-01","average_temperature":"18.886","city":"Tallinn","latitude":"58.66N","longitude":"24.62E"}
{"date":"2012-01-01","average_temperature":"28.112","city":"Tamale","latitude":"8.84N","longitude":"0.81W"}
{"date":"2013-04-01","average_temperature":"32.124","city":"Tambaram","latitude":"13.66N","longitude":"80.09E"}
{"date":"2011-09-01","average_temperature":"27.209","city":"Tambun","latitude":"5.63S","longitude":"106.55E"}
{"date":"2012-09-01","average_temperature":"27.433000000000003","city":"Tambun","latitude":"5.63S","longitude":"106.55E"}
{"date":"2011-03-01","average_temperature":"20.047","city":"Tampa","latitude":"28.13N","longitude":"82.73W"}
{"date":"2013-02-01","average_temperature":"21.565","city":"Tandil","latitude":"37.78S","longitude":"58.98W"}
{"date":"2012-05-01","average_temperature":"25.881","city":"Tanga","latitude":"5.63S","longitude":"38.74E"}
{"date":"2012-10-01","average_temperature":"27.316999999999997","city":"Tangerang","latitude":"5.63S","longitude":"106.55E"}
{"date":"2013-02-01","average_temperature":"27.042","city":"Tanza","latitude":"15.27N","longitude":"120.83E"}
{"date":"2010-02-01","average_temperature":"-14.933","city":"Taonan","latitude":"45.81N","longitude":"123.46E"}
{"date":"2011-07-01","average_temperature":"25.233","city":"Taranto","latitude":"40.99N","longitude":"17.04E"}
{"date":"2013-06-01","average_temperature":"20.308","city":"Tarsus","latitude":"37.78N","longitude":"34.58E"}
{"date":"2011-03-01","average_temperature":"5.797999999999999","city":"Tashkent","latitude":"40.99N","longitude":"70.30E"}
{"date":"2012-09-01","average_temperature":"23.104","city":"Teófilo Otoni","latitude":"18.48S","longitude":"42.25W"}
{"date":"2011-05-01","average_temperature":"26.53","city":"Tegucigalpa","latitude":"13.66N","longitude":"86.70W"}
{"date":"2012-07-01","average_temperature":"24.31","city":"Terrassa","latitude":"40.99N","longitude":"2.13E"}
{"date":"2012-07-01","average_temperature":"17.525000000000002","city":"Texcoco","latitude":"20.09N","longitude":"98.96W"}
{"date":"2013-08-01","average_temperature":"28.418000000000003","city":"Thanh Hóa","latitude":"20.09N","longitude":"105.78E"}
{"date":"2010-06-01","average_temperature":"20.724","city":"Thousand Oaks","latitude":"34.56N","longitude":"118.70W"}
{"date":"2012-07-01","average_temperature":"23.851","city":"Thousand Oaks","latitude":"34.56N","longitude":"118.70W"}
{"date":"2011-04-01","average_temperature":"28.579","city":"Thrissur","latitude":"10.45N","longitude":"76.09E"}
{"date":"2010-08-01","average_temperature":"28.46","city":"Tianmen","latitude":"31.35N","longitude":"113.09E"}
{"date":"2013-06-01","average_temperature":"21.283","city":"Tighina","latitude":"47.42N","longitude":"29.61E"}
{"date":"2012-02-01","average_temperature":"22.408","city":"Titagarh","latitude":"23.31N","longitude":"88.25E"}
{"date":"2012-04-01","average_temperature":"30.299","city":"Titagarh","latitude":"23.31N","longitude":"88.25E"}
{"date":"2010-12-01","average_temperature":"5.7189999999999985","city":"Tokorozawa","latitude":"36.17N","longitude":"139.23E"}
{"date":"2011-07-01","average_temperature":"28.622","city":"Tongling","latitude":"31.35N","longitude":"118.74E"}
{"date":"2012-02-01","average_temperature":"15.852","city":"Torreón","latitude":"24.92N","longitude":"102.86W"}
{"date":"2012-07-01","average_temperature":"25.089000000000002","city":"Torreón","latitude":"24.92N","longitude":"102.86W"}
{"date":"2010-07-01","average_temperature":"23.974","city":"Torrejón De Ardoz","latitude":"40.99N","longitude":"4.26W"}
{"date":"2011-07-01","average_temperature":"21.873","city":"Toulon","latitude":"42.59N","longitude":"6.55E"}
{"date":"2012-03-01","average_temperature":"12.987","city":"Toulon","latitude":"42.59N","longitude":"6.55E"}
{"date":"2013-01-01","average_temperature":"6.307","city":"Toyokawa","latitude":"34.56N","longitude":"138.16E"}
{"date":"2012-03-01","average_temperature":"1.9800000000000004","city":"Trabzon","latitude":"40.99N","longitude":"40.47E"}
{"date":"2012-11-01","average_temperature":"18.69","city":"Trelew","latitude":"42.59S","longitude":"65.45W"}
{"date":"2012-07-01","average_temperature":"18.179","city":"Trier","latitude":"49.03N","longitude":"7.35E"}
{"date":"2011-01-01","average_temperature":"14.100999999999999","city":"Tripoli","latitude":"32.95N","longitude":"12.45E"}
{"date":"2013-05-01","average_temperature":"10.126","city":"Trondheim","latitude":"63.49N","longitude":"9.00E"}
{"date":"2012-12-01","average_temperature":"24.752","city":"Tshikapa","latitude":"5.63S","longitude":"20.99E"}
{"date":"2011-03-01","average_temperature":"4.674","city":"Tsukuba","latitude":"36.17N","longitude":"139.23E"}
{"date":"2012-06-01","average_temperature":"26.254","city":"Tubruq","latitude":"31.35N","longitude":"24.50E"}
{"date":"2011-08-01","average_temperature":"28.296","city":"Tucson","latitude":"31.35N","longitude":"111.20W"}
{"date":"2011-12-01","average_temperature":"26.087","city":"Tucuman","latitude":"26.52S","longitude":"64.48W"}
{"date":"2011-02-01","average_temperature":"14.557","city":"Tulancingo","latitude":"20.09N","longitude":"98.96W"}
{"date":"2010-01-01","average_temperature":"23.203000000000003","city":"Tumkur","latitude":"13.66N","longitude":"76.79E"}
{"date":"2011-04-01","average_temperature":"26.13","city":"Turmero","latitude":"10.45N","longitude":"67.91W"}
{"date":"2013-06-01","average_temperature":"27.226","city":"Turmero","latitude":"10.45N","longitude":"67.91W"}
{"date":"2011-09-01","average_temperature":"15.770999999999999","city":"Tychy","latitude":"50.63N","longitude":"19.01E"}
{"date":"2013-03-01","average_temperature":"-0.56","city":"Tychy","latitude":"50.63N","longitude":"19.01E"}
{"date":"2012-07-01","average_temperature":"25.497","city":"Ube","latitude":"34.56N","longitude":"130.38E"}
{"date":"2010-06-01","average_temperature":"19.656","city":"Uberaba","latitude":"20.09S","longitude":"47.77W"}
{"date":"2012-06-01","average_temperature":"25.976999999999997","city":"Udupi","latitude":"13.66N","longitude":"75.14E"}
{"date":"2013-05-01","average_temperature":"29.718000000000004","city":"Ulhasnagar","latitude":"18.48N","longitude":"72.68E"}
{"date":"2011-04-01","average_temperature":"29.276","city":"Ulubaria","latitude":"23.31N","longitude":"88.25E"}
{"date":"2010-06-01","average_temperature":"21.425","city":"Ulyanovsk","latitude":"53.84N","longitude":"47.73E"}
{"date":"2013-05-01","average_temperature":"35.285","city":"Umm Durman","latitude":"15.27N","longitude":"32.50E"}
{"date":"2012-10-01","average_temperature":"9.04","city":"Uzhhorod","latitude":"49.03N","longitude":"22.04E"}
{"date":"2012-01-01","average_temperature":"25.481","city":"Várzea Grande","latitude":"15.27S","longitude":"55.83W"}
{"date":"2011-07-01","average_temperature":"28.355","city":"Vadodara","latitude":"21.70N","longitude":"73.56E"}
{"date":"2011-06-01","average_temperature":"17.544","city":"Vallejo","latitude":"37.78N","longitude":"122.03W"}
{"date":"2011-10-01","average_temperature":"15.158","city":"Varamin","latitude":"36.17N","longitude":"51.71E"}
{"date":"2011-07-01","average_temperature":"21.058000000000003","city":"Velikie Luki","latitude":"57.05N","longitude":"30.98E"}
{"date":"2012-05-01","average_temperature":"27.198","city":"Veracruz","latitude":"18.48N","longitude":"96.34W"}
{"date":"2011-08-01","average_temperature":"19.045","city":"Vigo","latitude":"42.59N","longitude":"8.73W"}
{"date":"2012-04-01","average_temperature":"10.238","city":"Vigo","latitude":"42.59N","longitude":"8.73W"}
{"date":"2011-01-01","average_temperature":"26.325","city":"Vila Velha","latitude":"20.09S","longitude":"40.95W"}
{"date":"2011-05-01","average_temperature":"22.108","city":"Villa Nueva","latitude":"15.27N","longitude":"90.83W"}
{"date":"2011-09-01","average_temperature":"20.784000000000002","city":"Villa Nueva","latitude":"15.27N","longitude":"90.83W"}
{"date":"2012-02-01","average_temperature":"-3.0180000000000002","city":"Villeurbanne","latitude":"45.81N","longitude":"5.77E"}
{"date":"2012-12-01","average_temperature":"1.914","city":"Villeurbanne","latitude":"45.81N","longitude":"5.77E"}
{"date":"2010-06-01","average_temperature":"12.208","city":"Vina Del Mar","latitude":"32.95S","longitude":"71.81W"}
{"date":"2013-04-01","average_temperature":"14.104000000000001","city":"Vina Del Mar","latitude":"32.95S","longitude":"71.81W"}
{"date":"2011-01-01","average_temperature":"15.498","city":"Vinh","latitude":"18.48N","longitude":"106.48E"}
{"date":"2012-01-01","average_temperature":"27.085","city":"Vinh Long","latitude":"10.45N","longitude":"105.55E"}
{"date":"2013-05-01","average_temperature":"17.729","city":"Vinnytsya","latitude":"49.03N","longitude":"29.39E"}
{"date":"2011-04-01","average_temperature":"16.511","city":"Virginia","latitude":"28.13S","longitude":"26.36E"}
{"date":"2010-11-01","average_temperature":"1.272","city":"Vladivostok","latitude":"42.59N","longitude":"130.91E"}
{"date":"2013-02-01","average_temperature":"21.144000000000002","city":"Vryheid","latitude":"28.13S","longitude":"30.00E"}
{"date":"2010-06-01","average_temperature":"32.108000000000004","city":"Wad Madani","latitude":"13.66N","longitude":"33.85E"}
{"date":"2012-01-01","average_temperature":"3.0410000000000004","city":"Wanxian","latitude":"31.35N","longitude":"109.32E"}
{"date":"2010-04-01","average_temperature":"29.527","city":"Warri","latitude":"5.63N","longitude":"6.46E"}
{"date":"2011-10-01","average_temperature":"13.757","city":"Waterbury","latitude":"40.99N","longitude":"72.43W"}
{"date":"2012-04-01","average_temperature":"7.034","city":"West Bromwich","latitude":"52.24N","longitude":"2.63W"}
{"date":"2013-06-01","average_temperature":"22.434","city":"West Covina","latitude":"34.56N","longitude":"118.70W"}
{"date":"2013-05-01","average_temperature":"13.704","city":"Westonaria","latitude":"26.52S","longitude":"26.87E"}
{"date":"2010-11-01","average_temperature":"19.022000000000002","city":"Witbank","latitude":"26.52S","longitude":"28.66E"}
{"date":"2013-02-01","average_temperature":"0.667","city":"Witten","latitude":"52.24N","longitude":"7.88E"}
{"date":"2011-09-01","average_temperature":"15.597999999999999","city":"Wloclawek","latitude":"52.24N","longitude":"18.39E"}
{"date":"2011-07-01","average_temperature":"16.602999999999998","city":"Wolfsburg","latitude":"52.24N","longitude":"10.51E"}
{"date":"2013-05-01","average_temperature":"10.489999999999998","city":"Wolverhampton","latitude":"52.24N","longitude":"2.63W"}
{"date":"2010-05-01","average_temperature":"22.225","city":"Wuhan","latitude":"29.74N","longitude":"114.46E"}
{"date":"2012-08-01","average_temperature":"11.536","city":"Wuwei","latitude":"37.78N","longitude":"101.69E"}
{"date":"2012-02-01","average_temperature":"11.485","city":"Xiamen","latitude":"24.92N","longitude":"118.82E"}
{"date":"2010-08-01","average_temperature":"28.849","city":"Xiaolan","latitude":"23.31N","longitude":"112.72E"}
{"date":"2012-09-01","average_temperature":"17.374000000000002","city":"Xico","latitude":"20.09N","longitude":"98.96W"}
{"date":"2011-01-01","average_temperature":"11.796","city":"Yangjiang","latitude":"21.70N","longitude":"111.63E"}
{"date":"2013-01-01","average_temperature":"-17.122","city":"Yanji","latitude":"42.59N","longitude":"128.73E"}
{"date":"2013-09-01","city":"Yazd","latitude":"31.35N","longitude":"54.66E"}
{"date":"2011-05-01","average_temperature":"16.237000000000002","city":"Yelets","latitude":"52.24N","longitude":"39.42E"}
{"date":"2010-02-01","average_temperature":"25.863000000000003","city":"Yenangyaung","latitude":"20.09N","longitude":"95.55E"}
{"date":"2012-12-01","average_temperature":"26.691999999999997","city":"Yogyakarta","latitude":"7.23S","longitude":"111.08E"}
{"date":"2011-04-01","average_temperature":"15.127","city":"Yokosuka","latitude":"34.56N","longitude":"140.11E"}
{"date":"2011-03-01","average_temperature":"5.425","city":"Yonago","latitude":"36.17N","longitude":"133.26E"}
{"date":"2012-01-01","average_temperature":"-8.312999999999999","city":"Yuci","latitude":"37.78N","longitude":"111.86E"}
{"date":"2010-06-01","average_temperature":"28.136","city":"Yulin","latitude":"21.70N","longitude":"109.90E"}
{"date":"2010-12-01","average_temperature":"7.067","city":"Yushan","latitude":"31.35N","longitude":"120.63E"}
{"date":"2013-08-01","average_temperature":"33.692","city":"Zabol","latitude":"31.35N","longitude":"62.20E"}
{"date":"2011-01-01","average_temperature":"-0.7490000000000001","city":"Zabrze","latitude":"50.63N","longitude":"19.01E"}
{"date":"2010-08-01","average_temperature":"27.295","city":"Zama","latitude":"36.17N","longitude":"139.23E"}
{"date":"2011-05-01","average_temperature":"16.74","city":"Zaporizhzhya","latitude":"47.42N","longitude":"34.34E"}
{"date":"2010-11-01","average_temperature":"8.061","city":"Zenica","latitude":"44.20N","longitude":"17.89E"}
{"date":"2013-05-01","average_temperature":"21.306","city":"Zhangdian","latitude":"36.17N","longitude":"117.35E"}
{"date":"2012-01-01","average_temperature":"-12.829","city":"Zhangjiakou","latitude":"40.99N","longitude":"115.03E"}
{"date":"2012-12-01","average_temperature":"11.995999999999999","city":"Zhangzhou","latitude":"24.92N","longitude":"117.04E"}
{"date":"2013-09-01","city":"Zhanjiang","latitude":"21.70N","longitude":"109.90E"}
{"date":"2011-05-01","average_temperature":"16.826999999999998","city":"Zhaotong","latitude":"26.52N","longitude":"103.88E"}
{"date":"2012-10-01","average_temperature":"17.692","city":"Zhaoyang","latitude":"32.95N","longitude":"119.68E"}
{"date":"2012-08-01","average_temperature":"26.469","city":"Zhoukou","latitude":"32.95N","longitude":"113.94E"}
{"date":"2012-07-01","average_temperature":"28.807","city":"Zhumadian","latitude":"32.95N","longitude":"113.94E"}
{"date":"2012-10-01","average_temperature":"28.243","city":"Zinder","latitude":"13.66N","longitude":"9.08E"}
