{"date":"2011-10-01","average_temperature":"10.602","city":"Aachen","latitude":"50.63N","longitude":"6.34E"}
{"date":"2012-03-01","average_temperature":"23.173000000000002","city":"Abu Dhabi","latitude":"24.92N","longitude":"54.98E"}
{"date":"2010-01-01","average_temperature":"27.691999999999997","city":"Abuja","latitude":"8.84N","longitude":"7.30E"}
{"date":"2013-07-01","average_temperature":"18.148","city":"Addis Abeba","latitude":"8.84N","longitude":"38.11E"}
{"date":"2012-10-01","average_temperature":"27.669","city":"Adiwerna","latitude":"7.23S","longitude":"109.46E"}
{"date":"2012-10-01","average_temperature":"25.093000000000004","city":"Ahmadnagar","latitude":"18.48N","longitude":"74.37E"}
{"date":"2011-05-01","average_temperature":"26.215","city":"Aizawl","latitude":"23.31N","longitude":"93.50E"}
{"date":"2012-11-01","average_temperature":"26.778000000000002","city":"Alagoinhas","latitude":"12.05S","longitude":"37.81W"}
{"date":"2010-12-01","average_temperature":"25.96","city":"Alappuzha","latitude":"8.84N","longitude":"77.03E"}
{"date":"2011-11-01","average_temperature":"5.105","city":"Albuquerque","latitude":"34.56N","longitude":"107.03W"}
{"date":"2013-01-01","average_temperature":"4.691","city":"Alcorcón","latitude":"40.99N","longitude":"4.26W"}
{"date":"2010-01-01","average_temperature":"8.779","city":"Aleppo","latitude":"36.17N","longitude":"37.79E"}
{"date":"2010-04-01","average_temperature":"33.259","city":"Allahabad","latitude":"24.92N","longitude":"81.58E"}
{"date":"2010-07-01","average_temperature":"26.604000000000006","city":"Amagasaki","latitude":"34.56N","longitude":"136.22E"}
{"date":"2011-12-01","average_temperature":"26.85","city":"Ambarnath","latitude":"18.48N","longitude":"72.68E"}
{"date":"2010-08-01","average_temperature":"26.378","city":"Amol","latitude":"36.17N","longitude":"51.71E"}
{"date":"2011-03-01","average_temperature":"7.166","city":"Amol","latitude":"36.17N","longitude":"51.71E"}
{"date":"2011-03-01","average_temperature":"23.123","city":"Anápolis","latitude":"16.87S","longitude":"48.56W"}
{"date":"2011-06-01","average_temperature":"21.951","city":"Ankang","latitude":"32.95N","longitude":"108.19E"}
{"date":"2010-12-01","average_temperature":"10.287","city":"Antioch","latitude":"37.78N","longitude":"122.03W"}
{"date":"2013-08-01","average_temperature":"26.754","city":"Antipolo","latitude":"15.27N","longitude":"120.83E"}
{"date":"2011-05-01","average_temperature":"14.065999999999999","city":"Apeldoorn","latitude":"52.24N","longitude":"5.26E"}
{"date":"2013-02-01","average_temperature":"25.49","city":"Apopa","latitude":"13.66N","longitude":"90.00W"}
{"date":"2012-11-01","average_temperature":"27.045","city":"Araguaína","latitude":"7.23S","longitude":"47.84W"}
{"date":"2011-06-01","average_temperature":"28.711","city":"Arak","latitude":"34.56N","longitude":"50.59E"}
{"date":"2010-11-01","average_temperature":"24.371","city":"Araras","latitude":"21.70S","longitude":"47.60W"}
{"date":"2010-12-01","average_temperature":"25.23","city":"Araras","latitude":"21.70S","longitude":"47.60W"}
{"date":"2013-03-01","average_temperature":"26.859","city":"Araruama","latitude":"23.31S","longitude":"42.82W"}
{"date":"2013-07-01","average_temperature":"13.658","city":"Araucária","latitude":"24.92S","longitude":"49.66W"}
{"date":"2010-01-01","average_temperature":"6.006","city":"Arlington","latitude":"32.95N","longitude":"96.70W"}
{"date":"2010-05-01","average_temperature":"24.023000000000003","city":"Arlington","latitude":"32.95N","longitude":"96.70W"}
{"date":"2011-10-01","average_temperature":"26.4","city":"Asansol","latitude":"23.31N","longitude":"86.50E"}
{"date":"2010-06-01","average_temperature":"21.171999999999997","city":"Asfi","latitude":"32.95N","longitude":"8.62W"}
{"date":"2013-07-01","average_temperature":"30.39","city":"Asgabat","latitude":"37.78N","longitude":"58.98E"}
{"date":"2011-02-01","average_temperature":"15.12","city":"Ashqelon","latitude":"31.35N","longitude":"33.93E"}
{"date":"2013-07-01","average_temperature":"25.345","city":"Ashqelon","latitude":"31.35N","longitude":"33.93E"}
{"date":"2010-11-01","average_temperature":"23.930999999999997","city":"Asmara","latitude":"15.27N","longitude":"39.17E"}
{"date":"2013-04-01","average_temperature":"23.376","city":"Asunción","latitude":"24.92S","longitude":"58.52W"}
{"date":"2011-08-01","average_temperature":"32.166","city":"Austin","latitude":"29.74N","longitude":"97.85W"}
{"date":"2011-03-01","average_temperature":"25.195999999999998","city":"Azamgarh","latitude":"26.52N","longitude":"82.39E"}
{"date":"2010-07-01","average_temperature":"25.267","city":"Babakan","latitude":"7.23S","longitude":"107.84E"}
{"date":"2010-07-01","average_temperature":"27.847","city":"Bacolod","latitude":"10.45N","longitude":"123.55E"}
{"date":"2012-06-01","average_temperature":"28.093000000000004","city":"Bacolod","latitude":"10.45N","longitude":"123.55E"}
{"date":"2010-06-01","average_temperature":"32.548","city":"Bagaha","latitude":"26.52N","longitude":"84.18E"}
{"date":"2012-04-01","average_temperature":"14.562999999999999","city":"Bahia Blanca","latitude":"39.38S","longitude":"62.43W"}
{"date":"2012-03-01","average_temperature":"5.711","city":"Baia Mare","latitude":"47.42N","longitude":"22.50E"}
{"date":"2013-09-01","city":"Baia Mare","latitude":"47.42N","longitude":"22.50E"}
{"date":"2010-01-01","average_temperature":"-17.375","city":"Baicheng","latitude":"45.81N","longitude":"123.46E"}
{"date":"2012-08-01","average_temperature":"28.263","city":"Banda Aceh","latitude":"5.63N","longitude":"95.25E"}
{"date":"2013-03-01","average_temperature":"8.552999999999999","city":"Bandar E Anzali","latitude":"37.78N","longitude":"48.81E"}
{"date":"2010-10-01","average_temperature":"27.021","city":"Bandar Penggaram","latitude":"2.41N","longitude":"103.66E"}
{"date":"2010-07-01","average_temperature":"25.333","city":"Bandundu","latitude":"4.02S","longitude":"16.88E"}
{"date":"2012-05-01","average_temperature":"19.113","city":"Barcelona","latitude":"40.99N","longitude":"2.13E"}
{"date":"2011-02-01","average_temperature":"22.566","city":"Barddhaman","latitude":"23.31N","longitude":"88.25E"}
{"date":"2013-06-01","average_temperature":"31.468000000000004","city":"Bareli","latitude":"28.13N","longitude":"79.09E"}
{"date":"2011-02-01","average_temperature":"24.967","city":"Barinas","latitude":"8.84N","longitude":"70.54W"}
{"date":"2012-08-01","average_temperature":"29.456","city":"Barisal","latitude":"23.31N","longitude":"90.00E"}
{"date":"2011-06-01","average_temperature":"15.932","city":"Barueri","latitude":"23.31S","longitude":"46.31W"}
{"date":"2011-06-01","average_temperature":"15.210999999999999","city":"Basel","latitude":"47.42N","longitude":"8.29E"}
{"date":"2011-12-01","average_temperature":"26.063000000000002","city":"Bata","latitude":"2.41N","longitude":"10.45E"}
{"date":"2012-01-01","average_temperature":"26.339","city":"Bata","latitude":"2.41N","longitude":"10.45E"}
{"date":"2012-02-01","average_temperature":"2.26","city":"Batman","latitude":"37.78N","longitude":"40.68E"}
{"date":"2010-05-01","average_temperature":"26.436","city":"Baton Rouge","latitude":"29.74N","longitude":"90.46W"}
{"date":"2012-07-01","average_temperature":"28.441","city":"Baton Rouge","latitude":"29.74N","longitude":"90.46W"}
{"date":"2013-06-01","average_temperature":"28.306","city":"Baton Rouge","latitude":"29.74N","longitude":"90.46W"}
{"date":"2010-09-01","average_temperature":"25.649","city":"Baturaja","latitude":"4.02S","longitude":"103.66E"}
{"date":"2013-04-01","average_temperature":"30.58","city":"Beawar","latitude":"26.52N","longitude":"73.43E"}
{"date":"2013-03-01","average_temperature":"27.924","city":"Belawan","latitude":"4.02N","longitude":"98.84E"}
{"date":"2011-09-01","average_temperature":"21.9","city":"Belford Roxo","latitude":"23.31S","longitude":"42.82W"}
{"date":"2012-11-01","average_temperature":"25.961","city":"Belgaum","latitude":"15.27N","longitude":"74.17E"}
{"date":"2013-02-01","average_temperature":"4.571000000000001","city":"Bengbu","latitude":"32.95N","longitude":"117.77E"}
{"date":"2012-04-01","average_temperature":"22.612","city":"Beni Suef","latitude":"29.74N","longitude":"31.38E"}
{"date":"2011-05-01","average_temperature":"16.383","city":"Benxi","latitude":"40.99N","longitude":"123.55E"}
{"date":"2011-11-01","average_temperature":"25.982","city":"Berbera","latitude":"10.45N","longitude":"45.00E"}
{"date":"2013-07-01","average_temperature":"18.82","city":"Berezniki","latitude":"58.66N","longitude":"55.38E"}
{"date":"2011-03-01","average_temperature":"26.545","city":"Bhagalpur","latitude":"24.92N","longitude":"86.90E"}
{"date":"2013-05-01","average_temperature":"27.223000000000003","city":"Bhairab Bazar","latitude":"24.92N","longitude":"90.44E"}
{"date":"2013-07-01","average_temperature":"30.118000000000002","city":"Bharatpur","latitude":"26.52N","longitude":"77.01E"}
{"date":"2010-06-01","average_temperature":"31.776999999999997","city":"Bharuch","latitude":"21.70N","longitude":"73.56E"}
{"date":"2012-02-01","average_temperature":"22.688","city":"Bhavnagar","latitude":"21.70N","longitude":"71.83E"}
{"date":"2011-10-01","average_temperature":"28.573","city":"Bhimavaram","latitude":"16.87N","longitude":"82.05E"}
{"date":"2011-02-01","average_temperature":"22.434","city":"Bhuj","latitude":"23.31N","longitude":"69.03E"}
{"date":"2011-07-01","average_temperature":"27.224","city":"Bhusawal","latitude":"21.70N","longitude":"75.29E"}
{"date":"2010-04-01","average_temperature":"29.656999999999996","city":"Biên Hòa","latitude":"10.45N","longitude":"107.18E"}
{"date":"2010-08-01","average_temperature":"31.673000000000002","city":"Bikaner","latitude":"28.13N","longitude":"73.64E"}
{"date":"2010-09-01","average_temperature":"27.67","city":"Bilaspur","latitude":"21.70N","longitude":"82.21E"}
{"date":"2013-08-01","average_temperature":"20.994","city":"Bilbao","latitude":"42.59N","longitude":"2.18W"}
{"date":"2013-05-01","average_temperature":"28.981","city":"Binangonan","latitude":"13.66N","longitude":"121.38E"}
{"date":"2010-07-01","average_temperature":"27.936","city":"Binjai","latitude":"4.02N","longitude":"98.84E"}
{"date":"2013-04-01","average_temperature":"23.791","city":"Birigui","latitude":"21.70S","longitude":"51.06W"}
{"date":"2010-02-01","average_temperature":"3.511","city":"Blackpool","latitude":"53.84N","longitude":"4.09W"}
{"date":"2011-01-01","average_temperature":"24.803","city":"Blantyre","latitude":"15.27S","longitude":"35.83E"}
{"date":"2011-12-01","average_temperature":"26.523000000000003","city":"Bobo Dioulasso","latitude":"10.45N","longitude":"4.09W"}
{"date":"2011-12-01","average_temperature":"28.341","city":"Bohicon","latitude":"7.23N","longitude":"2.43E"}
{"date":"2012-08-01","average_temperature":"21.99","city":"Botosani","latitude":"47.42N","longitude":"27.24E"}
{"date":"2011-12-01","average_temperature":"19.387","city":"Botshabelo","latitude":"29.74S","longitude":"27.69E"}
{"date":"2011-09-01","average_temperature":"15.870999999999999","city":"Bottrop","latitude":"52.24N","longitude":"7.88E"}
{"date":"2012-05-01","average_temperature":"14.821000000000002","city":"Bottrop","latitude":"52.24N","longitude":"7.88E"}
{"date":"2011-04-01","average_temperature":"16.427","city":"Braga","latitude":"40.99N","longitude":"8.52W"}
{"date":"2013-05-01","average_temperature":"11.464","city":"Breda","latitude":"52.24N","longitude":"5.26E"}
{"date":"2010-10-01","average_temperature":"28.397","city":"Brikama","latitude":"13.66N","longitude":"17.34W"}
{"date":"2011-08-01","average_temperature":"15.375","city":"Bristol","latitude":"52.24N","longitude":"2.63W"}
{"date":"2012-10-01","average_temperature":"10.984000000000002","city":"Brussels","latitude":"50.63N","longitude":"3.80E"}
{"date":"2012-09-01","average_temperature":"13.159","city":"Bryansk","latitude":"53.84N","longitude":"34.09E"}
{"date":"2010-04-01","average_temperature":"12.562999999999999","city":"Bukan","latitude":"36.17N","longitude":"45.75E"}
{"date":"2010-03-01","average_temperature":"21.423000000000002","city":"Bukavu","latitude":"2.41S","longitude":"28.13E"}
{"date":"2012-09-01","average_temperature":"27.246","city":"Bulaon","latitude":"15.27N","longitude":"120.83E"}
{"date":"2010-09-01","average_temperature":"21.943","city":"Bulawayo","latitude":"20.09S","longitude":"29.00E"}
{"date":"2010-08-01","average_temperature":"26.837","city":"Butuan","latitude":"8.84N","longitude":"125.68E"}
{"date":"2011-09-01","average_temperature":"15.107000000000001","city":"Bydgoszcz","latitude":"53.84N","longitude":"17.73E"}
{"date":"2010-01-01","average_temperature":"26.652","city":"Cà Mau","latitude":"8.84N","longitude":"104.59E"}
{"date":"2011-09-01","average_temperature":"27.694000000000006","city":"Cà Mau","latitude":"8.84N","longitude":"104.59E"}
{"date":"2013-07-01","average_temperature":"28.096","city":"Cà Mau","latitude":"8.84N","longitude":"104.59E"}
{"date":"2010-03-01","average_temperature":"29.451","city":"Calcutta","latitude":"23.31N","longitude":"88.25E"}
{"date":"2012-12-01","average_temperature":"17.206","city":"Cam Pha","latitude":"21.70N","longitude":"108.17E"}
{"date":"2011-10-01","average_temperature":"10.333","city":"Cambridge","latitude":"42.59N","longitude":"72.00W"}
{"date":"2010-08-01","average_temperature":"22.71","city":"Campos","latitude":"21.70S","longitude":"40.67W"}
{"date":"2012-01-01","average_temperature":"27.085","city":"Can Tho","latitude":"10.45N","longitude":"105.55E"}
{"date":"2012-04-01","average_temperature":"18.786","city":"Canoas","latitude":"29.74S","longitude":"51.69W"}
{"date":"2010-07-01","average_temperature":"25.392","city":"Cape Coast","latitude":"5.63N","longitude":"1.61W"}
{"date":"2012-03-01","average_temperature":"25.979","city":"Capiatá","latitude":"24.92S","longitude":"56.75W"}
{"date":"2012-04-01","average_temperature":"21.351999999999997","city":"Carapicuíba","latitude":"23.31S","longitude":"46.31W"}
{"date":"2010-05-01","average_temperature":"29.278000000000002","city":"Cartagena","latitude":"10.45N","longitude":"76.09W"}
{"date":"2011-08-01","average_temperature":"21.722","city":"Caruaru","latitude":"8.84S","longitude":"36.49W"}
{"date":"2011-11-01","average_temperature":"11.169","city":"Cary","latitude":"36.17N","longitude":"79.56W"}
{"date":"2013-06-01","average_temperature":"17.067","city":"Cascavel","latitude":"24.92S","longitude":"53.20W"}
{"date":"2012-07-01","average_temperature":"12.217","city":"Caxias Do Sul","latitude":"29.74S","longitude":"51.69W"}
{"date":"2012-04-01","average_temperature":"17.96","city":"Chalco","latitude":"20.09N","longitude":"98.96W"}
{"date":"2012-05-01","average_temperature":"32.232","city":"Champdani","latitude":"23.31N","longitude":"88.25E"}
{"date":"2010-02-01","average_temperature":"25.647","city":"Chandrapur","latitude":"20.09N","longitude":"78.48E"}
{"date":"2010-10-01","average_temperature":"26.391","city":"Charallave","latitude":"10.45N","longitude":"66.27W"}
{"date":"2011-02-01","average_temperature":"-17.169","city":"Cheboksary","latitude":"55.45N","longitude":"48.19E"}
{"date":"2011-05-01","average_temperature":"13.11","city":"Chelyabinsk","latitude":"55.45N","longitude":"62.36E"}
{"date":"2011-03-01","average_temperature":"15.957999999999998","city":"Chenghai","latitude":"23.31N","longitude":"116.21E"}
{"date":"2012-12-01","average_temperature":"-2.5660000000000003","city":"Cherkessk","latitude":"44.20N","longitude":"42.48E"}
{"date":"2010-04-01","average_temperature":"24.166","city":"Chiclayo","latitude":"7.23S","longitude":"80.27W"}
{"date":"2011-05-01","average_temperature":"22.215","city":"Chiclayo","latitude":"7.23S","longitude":"80.27W"}
{"date":"2011-05-01","average_temperature":"16.831","city":"Chifeng","latitude":"42.59N","longitude":"120.00E"}
{"date":"2010-08-01","average_temperature":"6.4270000000000005","city":"Chillan","latitude":"36.17S","longitude":"71.60W"}
{"date":"2013-06-01","average_temperature":"6.636","city":"Chillan","latitude":"36.17S","longitude":"71.60W"}
{"date":"2010-12-01","average_temperature":"18.073","city":"Chimbote","latitude":"8.84S","longitude":"78.65W"}
{"date":"2010-12-01","average_temperature":"-26.073","city":"Chita","latitude":"52.24N","longitude":"112.99E"}
{"date":"2010-11-01","average_temperature":"15.889000000000001","city":"Chula Vista","latitude":"32.95N","longitude":"117.77W"}
{"date":"2013-03-01","average_temperature":"21.586","city":"Chuncheng","latitude":"21.70N","longitude":"111.63E"}
{"date":"2013-03-01","average_temperature":"25.63","city":"Ciamis","latitude":"7.23S","longitude":"107.84E"}
{"date":"2012-08-01","average_temperature":"26.156","city":"Ciampea","latitude":"7.23S","longitude":"106.22E"}
{"date":"2013-09-01","city":"Cikarang","latitude":"5.63S","longitude":"106.55E"}
{"date":"2012-08-01","average_temperature":"25.146","city":"Cileunyi","latitude":"7.23S","longitude":"107.84E"}
{"date":"2011-05-01","average_temperature":"25.661","city":"Cirebon","latitude":"7.23S","longitude":"107.84E"}
{"date":"2011-12-01","average_temperature":"25.238000000000003","city":"Ciudad Guayana","latitude":"8.84N","longitude":"62.43W"}
{"date":"2011-06-01","average_temperature":"25.46","city":"Clarksville","latitude":"36.17N","longitude":"87.51W"}
{"date":"2010-02-01","average_temperature":"0.807","city":"Cluj Napoca","latitude":"47.42N","longitude":"22.50E"}
{"date":"2013-06-01","average_temperature":"12.417","city":"Cochabamba","latitude":"16.87S","longitude":"66.98W"}
{"date":"2012-05-01","average_temperature":"19.47","city":"Contagem","latitude":"20.09S","longitude":"44.36W"}
{"date":"2011-05-01","average_temperature":"12.601","city":"Copenhagen","latitude":"55.45N","longitude":"11.34E"}
{"date":"2011-05-01","average_temperature":"26.103","city":"Coral Springs","latitude":"26.52N","longitude":"80.60W"}
{"date":"2013-03-01","average_temperature":"15.344","city":"Corona","latitude":"32.95N","longitude":"117.77W"}
{"date":"2012-12-01","average_temperature":"16.578","city":"Corpus Christi","latitude":"28.13N","longitude":"97.27W"}
{"date":"2012-12-01","average_temperature":"-2.334","city":"Cracow","latitude":"50.63N","longitude":"19.01E"}
{"date":"2013-03-01","average_temperature":"5.766","city":"Craiova","latitude":"44.20N","longitude":"24.60E"}
{"date":"2013-09-01","city":"Craiova","latitude":"44.20N","longitude":"24.60E"}
{"date":"2010-10-01","average_temperature":"19.398","city":"Cubatão","latitude":"23.31S","longitude":"46.31W"}
{"date":"2010-03-01","average_temperature":"30.671000000000006","city":"Cuddapah","latitude":"15.27N","longitude":"79.17E"}
{"date":"2013-02-01","average_temperature":"21.497","city":"Cuernavaca","latitude":"18.48N","longitude":"99.72W"}
{"date":"2011-09-01","average_temperature":"28.324","city":"Cuiabá","latitude":"15.27S","longitude":"55.83W"}
{"date":"2012-04-01","average_temperature":"27.609","city":"Curug","latitude":"5.63S","longitude":"106.55E"}
{"date":"2012-06-01","average_temperature":"25.749","city":"Da Lat","latitude":"12.05N","longitude":"108.49E"}
{"date":"2010-08-01","average_temperature":"25.840999999999998","city":"Da Nang","latitude":"15.27N","longitude":"107.50E"}
{"date":"2012-02-01","average_temperature":"-3.195","city":"Dalian","latitude":"39.38N","longitude":"120.69E"}
{"date":"2010-02-01","average_temperature":"16.061","city":"Daliang","latitude":"23.31N","longitude":"112.72E"}
{"date":"2013-08-01","average_temperature":"28.700000000000006","city":"Daliang","latitude":"23.31N","longitude":"112.72E"}
{"date":"2011-10-01","average_temperature":"21.109","city":"Damascus","latitude":"32.95N","longitude":"35.43E"}
{"date":"2012-04-01","average_temperature":"31.295","city":"Damoh","latitude":"23.31N","longitude":"79.51E"}
{"date":"2012-08-01","average_temperature":"24.225","city":"Dandong","latitude":"39.38N","longitude":"124.86E"}
{"date":"2012-02-01","average_temperature":"13.718","city":"Danshui","latitude":"23.31N","longitude":"114.47E"}
{"date":"2013-06-01","average_temperature":"28.552","city":"Dasmariñas","latitude":"13.66N","longitude":"121.38E"}
{"date":"2010-02-01","average_temperature":"-8.476","city":"Datong","latitude":"40.99N","longitude":"112.90E"}
{"date":"2013-02-01","average_temperature":"-9.869","city":"Datong","latitude":"40.99N","longitude":"112.90E"}
{"date":"2012-03-01","average_temperature":"15.988","city":"Dekernes","latitude":"31.35N","longitude":"32.04E"}
{"date":"2011-09-01","average_temperature":"23.67","city":"Denizli","latitude":"37.78N","longitude":"28.47E"}
{"date":"2010-06-01","average_temperature":"26.909000000000002","city":"Denpasar","latitude":"8.84S","longitude":"115.95E"}
{"date":"2012-12-01","average_temperature":"9.887","city":"Denton","latitude":"32.95N","longitude":"96.70W"}
{"date":"2010-08-01","average_temperature":"29.840999999999998","city":"Deoria","latitude":"26.52N","longitude":"84.18E"}
{"date":"2010-01-01","average_temperature":"26.787000000000006","city":"Depok","latitude":"5.63S","longitude":"106.55E"}
{"date":"2013-07-01","average_temperature":"26.858","city":"Depok","latitude":"5.63S","longitude":"106.55E"}
{"date":"2010-05-01","average_temperature":"10.743","city":"Derby","latitude":"53.84N","longitude":"1.36W"}
{"date":"2010-03-01","average_temperature":"24.112","city":"Dese","latitude":"10.45N","longitude":"40.09E"}
{"date":"2013-03-01","average_temperature":"26.938000000000002","city":"Dhanbad","latitude":"23.31N","longitude":"86.50E"}
{"date":"2012-06-01","average_temperature":"20.396","city":"Dingzhou","latitude":"39.38N","longitude":"114.45E"}
{"date":"2013-09-01","city":"Djougou","latitude":"10.45N","longitude":"2.45E"}
{"date":"2013-02-01","average_temperature":"9.967","city":"Dos Hermanas","latitude":"37.78N","longitude":"6.10W"}
{"date":"2010-03-01","average_temperature":"21.241","city":"Dos Quebradas","latitude":"5.63N","longitude":"75.87W"}
{"date":"2010-08-01","average_temperature":"23.864","city":"Douala","latitude":"4.02N","longitude":"10.45E"}
{"date":"2013-08-01","average_temperature":"19.727","city":"Dourados","latitude":"21.70S","longitude":"54.52W"}
{"date":"2013-09-01","city":"Dresden","latitude":"50.63N","longitude":"13.94E"}
{"date":"2012-04-01","average_temperature":"8.0","city":"Duisburg","latitude":"50.63N","longitude":"6.34E"}
{"date":"2011-11-01","average_temperature":"6.691000000000002","city":"Dundee","latitude":"57.05N","longitude":"4.43W"}
{"date":"2011-07-01","average_temperature":"20.463","city":"Dunhua","latitude":"42.59N","longitude":"128.73E"}
{"date":"2013-04-01","average_temperature":"21.428","city":"Durban","latitude":"29.74S","longitude":"31.38E"}
{"date":"2012-12-01","average_temperature":"18.570999999999998","city":"Durgapur","latitude":"23.31N","longitude":"86.50E"}
{"date":"2012-06-01","average_temperature":"18.593","city":"Dushanbe","latitude":"39.38N","longitude":"68.67E"}
{"date":"2013-03-01","average_temperature":"20.818","city":"East London","latitude":"32.95S","longitude":"27.77E"}
{"date":"2010-05-01","average_temperature":"10.035","city":"Edinburgh","latitude":"55.45N","longitude":"2.83W"}
{"date":"2013-02-01","average_temperature":"25.599","city":"El Limón","latitude":"10.45N","longitude":"67.91W"}
{"date":"2013-02-01","average_temperature":"23.76","city":"El Progreso","latitude":"15.27N","longitude":"87.50W"}
{"date":"2011-12-01","average_temperature":"10.171","city":"Elbasan","latitude":"40.99N","longitude":"19.17E"}
{"date":"2012-06-01","average_temperature":"23.829","city":"Elbasan","latitude":"40.99N","longitude":"19.17E"}
{"date":"2013-03-01","average_temperature":"-2.518","city":"Elblag","latitude":"53.84N","longitude":"20.45E"}
{"date":"2012-05-01","average_temperature":"18.169","city":"Embu","latitude":"23.31S","longitude":"46.31W"}
{"date":"2012-09-01","average_temperature":"14.093","city":"Emmen","latitude":"52.24N","longitude":"7.88E"}
{"date":"2011-02-01","average_temperature":"16.184","city":"Encheng","latitude":"21.70N","longitude":"111.63E"}
{"date":"2011-08-01","average_temperature":"23.014000000000006","city":"Erzincan","latitude":"39.38N","longitude":"39.54E"}
{"date":"2012-09-01","average_temperature":"17.538","city":"Erzurum","latitude":"39.38N","longitude":"41.62E"}
{"date":"2010-07-01","average_temperature":"26.51","city":"Esfahan","latitude":"32.95N","longitude":"50.74E"}
{"date":"2010-09-01","average_temperature":"20.523000000000003","city":"Esfahan","latitude":"32.95N","longitude":"50.74E"}
{"date":"2013-02-01","average_temperature":"5.1160000000000005","city":"Eskisehir","latitude":"39.38N","longitude":"31.21E"}
{"date":"2010-08-01","average_temperature":"29.494","city":"Etah","latitude":"28.13N","longitude":"79.09E"}
{"date":"2010-08-01","average_temperature":"29.879","city":"Faizabad","latitude":"26.52N","longitude":"82.39E"}
{"date":"2011-02-01","average_temperature":"26.574","city":"Feira De Santana","latitude":"12.05S","longitude":"39.45W"}
{"date":"2010-10-01","average_temperature":"26.741","city":"Firozabad","latitude":"26.52N","longitude":"78.81E"}
{"date":"2012-08-01","average_temperature":"21.971","city":"Fort Collins","latitude":"40.99N","longitude":"104.38W"}
{"date":"2010-05-01","average_temperature":"17.735","city":"Fort Wayne","latitude":"40.99N","longitude":"85.21W"}
{"date":"2012-03-01","average_temperature":"23.873","city":"Franca","latitude":"20.09S","longitude":"47.77W"}
{"date":"2011-05-01","average_temperature":"13.493","city":"Freiburg","latitude":"47.42N","longitude":"8.29E"}
{"date":"2010-09-01","average_temperature":"25.233","city":"Fuji","latitude":"34.56N","longitude":"138.16E"}
{"date":"2013-04-01","average_temperature":"11.31","city":"Fujimi","latitude":"36.17N","longitude":"139.23E"}
{"date":"2011-03-01","average_temperature":"8.665","city":"Fujinomiya","latitude":"34.56N","longitude":"138.16E"}
{"date":"2010-01-01","average_temperature":"2.608","city":"Fukaya","latitude":"36.17N","longitude":"139.23E"}
{"date":"2011-11-01","average_temperature":"15.455","city":"Fullerton","latitude":"32.95N","longitude":"117.77W"}
{"date":"2010-02-01","average_temperature":"29.369","city":"Funtua","latitude":"12.05N","longitude":"6.58E"}
{"date":"2010-11-01","average_temperature":"1.222","city":"Fushun","latitude":"40.99N","longitude":"123.55E"}
{"date":"2013-07-01","average_temperature":"24.917","city":"Gómez Palacio","latitude":"24.92N","longitude":"102.86W"}
{"date":"2010-12-01","average_temperature":"23.750999999999998","city":"Gaborone","latitude":"24.92S","longitude":"26.60E"}
{"date":"2012-11-01","average_temperature":"25.455","city":"Gandhidham","latitude":"23.31N","longitude":"70.78E"}
{"date":"2011-03-01","average_temperature":"22.808000000000003","city":"Ganganagar","latitude":"29.74N","longitude":"73.85E"}
{"date":"2012-04-01","average_temperature":"25.49","city":"Garanhuns","latitude":"8.84S","longitude":"36.49W"}
{"date":"2013-06-01","average_temperature":"18.632","city":"Garden Grove","latitude":"32.95N","longitude":"117.77W"}
{"date":"2013-01-01","average_temperature":"6.023","city":"Gardez","latitude":"32.95N","longitude":"69.89E"}
{"date":"2010-01-01","average_temperature":"6.212000000000001","city":"Gebze","latitude":"40.99N","longitude":"29.82E"}
{"date":"2013-05-01","average_temperature":"25.324","city":"Gemena","latitude":"4.02N","longitude":"20.09E"}
{"date":"2013-01-01","average_temperature":"2.117","city":"Gent","latitude":"50.63N","longitude":"3.80E"}
{"date":"2010-09-01","average_temperature":"15.603","city":"George","latitude":"34.56S","longitude":"23.35E"}
{"date":"2011-08-01","average_temperature":"34.236","city":"Gilbert","latitude":"32.95N","longitude":"112.02W"}
{"date":"2012-05-01","average_temperature":"26.604000000000006","city":"Gilbert","latitude":"32.95N","longitude":"112.02W"}
{"date":"2010-10-01","average_temperature":"25.3","city":"Girón","latitude":"7.23N","longitude":"73.78W"}
{"date":"2011-01-01","average_temperature":"-13.964","city":"Glazov","latitude":"58.66N","longitude":"52.31E"}
{"date":"2012-10-01","average_temperature":"23.183000000000003","city":"Glendale","latitude":"32.95N","longitude":"112.02W"}
{"date":"2013-09-01","average_temperature":"23.301","city":"Glendale","latitude":"34.56N","longitude":"118.70W"}
{"date":"2010-10-01","average_temperature":"6.2269999999999985","city":"Gliwice","latitude":"50.63N","longitude":"19.01E"}
{"date":"2010-11-01","average_temperature":"4.8839999999999995","city":"Gloucester","latitude":"52.24N","longitude":"2.63W"}
{"date":"2013-05-01","average_temperature":"17.969","city":"Gomel","latitude":"52.24N","longitude":"31.53E"}
{"date":"2011-11-01","average_temperature":"26.843000000000004","city":"Gondal","latitude":"21.70N","longitude":"70.10E"}
{"date":"2012-02-01","average_temperature":"-12.025","city":"Gongzhuling","latitude":"44.20N","longitude":"125.22E"}
{"date":"2012-10-01","average_temperature":"6.974","city":"Gongzhuling","latitude":"44.20N","longitude":"125.22E"}
{"date":"2012-09-01","average_temperature":"26.083000000000002","city":"Grand Prairie","latitude":"32.95N","longitude":"96.70W"}
{"date":"2010-12-01","average_temperature":"25.99","city":"Grogol","latitude":"7.23S","longitude":"111.08E"}
{"date":"2010-04-01","average_temperature":"7.535","city":"Groningen","latitude":"53.84N","longitude":"6.82E"}
{"date":"2012-10-01","average_temperature":"24.19","city":"Guarapari","latitude":"20.09S","longitude":"40.95W"}
{"date":"2010-03-01","average_temperature":"25.02","city":"Guaratinguetá","latitude":"23.31S","longitude":"44.56W"}
{"date":"2011-04-01","average_temperature":"21.478","city":"Guarujá","latitude":"23.31S","longitude":"46.31W"}
{"date":"2010-01-01","average_temperature":"-7.1370000000000005","city":"Guelph","latitude":"44.20N","longitude":"80.50W"}
{"date":"2011-11-01","average_temperature":"18.498","city":"Guilin","latitude":"24.92N","longitude":"109.95E"}
{"date":"2010-02-01","average_temperature":"29.369","city":"Gusau","latitude":"12.05N","longitude":"6.58E"}
{"date":"2013-05-01","average_temperature":"22.583","city":"Haifa","latitude":"32.95N","longitude":"35.43E"}
{"date":"2011-08-01","average_temperature":"28.646","city":"Haikou","latitude":"20.09N","longitude":"110.90E"}
{"date":"2011-12-01","average_temperature":"16.409000000000002","city":"Hajipur","latitude":"24.92N","longitude":"85.12E"}
{"date":"2010-10-01","average_temperature":"13.745999999999999","city":"Hakodate","latitude":"40.99N","longitude":"140.59E"}
{"date":"2010-12-01","average_temperature":"2.222","city":"Hakodate","latitude":"40.99N","longitude":"140.59E"}
{"date":"2013-02-01","average_temperature":"-1.473","city":"Halle","latitude":"50.63N","longitude":"11.41E"}
{"date":"2013-01-01","average_temperature":"19.137","city":"Hamilton","latitude":"37.78S","longitude":"174.92E"}
{"date":"2012-02-01","average_temperature":"-0.234","city":"Hamm","latitude":"52.24N","longitude":"7.88E"}
{"date":"2013-02-01","average_temperature":"0.667","city":"Hamm","latitude":"52.24N","longitude":"7.88E"}
{"date":"2011-10-01","average_temperature":"17.680999999999997","city":"Hangzhou","latitude":"29.74N","longitude":"120.00E"}
{"date":"2011-11-01","average_temperature":"21.924","city":"Hanumangarh","latitude":"29.74N","longitude":"73.85E"}
{"date":"2012-08-01","average_temperature":"26.968000000000004","city":"Herat","latitude":"34.56N","longitude":"62.27E"}
{"date":"2010-07-01","average_temperature":"21.162","city":"Herne","latitude":"52.24N","longitude":"7.88E"}
{"date":"2012-03-01","average_temperature":"5.617000000000001","city":"Hiratsuka","latitude":"36.17N","longitude":"139.23E"}
{"date":"2011-05-01","average_temperature":"13.495999999999999","city":"Hohhot","latitude":"40.99N","longitude":"110.77E"}
{"date":"2011-02-01","average_temperature":"15.607999999999999","city":"Hong Gai","latitude":"21.70N","longitude":"106.44E"}
{"date":"2012-10-01","average_temperature":"17.544","city":"Huaihua","latitude":"28.13N","longitude":"110.00E"}
{"date":"2011-02-01","average_temperature":"7.551","city":"Huancayo","latitude":"12.05S","longitude":"75.62W"}
{"date":"2012-12-01","average_temperature":"8.457","city":"Huancayo","latitude":"12.05S","longitude":"75.62W"}
{"date":"2010-07-01","average_temperature":"29.365","city":"Huangpu","latitude":"23.31N","longitude":"112.72E"}
{"date":"2010-05-01","average_temperature":"19.4","city":"Huelva","latitude":"37.78N","longitude":"6.10W"}
{"date":"2012-11-01","average_temperature":"14.161","city":"Huelva","latitude":"37.78N","longitude":"6.10W"}
{"date":"2010-09-01","average_temperature":"15.677","city":"Hulan Ergi","latitude":"47.42N","longitude":"124.34E"}
{"date":"2013-05-01","average_temperature":"21.291999999999998","city":"Huzhou","latitude":"31.35N","longitude":"120.63E"}
{"date":"2012-06-01","average_temperature":"20.333","city":"Ibirité","latitude":"20.09S","longitude":"44.36W"}
{"date":"2011-08-01","average_temperature":"25.44","city":"Ichalkaranji","latitude":"16.87N","longitude":"73.67E"}
{"date":"2011-03-01","average_temperature":"9.834","city":"Ichihara","latitude":"34.56N","longitude":"140.11E"}
{"date":"2012-05-01","average_temperature":"26.744","city":"Ikere","latitude":"7.23N","longitude":"5.68E"}
{"date":"2011-12-01","average_temperature":"26.515","city":"Ilawe","latitude":"7.23N","longitude":"5.68E"}
{"date":"2010-01-01","average_temperature":"28.237","city":"Ilesha","latitude":"8.84N","longitude":"4.05E"}
{"date":"2010-06-01","average_temperature":"22.649","city":"Inazawa","latitude":"34.56N","longitude":"136.22E"}
{"date":"2011-06-01","average_temperature":"16.362000000000002","city":"Indaiatuba","latitude":"23.31S","longitude":"48.06W"}
{"date":"2013-06-01","average_temperature":"23.897","city":"Iráklion","latitude":"34.56N","longitude":"25.30E"}
{"date":"2011-09-01","average_temperature":"21.912","city":"Isiro","latitude":"2.41N","longitude":"28.13E"}
{"date":"2010-07-01","average_temperature":"24.229","city":"Itaboraí","latitude":"23.31S","longitude":"42.82W"}
{"date":"2012-01-01","average_temperature":"23.475","city":"Itajaí","latitude":"26.52S","longitude":"48.36W"}
{"date":"2011-06-01","average_temperature":"16.362000000000002","city":"Itu","latitude":"23.31S","longitude":"48.06W"}
{"date":"2012-03-01","average_temperature":"3.8","city":"Iwaki","latitude":"37.78N","longitude":"140.34E"}
{"date":"2010-09-01","average_temperature":"17.083","city":"Ixtapaluca","latitude":"20.09N","longitude":"98.96W"}
{"date":"2012-05-01","average_temperature":"19.718","city":"Izmir","latitude":"37.78N","longitude":"26.44E"}
{"date":"2011-10-01","average_temperature":"20.55","city":"Jacareí","latitude":"23.31S","longitude":"46.31W"}
{"date":"2010-10-01","average_temperature":"26.011999999999997","city":"Jahrom","latitude":"28.13N","longitude":"53.64E"}
{"date":"2010-10-01","average_temperature":"26.32","city":"Jakarta","latitude":"5.63S","longitude":"106.55E"}
{"date":"2013-05-01","average_temperature":"27.936","city":"Jakarta","latitude":"5.63S","longitude":"106.55E"}
{"date":"2011-02-01","average_temperature":"20.829","city":"Jamalpur","latitude":"24.92N","longitude":"90.44E"}
{"date":"2010-10-01","average_temperature":"27.695","city":"Jamalpur","latitude":"24.92N","longitude":"86.90E"}
{"date":"2013-02-01","average_temperature":"20.561","city":"Jamalpur","latitude":"24.92N","longitude":"86.90E"}
{"date":"2011-03-01","average_temperature":"27.165","city":"Jamshedpur","latitude":"23.31N","longitude":"86.50E"}
{"date":"2012-01-01","average_temperature":"17.918","city":"Jamuria","latitude":"23.31N","longitude":"86.50E"}
{"date":"2012-08-01","average_temperature":"29.680999999999997","city":"Jaunpur","latitude":"26.52N","longitude":"82.39E"}
{"date":"2012-01-01","average_temperature":"19.718","city":"Jetpur","latitude":"21.70N","longitude":"70.10E"}
{"date":"2011-04-01","average_temperature":"19.698","city":"Jian","latitude":"26.52N","longitude":"114.63E"}
{"date":"2013-05-01","average_temperature":"21.291999999999998","city":"Jiangyin","latitude":"31.35N","longitude":"120.63E"}
{"date":"2010-10-01","average_temperature":"0.8849999999999999","city":"Jiayuguan","latitude":"39.38N","longitude":"97.80E"}
{"date":"2011-12-01","average_temperature":"2.991","city":"Jieshou","latitude":"32.95N","longitude":"115.85E"}
{"date":"2013-05-01","average_temperature":"22.221999999999998","city":"Jingdezhen","latitude":"29.74N","longitude":"116.31E"}
{"date":"2010-06-01","average_temperature":"23.529","city":"Jinhua","latitude":"29.74N","longitude":"120.00E"}
{"date":"2010-11-01","average_temperature":"10.379000000000001","city":"Jining","latitude":"34.56N","longitude":"116.76E"}
{"date":"2013-03-01","average_temperature":"10.084","city":"Jining","latitude":"34.56N","longitude":"116.76E"}
{"date":"2011-11-01","average_temperature":"-4.771","city":"Jishu","latitude":"44.20N","longitude":"127.45E"}
{"date":"2012-01-01","average_temperature":"3.5669999999999997","city":"Jiujiang","latitude":"29.74N","longitude":"116.31E"}
{"date":"2011-09-01","average_temperature":"22.104","city":"Jiutepec","latitude":"18.48N","longitude":"99.72W"}
{"date":"2011-11-01","average_temperature":"20.68","city":"Jiutepec","latitude":"18.48N","longitude":"99.72W"}
{"date":"2012-05-01","average_temperature":"26.363000000000003","city":"João Pessoa","latitude":"7.23S","longitude":"34.86W"}
{"date":"2010-04-01","average_temperature":"33.704","city":"Jodhpur","latitude":"26.52N","longitude":"73.43E"}
{"date":"2012-03-01","average_temperature":"26.729","city":"Jolo","latitude":"5.63N","longitude":"119.46E"}
{"date":"2012-10-01","average_temperature":"28.901","city":"Jombang","latitude":"7.23S","longitude":"112.70E"}
{"date":"2013-07-01","average_temperature":"25.557","city":"Juazeiro Do Norte","latitude":"7.23S","longitude":"39.73W"}
{"date":"2013-08-01","average_temperature":"3.0639999999999996","city":"Juliaca","latitude":"15.27S","longitude":"70.83W"}
{"date":"2012-03-01","average_temperature":"29.168000000000003","city":"Kakinada","latitude":"16.87N","longitude":"82.05E"}
{"date":"2012-11-01","average_temperature":"22.976","city":"Kalyan","latitude":"20.09N","longitude":"73.36E"}
{"date":"2011-04-01","average_temperature":"15.127","city":"Kamakura","latitude":"34.56N","longitude":"140.11E"}
{"date":"2012-11-01","average_temperature":"25.344","city":"Karachi","latitude":"24.92N","longitude":"67.39E"}
{"date":"2012-07-01","average_temperature":"26.244","city":"Karaj","latitude":"36.17N","longitude":"51.71E"}
{"date":"2011-01-01","average_temperature":"0.6559999999999999","city":"Karaman","latitude":"37.78N","longitude":"32.54E"}
{"date":"2011-04-01","average_temperature":"13.675","city":"Karamay","latitude":"45.81N","longitude":"84.23E"}
{"date":"2012-08-01","average_temperature":"27.049","city":"Karawang","latitude":"5.63S","longitude":"106.55E"}
{"date":"2013-08-01","average_temperature":"27.459","city":"Karimnagar","latitude":"18.48N","longitude":"79.44E"}
{"date":"2012-03-01","average_temperature":"6.002000000000002","city":"Kashi","latitude":"39.38N","longitude":"76.99E"}
{"date":"2011-03-01","average_temperature":"4.674","city":"Kawagoe","latitude":"36.17N","longitude":"139.23E"}
{"date":"2012-12-01","average_temperature":"-4.9540000000000015","city":"Kelowna","latitude":"49.03N","longitude":"120.00W"}
{"date":"2010-10-01","average_temperature":"27.519","city":"Khammam","latitude":"16.87N","longitude":"80.37E"}
{"date":"2010-08-01","average_temperature":"30.226","city":"Khardaha","latitude":"23.31N","longitude":"88.25E"}
{"date":"2012-07-01","average_temperature":"29.217","city":"Khulna","latitude":"23.31N","longitude":"90.00E"}
{"date":"2012-09-01","average_temperature":"25.747","city":"Khuzdar","latitude":"28.13N","longitude":"66.36E"}
{"date":"2013-04-01","average_temperature":"25.269","city":"Kikwit","latitude":"5.63S","longitude":"19.37E"}
{"date":"2013-07-01","average_temperature":"11.355","city":"Kimberley","latitude":"28.13S","longitude":"24.55E"}
{"date":"2010-03-01","average_temperature":"-4.853","city":"Kirov","latitude":"58.66N","longitude":"49.23E"}
{"date":"2011-02-01","average_temperature":"25.115","city":"Kisaran","latitude":"2.41N","longitude":"98.84E"}
{"date":"2012-02-01","average_temperature":"27.547","city":"Kismayo","latitude":"0.80S","longitude":"42.59E"}
{"date":"2013-02-01","average_temperature":"23.136999999999997","city":"Kisumu","latitude":"0.80S","longitude":"34.55E"}
{"date":"2011-10-01","average_temperature":"10.537","city":"Klaipeda","latitude":"55.45N","longitude":"19.84E"}
{"date":"2012-03-01","average_temperature":"14.125","city":"Knoxville","latitude":"36.17N","longitude":"83.54W"}
{"date":"2013-07-01","average_temperature":"23.305999999999997","city":"Knoxville","latitude":"36.17N","longitude":"83.54W"}
{"date":"2012-03-01","average_temperature":"27.453000000000003","city":"Koidu","latitude":"8.84N","longitude":"10.54W"}
{"date":"2013-08-01","average_temperature":"26.587","city":"Komatsu","latitude":"36.17N","longitude":"137.24E"}
{"date":"2013-01-01","average_temperature":"-3.5589999999999997","city":"Kosice","latitude":"49.03N","longitude":"22.04E"}
{"date":"2010-07-01","average_temperature":"32.352","city":"Kot Addu","latitude":"29.74N","longitude":"70.15E"}
{"date":"2011-10-01","average_temperature":"29.303","city":"Kousséri","latitude":"12.05N","longitude":"14.79E"}
{"date":"2013-05-01","average_temperature":"13.873","city":"Kroonstad","latitude":"28.13S","longitude":"26.36E"}
{"date":"2011-06-01","average_temperature":"8.582","city":"Krugersdorp","latitude":"26.52S","longitude":"28.66E"}
{"date":"2013-03-01","average_temperature":"27.386000000000006","city":"Kuching","latitude":"0.80N","longitude":"110.09E"}
{"date":"2012-01-01","average_temperature":"27.155","city":"Kupang","latitude":"10.45S","longitude":"123.55E"}
{"date":"2011-07-01","average_temperature":"26.517","city":"Kurashiki","latitude":"34.56N","longitude":"134.27E"}
{"date":"2011-04-01","average_temperature":"6.529","city":"Kursk","latitude":"52.24N","longitude":"36.79E"}
{"date":"2010-10-01","average_temperature":"18.380000000000006","city":"Kusatsu","latitude":"34.56N","longitude":"136.22E"}
{"date":"2013-08-01","average_temperature":"13.439","city":"Kyzyl","latitude":"52.24N","longitude":"94.60E"}
{"date":"2011-04-01","average_temperature":"26.748","city":"La Ceiba","latitude":"15.27N","longitude":"87.50W"}
{"date":"2010-12-01","average_temperature":"24.206999999999997","city":"La Romana","latitude":"18.48N","longitude":"69.30W"}
{"date":"2011-08-01","average_temperature":"27.933000000000003","city":"La Romana","latitude":"18.48N","longitude":"69.30W"}
{"date":"2011-05-01","average_temperature":"27.583000000000002","city":"Lafia","latitude":"8.84N","longitude":"8.92E"}
{"date":"2011-01-01","average_temperature":"24.393","city":"Lages","latitude":"28.13S","longitude":"50.00W"}
{"date":"2012-04-01","average_temperature":"16.535999999999998","city":"Laiwu","latitude":"36.17N","longitude":"117.35E"}
{"date":"2012-08-01","average_temperature":"25.294","city":"Laiwu","latitude":"36.17N","longitude":"117.35E"}
{"date":"2010-10-01","average_temperature":"6.7349999999999985","city":"Lanzhou","latitude":"36.17N","longitude":"103.43E"}
{"date":"2012-05-01","average_temperature":"28.565","city":"Lapu Lapu","latitude":"10.45N","longitude":"123.55E"}
{"date":"2010-12-01","average_temperature":"18.295","city":"Lashio","latitude":"23.31N","longitude":"96.99E"}
{"date":"2011-02-01","average_temperature":"-1.96","city":"Legnica","latitude":"50.63N","longitude":"16.48E"}
{"date":"2010-04-01","average_temperature":"9.164","city":"Leiden","latitude":"52.24N","longitude":"5.26E"}
{"date":"2013-05-01","average_temperature":"27.159000000000002","city":"Libreville","latitude":"0.80N","longitude":"8.84E"}
{"date":"2011-11-01","average_temperature":"16.798000000000002","city":"Lima","latitude":"12.05S","longitude":"77.26W"}
{"date":"2010-02-01","average_temperature":"3.5980000000000003","city":"Limoges","latitude":"45.81N","longitude":"1.15E"}
{"date":"2010-08-01","average_temperature":"25.000999999999998","city":"Linxi","latitude":"39.38N","longitude":"118.61E"}
{"date":"2012-02-01","average_temperature":"-2.904","city":"Linxi","latitude":"39.38N","longitude":"118.61E"}
{"date":"2012-07-01","average_temperature":"23.149","city":"Lisbon","latitude":"39.38N","longitude":"8.32W"}
{"date":"2010-09-01","average_temperature":"20.807","city":"Lleida","latitude":"40.99N","longitude":"0.00W"}
{"date":"2012-02-01","average_temperature":"5.955","city":"Lleida","latitude":"40.99N","longitude":"0.00W"}
{"date":"2012-11-01","average_temperature":"8.359","city":"Logroño","latitude":"42.59N","longitude":"2.18W"}
{"date":"2010-10-01","average_temperature":"12.518","city":"Los Angeles","latitude":"37.78S","longitude":"73.22W"}
{"date":"2012-05-01","average_temperature":"29.34","city":"Los Mochis","latitude":"26.52N","longitude":"109.25W"}
{"date":"2012-05-01","average_temperature":"15.287","city":"Lublin","latitude":"50.63N","longitude":"21.55E"}
{"date":"2012-08-01","average_temperature":"19.846","city":"Ludwigshafen","latitude":"49.03N","longitude":"7.35E"}
{"date":"2011-02-01","average_temperature":"8.206","city":"Luqiao","latitude":"28.13N","longitude":"120.91E"}
{"date":"2010-01-01","average_temperature":"1.381","city":"Luton","latitude":"52.24N","longitude":"0.00W"}
{"date":"2011-02-01","average_temperature":"10.199","city":"Luzhou","latitude":"29.74N","longitude":"105.23E"}
{"date":"2011-11-01","average_temperature":"14.038","city":"Médéa","latitude":"36.17N","longitude":"1.99E"}
{"date":"2012-11-01","average_temperature":"14.495","city":"Médéa","latitude":"36.17N","longitude":"1.99E"}
{"date":"2012-09-01","average_temperature":"21.185","city":"Macaé","latitude":"21.70S","longitude":"42.40W"}
{"date":"2011-10-01","average_temperature":"17.718","city":"Macheng","latitude":"31.35N","longitude":"114.97E"}
{"date":"2012-07-01","average_temperature":"31.923000000000002","city":"Machilipatnam","latitude":"15.27N","longitude":"80.83E"}
{"date":"2011-03-01","average_temperature":"7.105","city":"Mahabad","latitude":"36.17N","longitude":"45.75E"}
{"date":"2013-03-01","average_temperature":"28.568","city":"Mahajanga","latitude":"15.27S","longitude":"45.83E"}
{"date":"2013-04-01","average_temperature":"26.526","city":"Malabo","latitude":"4.02N","longitude":"8.84E"}
{"date":"2011-11-01","average_temperature":"25.049","city":"Mandalay","latitude":"21.70N","longitude":"96.06E"}
{"date":"2011-04-01","average_temperature":"24.298","city":"Mandi Bahauddin","latitude":"32.95N","longitude":"73.72E"}
{"date":"2010-04-01","average_temperature":"29.218000000000004","city":"Mandya","latitude":"12.05N","longitude":"77.26E"}
{"date":"2013-04-01","average_temperature":"30.005","city":"Manila","latitude":"15.27N","longitude":"120.83E"}
{"date":"2013-07-01","average_temperature":"28.790000000000006","city":"Maracaibo","latitude":"10.45N","longitude":"71.18W"}
{"date":"2011-03-01","average_temperature":"26.561999999999998","city":"Marawi","latitude":"7.23N","longitude":"124.05E"}
{"date":"2013-08-01","average_temperature":"26.403000000000002","city":"Marawi","latitude":"7.23N","longitude":"124.05E"}
{"date":"2012-02-01","average_temperature":"10.675","city":"Marbella","latitude":"36.17N","longitude":"3.98W"}
{"date":"2013-06-01","average_temperature":"29.340999999999998","city":"Mardan","latitude":"34.56N","longitude":"72.00E"}
{"date":"2011-09-01","average_temperature":"22.612","city":"Marivan","latitude":"36.17N","longitude":"45.75E"}
{"date":"2011-02-01","average_temperature":"10.630999999999998","city":"Marseille","latitude":"42.59N","longitude":"6.55E"}
{"date":"2013-09-01","city":"Martapura","latitude":"4.02S","longitude":"114.91E"}
{"date":"2013-05-01","average_temperature":"19.843","city":"Mashhad","latitude":"36.17N","longitude":"59.67E"}
{"date":"2010-01-01","average_temperature":"26.982","city":"Matadi","latitude":"5.63S","longitude":"12.91E"}
{"date":"2011-06-01","average_temperature":"23.511000000000006","city":"Matadi","latitude":"5.63S","longitude":"12.91E"}
{"date":"2012-02-01","average_temperature":"25.656999999999996","city":"Matadi","latitude":"5.63S","longitude":"12.91E"}
{"date":"2010-03-01","average_temperature":"17.503","city":"Matamoros","latitude":"26.52N","longitude":"96.72W"}
{"date":"2013-03-01","average_temperature":"10.33","city":"Matsubara","latitude":"34.56N","longitude":"136.22E"}
{"date":"2011-11-01","average_temperature":"10.036","city":"Matsumoto","latitude":"36.17N","longitude":"137.24E"}
{"date":"2013-08-01","average_temperature":"18.215","city":"Mauá","latitude":"23.31S","longitude":"46.31W"}
{"date":"2012-01-01","average_temperature":"25.654","city":"Mawlamyine","latitude":"16.87N","longitude":"97.12E"}
{"date":"2011-07-01","average_temperature":"22.795","city":"Mbouda","latitude":"5.63N","longitude":"9.69E"}
{"date":"2012-02-01","average_temperature":"21.287000000000006","city":"Mecca","latitude":"21.70N","longitude":"40.67E"}
{"date":"2011-06-01","average_temperature":"24.167","city":"Mersin","latitude":"36.17N","longitude":"33.81E"}
{"date":"2011-06-01","average_temperature":"30.15","city":"Mesa","latitude":"32.95N","longitude":"112.02W"}
{"date":"2011-03-01","average_temperature":"19.118","city":"Metairie","latitude":"29.74N","longitude":"90.46W"}
{"date":"2011-09-01","average_temperature":"26.518","city":"Meycauayan","latitude":"15.27N","longitude":"120.83E"}
{"date":"2011-12-01","average_temperature":"15.961","city":"Mirzapur","latitude":"24.92N","longitude":"83.35E"}
{"date":"2011-05-01","average_temperature":"18.337","city":"Mishima","latitude":"34.56N","longitude":"138.16E"}
{"date":"2010-01-01","average_temperature":"6.4700000000000015","city":"Mobile","latitude":"31.35N","longitude":"88.59W"}
{"date":"2011-11-01","average_temperature":"14.385","city":"Mobile","latitude":"31.35N","longitude":"88.59W"}
{"date":"2012-10-01","average_temperature":"14.040999999999999","city":"Modena","latitude":"44.20N","longitude":"11.18E"}
{"date":"2013-05-01","average_temperature":"14.957","city":"Modena","latitude":"44.20N","longitude":"11.18E"}
{"date":"2011-07-01","average_temperature":"15.847000000000001","city":"Moers","latitude":"50.63N","longitude":"6.34E"}
{"date":"2010-01-01","average_temperature":"25.454","city":"Montalban","latitude":"15.27N","longitude":"120.83E"}
{"date":"2011-07-01","average_temperature":"31.575","city":"Mopti","latitude":"15.27N","longitude":"4.17W"}
{"date":"2012-07-01","average_temperature":"27.253","city":"Moratuwa","latitude":"7.23N","longitude":"80.27E"}
{"date":"2013-04-01","average_temperature":"17.496","city":"Moreno Valley","latitude":"34.56N","longitude":"116.76W"}
{"date":"2013-01-01","average_temperature":"3.917","city":"Moriguchi","latitude":"34.56N","longitude":"136.22E"}
{"date":"2011-12-01","average_temperature":"21.281999999999996","city":"Morvi","latitude":"23.31N","longitude":"70.78E"}
{"date":"2010-05-01","average_temperature":"5.657","city":"Murmansk","latitude":"68.31N","longitude":"34.70E"}
{"date":"2010-04-01","average_temperature":"7.662000000000001","city":"Murom","latitude":"55.45N","longitude":"42.52E"}
{"date":"2013-03-01","average_temperature":"22.226","city":"Muzaffarnagar","latitude":"29.74N","longitude":"77.54E"}
{"date":"2011-01-01","average_temperature":"17.864","city":"Naihati","latitude":"23.31N","longitude":"88.25E"}
{"date":"2010-04-01","average_temperature":"31.086","city":"Nakhon Pathom","latitude":"13.66N","longitude":"99.91E"}
{"date":"2012-05-01","average_temperature":"29.636999999999997","city":"Nakhon Pathom","latitude":"13.66N","longitude":"99.91E"}
{"date":"2011-05-01","average_temperature":"19.811","city":"Namangan","latitude":"40.99N","longitude":"72.43E"}
{"date":"2011-01-01","average_temperature":"27.052","city":"Nampula","latitude":"15.27S","longitude":"39.17E"}
{"date":"2011-03-01","average_temperature":"-7.042000000000001","city":"Nancha","latitude":"47.42N","longitude":"129.08E"}
{"date":"2011-04-01","average_temperature":"17.349","city":"Nanyang","latitude":"32.95N","longitude":"112.02E"}
{"date":"2012-12-01","average_temperature":"2.9609999999999994","city":"Narashino","latitude":"36.17N","longitude":"139.23E"}
{"date":"2013-08-01","average_temperature":"25.587","city":"Narita","latitude":"36.17N","longitude":"141.22E"}
{"date":"2012-10-01","average_temperature":"26.383000000000003","city":"Nassau","latitude":"24.92N","longitude":"78.03W"}
{"date":"2011-06-01","average_temperature":"29.227","city":"Navoi","latitude":"39.38N","longitude":"64.51E"}
{"date":"2013-05-01","average_temperature":"22.897","city":"Navoi","latitude":"39.38N","longitude":"64.51E"}
{"date":"2010-09-01","average_temperature":"29.511","city":"Nawabganj","latitude":"24.92N","longitude":"88.67E"}
{"date":"2012-04-01","average_temperature":"15.067","city":"Nazran","latitude":"44.20N","longitude":"44.72E"}
{"date":"2011-11-01","average_temperature":"15.627","city":"Neijiang","latitude":"29.74N","longitude":"105.23E"}
{"date":"2010-02-01","average_temperature":"-0.895","city":"Nevinnomyssk","latitude":"44.20N","longitude":"42.48E"}
{"date":"2012-07-01","average_temperature":"14.513","city":"Newcastle","latitude":"32.95S","longitude":"152.23E"}
{"date":"2010-05-01","average_temperature":"11.279000000000002","city":"Newport","latitude":"52.24N","longitude":"2.63W"}
{"date":"2013-07-01","average_temperature":"26.201","city":"Newport News","latitude":"37.78N","longitude":"77.29W"}
{"date":"2012-05-01","average_temperature":"18.069000000000003","city":"Neyagawa","latitude":"34.56N","longitude":"136.22E"}
{"date":"2012-09-01","average_temperature":"24.551","city":"Nha Trang","latitude":"12.05N","longitude":"108.49E"}
{"date":"2012-04-01","average_temperature":"34.9","city":"Niamey","latitude":"13.66N","longitude":"2.48E"}
{"date":"2013-05-01","average_temperature":"18.422","city":"Niihama","latitude":"34.56N","longitude":"134.27E"}
{"date":"2012-06-01","average_temperature":"20.949","city":"Nis","latitude":"42.59N","longitude":"21.82E"}
{"date":"2012-11-01","average_temperature":"7.27","city":"Nis","latitude":"42.59N","longitude":"21.82E"}
{"date":"2012-04-01","average_temperature":"13.708","city":"Nishio","latitude":"34.56N","longitude":"136.22E"}
{"date":"2011-01-01","average_temperature":"-22.127","city":"Nizhnevartovsk","latitude":"60.27N","longitude":"77.84E"}
{"date":"2012-09-01","average_temperature":"10.901","city":"Nizhnevartovsk","latitude":"60.27N","longitude":"77.84E"}
{"date":"2013-01-01","average_temperature":"7.763999999999999","city":"Nogales","latitude":"31.35N","longitude":"111.20W"}
{"date":"2011-09-01","average_temperature":"14.505","city":"Nottingham","latitude":"53.84N","longitude":"1.36W"}
{"date":"2010-11-01","average_temperature":"-4.305999999999999","city":"Novosibirsk","latitude":"55.45N","longitude":"82.20E"}
{"date":"2011-10-01","average_temperature":"19.493","city":"Numazu","latitude":"34.56N","longitude":"138.16E"}
{"date":"2011-01-01","average_temperature":"2.262","city":"Oberhausen","latitude":"50.63N","longitude":"6.34E"}
{"date":"2013-08-01","average_temperature":"24.389","city":"Obuasi","latitude":"5.63N","longitude":"1.61W"}
{"date":"2012-09-01","average_temperature":"25.243000000000002","city":"Offa","latitude":"8.84N","longitude":"4.05E"}
{"date":"2010-03-01","average_temperature":"8.894","city":"Ogaki","latitude":"34.56N","longitude":"136.22E"}
{"date":"2010-01-01","average_temperature":"27.130000000000006","city":"Olinda","latitude":"7.23S","longitude":"34.86W"}
{"date":"2011-05-01","average_temperature":"16.147000000000002","city":"Ome","latitude":"36.17N","longitude":"139.23E"}
{"date":"2011-04-01","average_temperature":"6.355","city":"Omsk","latitude":"55.45N","longitude":"73.70E"}
{"date":"2012-03-01","average_temperature":"27.231","city":"Ongole","latitude":"15.27N","longitude":"80.83E"}
{"date":"2012-12-01","average_temperature":"7.8519999999999985","city":"Ontario","latitude":"34.56N","longitude":"116.76W"}
{"date":"2010-07-01","average_temperature":"26.825","city":"Opobo","latitude":"4.02N","longitude":"7.23E"}
{"date":"2011-10-01","average_temperature":"23.226000000000006","city":"Orlando","latitude":"28.13N","longitude":"80.91W"}
{"date":"2010-02-01","average_temperature":"12.834000000000001","city":"Oruro","latitude":"18.48S","longitude":"67.61W"}
{"date":"2011-06-01","average_temperature":"26.461","city":"Oshogbo","latitude":"7.23N","longitude":"4.05E"}
{"date":"2012-01-01","average_temperature":"27.704","city":"Oshogbo","latitude":"7.23N","longitude":"4.05E"}
{"date":"2013-08-01","average_temperature":"24.156","city":"Oshogbo","latitude":"7.23N","longitude":"4.05E"}
{"date":"2012-01-01","average_temperature":"1.746","city":"Osmaniye","latitude":"37.78N","longitude":"36.61E"}
{"date":"2012-04-01","average_temperature":"8.527000000000001","city":"Osnabrück","latitude":"52.24N","longitude":"7.88E"}
{"date":"2010-12-01","average_temperature":"12.042","city":"Osorno","latitude":"40.99S","longitude":"72.43W"}
{"date":"2013-06-01","average_temperature":"26.368000000000002","city":"Owerri","latitude":"5.63N","longitude":"6.46E"}
{"date":"2012-03-01","average_temperature":"29.545","city":"Owo","latitude":"7.23N","longitude":"5.68E"}
{"date":"2012-09-01","average_temperature":"24.745","city":"Oxnard","latitude":"34.56N","longitude":"118.70W"}
{"date":"2013-09-01","average_temperature":"28.497","city":"Pétionville","latitude":"18.48N","longitude":"72.68W"}
{"date":"2012-08-01","average_temperature":"22.555","city":"Pôrto Seguro","latitude":"16.87S","longitude":"38.51W"}
{"date":"2011-01-01","average_temperature":"25.441999999999997","city":"Pôrto Velho","latitude":"8.84S","longitude":"64.05W"}
{"date":"2010-11-01","average_temperature":"17.024","city":"Paarl","latitude":"34.56S","longitude":"19.46E"}
{"date":"2010-01-01","average_temperature":"17.354000000000006","city":"Pabna","latitude":"23.31N","longitude":"90.00E"}
{"date":"2012-11-01","average_temperature":"26.206999999999997","city":"Padalarang","latitude":"7.23S","longitude":"107.84E"}
{"date":"2011-05-01","average_temperature":"14.472","city":"Paderborn","latitude":"52.24N","longitude":"7.88E"}
{"date":"2013-02-01","average_temperature":"28.139000000000006","city":"Palakkad","latitude":"10.45N","longitude":"76.09E"}
{"date":"2011-01-01","average_temperature":"15.970999999999998","city":"Pali","latitude":"26.52N","longitude":"73.43E"}
{"date":"2011-04-01","average_temperature":"27.3","city":"Pamanukan","latitude":"5.63S","longitude":"108.16E"}
{"date":"2010-07-01","average_temperature":"26.701","city":"Pangkah","latitude":"7.23S","longitude":"109.46E"}
{"date":"2012-04-01","average_temperature":"31.195","city":"Patan","latitude":"23.31N","longitude":"72.52E"}
{"date":"2011-04-01","average_temperature":"10.555","city":"Paterson","latitude":"40.99N","longitude":"74.56W"}
{"date":"2011-05-01","average_temperature":"22.96","city":"Pathankot","latitude":"32.95N","longitude":"75.64E"}
{"date":"2012-01-01","average_temperature":"-4.791","city":"Pavlohrad","latitude":"49.03N","longitude":"36.73E"}
{"date":"2011-04-01","average_temperature":"25.452","city":"Payakumbuh","latitude":"0.80S","longitude":"100.45E"}
{"date":"2011-04-01","average_temperature":"26.422","city":"Pemalang","latitude":"7.23S","longitude":"109.46E"}
{"date":"2013-09-01","average_temperature":"29.136","city":"Peoria","latitude":"32.95N","longitude":"112.02W"}
{"date":"2012-08-01","average_temperature":"28.055","city":"Perbaungan","latitude":"4.02N","longitude":"98.84E"}
{"date":"2012-08-01","average_temperature":"13.187999999999999","city":"Petrozavodsk","latitude":"61.88N","longitude":"35.66E"}
{"date":"2011-12-01","average_temperature":"3.756","city":"Pforzheim","latitude":"49.03N","longitude":"9.80E"}
{"date":"2012-01-01","average_temperature":"11.953","city":"Phagwara","latitude":"31.35N","longitude":"75.39E"}
{"date":"2012-07-01","average_temperature":"24.749","city":"Piatra Neamt","latitude":"47.42N","longitude":"27.24E"}
{"date":"2013-04-01","average_temperature":"28.980999999999998","city":"Pilibhit","latitude":"28.13N","longitude":"79.09E"}
{"date":"2011-10-01","average_temperature":"23.386","city":"Pingchen","latitude":"24.92N","longitude":"120.59E"}
{"date":"2010-08-01","average_temperature":"28.802000000000003","city":"Pingshan","latitude":"23.31N","longitude":"114.47E"}
{"date":"2013-04-01","average_temperature":"16.997","city":"Pingxiang","latitude":"28.13N","longitude":"113.64E"}
{"date":"2010-05-01","average_temperature":"24.238000000000003","city":"Piura","latitude":"5.63S","longitude":"80.72W"}
{"date":"2010-04-01","average_temperature":"12.427","city":"Pleven","latitude":"44.20N","longitude":"24.60E"}
{"date":"2012-04-01","average_temperature":"9.831","city":"Plock","latitude":"52.24N","longitude":"18.39E"}
{"date":"2010-07-01","average_temperature":"19.26","city":"Plovdiv","latitude":"42.59N","longitude":"24.00E"}
{"date":"2013-03-01","average_temperature":"-7.497000000000001","city":"Podolsk","latitude":"55.45N","longitude":"36.85E"}
{"date":"2013-06-01","average_temperature":"21.796999999999997","city":"Poltava","latitude":"49.03N","longitude":"34.29E"}
{"date":"2012-09-01","average_temperature":"27.595","city":"Pontianak","latitude":"0.80S","longitude":"110.09E"}
{"date":"2012-12-01","average_temperature":"26.746","city":"Pontianak","latitude":"0.80S","longitude":"110.09E"}
{"date":"2013-01-01","average_temperature":"5.984","city":"Poole","latitude":"50.63N","longitude":"1.27W"}
{"date":"2010-07-01","average_temperature":"28.206","city":"Port Blair","latitude":"12.05N","longitude":"92.05E"}
{"date":"2011-08-01","average_temperature":"15.511","city":"Port Elizabeth","latitude":"34.56S","longitude":"25.30E"}
{"date":"2013-03-01","average_temperature":"27.943","city":"Port Gentil","latitude":"0.80S","longitude":"8.84E"}
{"date":"2010-06-01","average_temperature":"23.453000000000007","city":"Port Louis","latitude":"20.09S","longitude":"58.01E"}
{"date":"2011-09-01","average_temperature":"24.639","city":"Port Moresby","latitude":"8.84S","longitude":"146.76E"}
{"date":"2011-11-01","average_temperature":"21.308000000000003","city":"Porto Alegre","latitude":"29.74S","longitude":"51.69W"}
{"date":"2012-09-01","average_temperature":"23.373","city":"Portoviejo","latitude":"0.80S","longitude":"81.16W"}
{"date":"2011-07-01","average_temperature":"14.770999999999999","city":"Posadas","latitude":"28.13S","longitude":"55.45W"}
{"date":"2010-02-01","average_temperature":"24.888","city":"Potgietersrus","latitude":"23.31S","longitude":"28.83E"}
{"date":"2012-08-01","average_temperature":"19.408","city":"Potsdam","latitude":"52.24N","longitude":"13.14E"}
{"date":"2013-07-01","average_temperature":"21.465","city":"Prizren","latitude":"42.59N","longitude":"21.82E"}
{"date":"2010-04-01","average_temperature":"27.451999999999998","city":"Probolinggo","latitude":"7.23S","longitude":"112.70E"}
{"date":"2011-02-01","average_temperature":"25.686","city":"Pucallpa","latitude":"8.84S","longitude":"73.78W"}
{"date":"2012-09-01","average_temperature":"27.263","city":"Pucallpa","latitude":"8.84S","longitude":"73.78W"}
{"date":"2011-11-01","average_temperature":"27.934","city":"Puerto Princesa","latitude":"10.45N","longitude":"118.64E"}
{"date":"2010-01-01","average_temperature":"-6.559","city":"Pulandian","latitude":"39.38N","longitude":"122.77E"}
{"date":"2010-03-01","average_temperature":"7.94","city":"Puno","latitude":"15.27S","longitude":"70.83W"}
{"date":"2012-06-01","average_temperature":"26.732","city":"Puqi","latitude":"29.74N","longitude":"114.46E"}
{"date":"2013-09-01","city":"Pyatigorsk","latitude":"44.20N","longitude":"42.48E"}
{"date":"2010-10-01","average_temperature":"17.526","city":"Qianjiang","latitude":"29.74N","longitude":"112.62E"}
{"date":"2012-12-01","average_temperature":"5.0969999999999995","city":"Qianjiang","latitude":"29.74N","longitude":"112.62E"}
{"date":"2012-07-01","average_temperature":"28.893","city":"Qingyuan","latitude":"23.31N","longitude":"112.72E"}
{"date":"2011-10-01","average_temperature":"7.371","city":"Qiqihar","latitude":"47.42N","longitude":"124.34E"}
{"date":"2013-04-01","average_temperature":"3.529","city":"Qitaihe","latitude":"45.81N","longitude":"130.38E"}
{"date":"2011-10-01","average_temperature":"24.919","city":"Quelimane","latitude":"18.48S","longitude":"37.18E"}
{"date":"2012-10-01","average_temperature":"21.469","city":"Quevedo","latitude":"0.80S","longitude":"79.55W"}
{"date":"2012-06-01","average_temperature":"33.908","city":"Rabak","latitude":"13.66N","longitude":"32.20E"}
{"date":"2011-06-01","average_temperature":"24.664","city":"Rabat","latitude":"34.56N","longitude":"5.84W"}
{"date":"2011-03-01","average_temperature":"28.293000000000003","city":"Rach Gia","latitude":"10.45N","longitude":"105.55E"}
{"date":"2012-12-01","average_temperature":"-3.6660000000000004","city":"Radom","latitude":"50.63N","longitude":"21.55E"}
{"date":"2012-05-01","average_temperature":"34.033","city":"Rae Bareli","latitude":"26.52N","longitude":"80.60E"}
{"date":"2013-06-01","average_temperature":"30.76","city":"Raigarh","latitude":"21.70N","longitude":"83.94E"}
{"date":"2013-09-01","city":"Ramnicu Valcea","latitude":"45.81N","longitude":"24.23E"}
{"date":"2012-05-01","average_temperature":"21.948","city":"Rancho Cucamonga","latitude":"34.56N","longitude":"116.76W"}
{"date":"2012-03-01","average_temperature":"19.709","city":"Rawalpindi","latitude":"32.95N","longitude":"73.72E"}
{"date":"2010-09-01","average_temperature":"22.531","city":"Reggio Di Calabria","latitude":"37.78N","longitude":"16.27E"}
{"date":"2012-12-01","average_temperature":"23.592","city":"Resende","latitude":"21.70S","longitude":"44.13W"}
{"date":"2010-12-01","average_temperature":"8.548","city":"Richardson","latitude":"32.95N","longitude":"96.70W"}
{"date":"2010-03-01","average_temperature":"22.813000000000002","city":"Riobamba","latitude":"2.41S","longitude":"77.95W"}
{"date":"2011-06-01","average_temperature":"29.873","city":"Rishra","latitude":"23.31N","longitude":"88.25E"}
{"date":"2012-01-01","average_temperature":"-4.092","city":"Rivne","latitude":"50.63N","longitude":"26.62E"}
{"date":"2010-03-01","average_temperature":"7.6030000000000015","city":"Rome","latitude":"42.59N","longitude":"13.09E"}
{"date":"2012-05-01","average_temperature":"15.321","city":"Rome","latitude":"42.59N","longitude":"13.09E"}
{"date":"2010-01-01","average_temperature":"26.163","city":"Rondonópolis","latitude":"16.87S","longitude":"55.26W"}
{"date":"2010-12-01","average_temperature":"26.630000000000006","city":"Rondonópolis","latitude":"16.87S","longitude":"55.26W"}
{"date":"2012-08-01","average_temperature":"18.414","city":"Rostock","latitude":"53.84N","longitude":"12.27E"}
{"date":"2011-07-01","average_temperature":"15.249","city":"Rotherham","latitude":"53.84N","longitude":"1.36W"}
{"date":"2010-08-01","average_temperature":"28.894000000000002","city":"Roxas","latitude":"12.05N","longitude":"123.29E"}
{"date":"2012-02-01","average_temperature":"26.703000000000003","city":"Roxas","latitude":"12.05N","longitude":"123.29E"}
{"date":"2010-08-01","average_temperature":"28.929000000000002","city":"Ruian","latitude":"28.13N","longitude":"120.91E"}
{"date":"2013-07-01","average_temperature":"20.131","city":"Ruiru","latitude":"0.80S","longitude":"37.77E"}
{"date":"2010-03-01","average_temperature":"-3.0260000000000002","city":"Ryazan","latitude":"53.84N","longitude":"39.55E"}
{"date":"2010-07-01","average_temperature":"23.88","city":"Rybinsk","latitude":"58.66N","longitude":"40.00E"}
{"date":"2013-04-01","average_temperature":"9.016","city":"Rybnik","latitude":"50.63N","longitude":"19.01E"}
{"date":"2010-04-01","average_temperature":"20.855","city":"São Bernardo Do Campo","latitude":"23.31S","longitude":"46.31W"}
{"date":"2012-11-01","average_temperature":"5.859","city":"Saarbrücken","latitude":"49.03N","longitude":"7.35E"}
{"date":"2012-10-01","average_temperature":"18.622","city":"Sabzevar","latitude":"36.17N","longitude":"57.68E"}
{"date":"2011-01-01","average_temperature":"1.1229999999999998","city":"Saga","latitude":"32.95N","longitude":"131.17E"}
{"date":"2010-02-01","average_temperature":"26.548","city":"Salatiga","latitude":"7.23S","longitude":"111.08E"}
{"date":"2010-04-01","average_temperature":"5.7829999999999995","city":"Salavat","latitude":"53.84N","longitude":"55.91E"}
{"date":"2010-06-01","average_temperature":"13.509","city":"Salem","latitude":"44.20N","longitude":"122.98W"}
{"date":"2011-04-01","average_temperature":"12.885","city":"Salinas","latitude":"36.17N","longitude":"121.33W"}
{"date":"2012-12-01","average_temperature":"19.613","city":"Salta","latitude":"24.92S","longitude":"65.62W"}
{"date":"2010-12-01","average_temperature":"11.65","city":"San Antonio","latitude":"29.74N","longitude":"97.85W"}
{"date":"2010-09-01","average_temperature":"24.954","city":"San Bernardino","latitude":"34.56N","longitude":"116.76W"}
{"date":"2012-04-01","average_temperature":"24.64","city":"San Francisco De Macorís","latitude":"20.09N","longitude":"69.95W"}
{"date":"2011-10-01","average_temperature":"27.276999999999997","city":"San Juan","latitude":"18.48N","longitude":"65.92W"}
{"date":"2013-01-01","average_temperature":"14.504","city":"San Juan Del Río","latitude":"20.09N","longitude":"100.66W"}
{"date":"2010-02-01","average_temperature":"26.138","city":"San Pablo","latitude":"13.66N","longitude":"121.38E"}
{"date":"2012-04-01","average_temperature":"14.192","city":"Sanandaj","latitude":"34.56N","longitude":"46.70E"}
{"date":"2012-08-01","average_temperature":"28.999","city":"Sanandaj","latitude":"34.56N","longitude":"46.70E"}
{"date":"2013-02-01","average_temperature":"4.8","city":"Sanda","latitude":"34.56N","longitude":"134.27E"}
{"date":"2013-07-01","average_temperature":"27.006","city":"Sandakan","latitude":"5.63N","longitude":"117.85E"}
{"date":"2010-04-01","average_temperature":"12.402999999999999","city":"Santa Clara","latitude":"37.78N","longitude":"122.03W"}
{"date":"2011-11-01","average_temperature":"26.582","city":"Santa Marta","latitude":"10.45N","longitude":"74.45W"}
{"date":"2012-05-01","average_temperature":"4.03","city":"Santiago","latitude":"32.95S","longitude":"69.89W"}
{"date":"2012-08-01","average_temperature":"17.445999999999998","city":"Sarapul","latitude":"57.05N","longitude":"54.59E"}
{"date":"2011-07-01","average_temperature":"25.133000000000003","city":"Saratov","latitude":"52.24N","longitude":"47.30E"}
{"date":"2012-08-01","average_temperature":"21.982","city":"Saratov","latitude":"52.24N","longitude":"47.30E"}
{"date":"2012-10-01","average_temperature":"18.989","city":"Semnan","latitude":"36.17N","longitude":"53.70E"}
{"date":"2012-11-01","average_temperature":"24.796000000000006","city":"Serra","latitude":"20.09S","longitude":"40.95W"}
{"date":"2013-04-01","average_temperature":"23.621","city":"Serra","latitude":"20.09S","longitude":"40.95W"}
{"date":"2012-12-01","average_temperature":"24.761999999999997","city":"Sete Lagoas","latitude":"20.09S","longitude":"44.36W"}
{"date":"2011-07-01","average_temperature":"27.877","city":"Shah Alam","latitude":"2.41N","longitude":"102.05E"}
{"date":"2011-06-01","average_temperature":"23.7","city":"Shahr E Kord","latitude":"32.95N","longitude":"50.74E"}
{"date":"2012-09-01","average_temperature":"21.636","city":"Shahreza","latitude":"31.35N","longitude":"52.77E"}
{"date":"2012-01-01","average_temperature":"2.5780000000000003","city":"Shahrud","latitude":"36.17N","longitude":"55.69E"}
{"date":"2012-06-01","average_temperature":"26.51","city":"Shahrud","latitude":"36.17N","longitude":"55.69E"}
{"date":"2011-10-01","average_temperature":"23.0","city":"Shaping","latitude":"23.31N","longitude":"112.72E"}
{"date":"2013-06-01","average_temperature":"21.502","city":"Shenyang","latitude":"40.99N","longitude":"123.55E"}
{"date":"2013-05-01","average_temperature":"20.436","city":"Shimla","latitude":"31.35N","longitude":"77.28E"}
{"date":"2012-05-01","average_temperature":"18.602","city":"Shizuishan","latitude":"39.38N","longitude":"106.13E"}
{"date":"2010-09-01","average_temperature":"29.536","city":"Shrirampur","latitude":"23.31N","longitude":"88.25E"}
{"date":"2011-03-01","average_temperature":"5.2940000000000005","city":"Shymkent","latitude":"42.59N","longitude":"69.82E"}
{"date":"2010-02-01","average_temperature":"19.382","city":"Sikar","latitude":"28.13N","longitude":"75.45E"}
{"date":"2013-04-01","average_temperature":"2.543","city":"Sioux Falls","latitude":"44.20N","longitude":"96.15W"}
{"date":"2010-02-01","average_temperature":"18.012999999999998","city":"Sirsa","latitude":"29.74N","longitude":"75.69E"}
{"date":"2010-08-01","average_temperature":"23.178","city":"Sivas","latitude":"39.38N","longitude":"37.46E"}
{"date":"2012-10-01","average_temperature":"15.722000000000001","city":"Soka","latitude":"36.17N","longitude":"139.23E"}
{"date":"2013-07-01","average_temperature":"25.756","city":"Sokodé","latitude":"8.84N","longitude":"0.81E"}
{"date":"2012-10-01","average_temperature":"9.644","city":"Solingen","latitude":"50.63N","longitude":"6.34E"}
{"date":"2011-08-01","average_temperature":"30.075","city":"Sonipat","latitude":"28.13N","longitude":"77.27E"}
{"date":"2012-10-01","average_temperature":"26.354","city":"Sonipat","latitude":"28.13N","longitude":"77.27E"}
{"date":"2010-08-01","average_temperature":"25.756999999999998","city":"Soreang","latitude":"7.23S","longitude":"107.84E"}
{"date":"2012-01-01","average_temperature":"25.043000000000003","city":"Soreang","latitude":"7.23S","longitude":"107.84E"}
{"date":"2010-07-01","average_temperature":"21.101","city":"Sosnowiec","latitude":"50.63N","longitude":"19.01E"}
{"date":"2011-01-01","average_temperature":"26.201","city":"Soubré","latitude":"5.63N","longitude":"6.46W"}
{"date":"2010-06-01","average_temperature":"9.0","city":"Soweto","latitude":"26.52S","longitude":"28.66E"}
{"date":"2011-05-01","average_temperature":"27.002","city":"Soyapango","latitude":"13.66N","longitude":"88.35W"}
{"date":"2012-07-01","average_temperature":"28.166","city":"Spanish Town","latitude":"18.48N","longitude":"77.75W"}
{"date":"2010-02-01","average_temperature":"-1.456","city":"Stamford","latitude":"40.99N","longitude":"74.56W"}
{"date":"2013-09-01","city":"Stavropol","latitude":"44.20N","longitude":"42.48E"}
{"date":"2010-08-01","average_temperature":"15.242","city":"Stoke On Trent","latitude":"52.24N","longitude":"2.63W"}
{"date":"2011-04-01","average_temperature":"25.14","city":"Subang","latitude":"7.23S","longitude":"107.84E"}
{"date":"2010-04-01","average_temperature":"2.307","city":"Suihua","latitude":"47.42N","longitude":"126.71E"}
{"date":"2012-07-01","average_temperature":"26.214000000000002","city":"Sukabumi","latitude":"7.23S","longitude":"106.22E"}
{"date":"2010-10-01","average_temperature":"25.72","city":"Suleja","latitude":"8.84N","longitude":"7.30E"}
{"date":"2010-03-01","average_temperature":"27.05","city":"Sultanpur","latitude":"26.52N","longitude":"82.39E"}
{"date":"2011-06-01","average_temperature":"31.166","city":"Sultanpur","latitude":"26.52N","longitude":"82.39E"}
{"date":"2010-05-01","average_temperature":"18.67","city":"Sumaré","latitude":"23.31S","longitude":"48.06W"}
{"date":"2011-12-01","average_temperature":"27.403000000000002","city":"Sungai Petani","latitude":"5.63N","longitude":"100.09E"}
{"date":"2010-08-01","average_temperature":"18.781","city":"Sunnyvale","latitude":"37.78N","longitude":"122.03W"}
{"date":"2011-10-01","average_temperature":"18.612","city":"Sunrise Manor","latitude":"36.17N","longitude":"115.36W"}
{"date":"2013-02-01","average_temperature":"27.41","city":"Surat Thani","latitude":"8.84N","longitude":"99.73E"}
{"date":"2013-05-01","average_temperature":"34.889","city":"Suriapet","latitude":"16.87N","longitude":"80.37E"}
{"date":"2011-02-01","average_temperature":"6.5440000000000005","city":"Sutton Coldfield","latitude":"52.24N","longitude":"2.63W"}
{"date":"2010-07-01","average_temperature":"18.354","city":"Suzano","latitude":"23.31S","longitude":"46.31W"}
{"date":"2011-07-01","average_temperature":"26.44","city":"Suzuka","latitude":"34.56N","longitude":"136.22E"}
{"date":"2011-01-01","average_temperature":"6.006","city":"Swansea","latitude":"52.24N","longitude":"5.26W"}
{"date":"2011-11-01","average_temperature":"12.462","city":"Swansea","latitude":"52.24N","longitude":"5.26W"}
{"date":"2013-02-01","average_temperature":"1.245","city":"Székesfehérvár","latitude":"47.42N","longitude":"17.76E"}
{"date":"2012-12-01","average_temperature":"5.229","city":"Takatsuki","latitude":"34.56N","longitude":"136.22E"}
{"date":"2010-02-01","average_temperature":"29.078000000000003","city":"Takoradi","latitude":"5.63N","longitude":"1.61W"}
{"date":"2011-07-01","average_temperature":"25.288","city":"Tama","latitude":"36.17N","longitude":"139.23E"}
{"date":"2013-02-01","average_temperature":"18.104000000000006","city":"Tampa","latitude":"28.13N","longitude":"82.73W"}
{"date":"2012-02-01","average_temperature":"16.266000000000002","city":"Tando Adam","latitude":"26.52N","longitude":"68.06E"}
{"date":"2011-06-01","average_temperature":"26.673000000000002","city":"Tanete","latitude":"5.63S","longitude":"119.46E"}
{"date":"2011-09-01","average_temperature":"23.393","city":"Tangier","latitude":"36.17N","longitude":"5.97W"}
{"date":"2010-11-01","average_temperature":"26.805999999999997","city":"Tanjung Morawa","latitude":"4.02N","longitude":"98.84E"}
{"date":"2011-05-01","average_temperature":"23.305999999999997","city":"Taoyüan","latitude":"24.92N","longitude":"120.59E"}
{"date":"2012-07-01","average_temperature":"28.609","city":"Taoyüan","latitude":"24.92N","longitude":"120.59E"}
{"date":"2011-05-01","average_temperature":"18.296","city":"Taranto","latitude":"40.99N","longitude":"17.04E"}
{"date":"2010-09-01","average_temperature":"13.129000000000001","city":"Targu Mures","latitude":"45.81N","longitude":"24.23E"}
{"date":"2011-08-01","average_temperature":"22.886999999999997","city":"Tarsus","latitude":"37.78N","longitude":"34.58E"}
{"date":"2012-09-01","average_temperature":"20.365","city":"Tarsus","latitude":"37.78N","longitude":"34.58E"}
{"date":"2010-09-01","average_temperature":"25.455","city":"Tasikmalaya","latitude":"7.23S","longitude":"107.84E"}
{"date":"2011-11-01","average_temperature":"26.626","city":"Taytay","latitude":"15.27N","longitude":"120.83E"}
{"date":"2011-07-01","average_temperature":"28.261","city":"Tebingtinggi","latitude":"4.02N","longitude":"98.84E"}
{"date":"2010-10-01","average_temperature":"25.151","city":"Tel Aviv Yafo","latitude":"31.35N","longitude":"33.93E"}
{"date":"2013-05-01","average_temperature":"27.936","city":"Teluknaga","latitude":"5.63S","longitude":"106.55E"}
{"date":"2010-02-01","average_temperature":"-20.205","city":"Temirtau","latitude":"50.63N","longitude":"72.25E"}
{"date":"2010-03-01","average_temperature":"24.729","city":"Teresópolis","latitude":"21.70S","longitude":"42.40W"}
{"date":"2011-06-01","average_temperature":"29.323","city":"Termiz","latitude":"37.78N","longitude":"67.12E"}
{"date":"2010-10-01","average_temperature":"17.689999999999994","city":"Terrassa","latitude":"40.99N","longitude":"2.13E"}
{"date":"2010-05-01","average_temperature":"21.458","city":"Tianjin","latitude":"39.38N","longitude":"116.53E"}
{"date":"2012-08-01","average_temperature":"26.856","city":"Tiruppur","latitude":"10.45N","longitude":"77.73E"}
{"date":"2012-05-01","average_temperature":"24.256","city":"Tlaquepaque","latitude":"20.09N","longitude":"104.08W"}
{"date":"2011-09-01","average_temperature":"18.967","city":"Tokat","latitude":"40.99N","longitude":"36.21E"}
{"date":"2013-02-01","average_temperature":"2.046","city":"Tokyo","latitude":"36.17N","longitude":"139.23E"}
{"date":"2011-05-01","average_temperature":"18.11","city":"Tondabayashi","latitude":"34.56N","longitude":"136.22E"}
{"date":"2011-08-01","average_temperature":"28.697","city":"Tonk","latitude":"26.52N","longitude":"75.22E"}
{"date":"2011-05-01","average_temperature":"18.224","city":"Tottori","latitude":"34.56N","longitude":"134.27E"}
{"date":"2013-01-01","average_temperature":"17.108999999999998","city":"Touliu","latitude":"23.31N","longitude":"119.71E"}
{"date":"2012-06-01","average_temperature":"20.892","city":"Toyokawa","latitude":"34.56N","longitude":"138.16E"}
{"date":"2011-06-01","average_temperature":"17.470000000000002","city":"Trabzon","latitude":"40.99N","longitude":"40.47E"}
{"date":"2013-04-01","average_temperature":"9.775","city":"Trabzon","latitude":"40.99N","longitude":"40.47E"}
{"date":"2010-06-01","average_temperature":"18.895","city":"Trento","latitude":"45.81N","longitude":"10.38E"}
{"date":"2012-07-01","average_temperature":"31.795","city":"Trincomalee","latitude":"8.84N","longitude":"81.89E"}
{"date":"2012-12-01","average_temperature":"26.971999999999998","city":"Trincomalee","latitude":"8.84N","longitude":"81.89E"}
{"date":"2011-03-01","average_temperature":"13.597000000000001","city":"Tunis","latitude":"36.17N","longitude":"9.94E"}
{"date":"2011-08-01","average_temperature":"22.197000000000006","city":"Turhal","latitude":"40.99N","longitude":"36.21E"}
{"date":"2012-05-01","average_temperature":"16.887","city":"Turhal","latitude":"40.99N","longitude":"36.21E"}
{"date":"2012-09-01","average_temperature":"15.085","city":"Tychy","latitude":"50.63N","longitude":"19.01E"}
{"date":"2011-04-01","average_temperature":"11.175","city":"Ueda","latitude":"36.17N","longitude":"139.23E"}
{"date":"2013-02-01","average_temperature":"2.046","city":"Ueda","latitude":"36.17N","longitude":"139.23E"}
{"date":"2013-01-01","average_temperature":"-23.844","city":"Ulan Ude","latitude":"52.24N","longitude":"107.74E"}
{"date":"2012-12-01","average_temperature":"26.828000000000003","city":"Ulhasnagar","latitude":"18.48N","longitude":"72.68E"}
{"date":"2010-03-01","average_temperature":"-2.168","city":"Uppsala","latitude":"60.27N","longitude":"16.22E"}
{"date":"2010-08-01","average_temperature":"27.295","city":"Urayasu","latitude":"36.17N","longitude":"139.23E"}
{"date":"2010-05-01","average_temperature":"13.350999999999999","city":"Ussuriysk","latitude":"44.20N","longitude":"131.93E"}
{"date":"2013-04-01","average_temperature":"31.914","city":"Velluru","latitude":"12.05N","longitude":"78.90E"}
{"date":"2012-11-01","average_temperature":"10.908","city":"Vigo","latitude":"42.59N","longitude":"8.73W"}
{"date":"2013-04-01","average_temperature":"11.892999999999999","city":"Vigo","latitude":"42.59N","longitude":"8.73W"}
{"date":"2013-06-01","average_temperature":"21.06","city":"Villa Canales","latitude":"15.27N","longitude":"90.83W"}
{"date":"2010-06-01","average_temperature":"29.006999999999998","city":"Villahermosa","latitude":"18.48N","longitude":"92.96W"}
{"date":"2013-02-01","average_temperature":"4.75","city":"Vitoria","latitude":"42.59N","longitude":"2.18W"}
{"date":"2011-06-01","average_temperature":"28.769","city":"Vizianagaram","latitude":"18.48N","longitude":"82.82E"}
{"date":"2010-03-01","average_temperature":"2.207","city":"Volgodonsk","latitude":"47.42N","longitude":"41.45E"}
{"date":"2011-10-01","average_temperature":"18.117","city":"Vryheid","latitude":"28.13S","longitude":"30.00E"}
{"date":"2011-06-01","average_temperature":"28.590999999999998","city":"Vung Tau","latitude":"10.45N","longitude":"107.18E"}
{"date":"2011-09-01","average_temperature":"14.777999999999999","city":"Walsall","latitude":"52.24N","longitude":"2.63W"}
{"date":"2012-02-01","average_temperature":"25.153000000000002","city":"Wardha","latitude":"20.09N","longitude":"78.48E"}
{"date":"2013-04-01","average_temperature":"6.819","city":"Warren","latitude":"42.59N","longitude":"82.91W"}
{"date":"2011-05-01","average_temperature":"28.305999999999997","city":"Warri","latitude":"5.63N","longitude":"6.46E"}
{"date":"2013-02-01","average_temperature":"30.316000000000006","city":"Waw","latitude":"7.23N","longitude":"28.38E"}
{"date":"2012-12-01","average_temperature":"16.539","city":"Wellington","latitude":"40.99S","longitude":"174.67E"}
{"date":"2011-01-01","average_temperature":"3.263","city":"West Bromwich","latitude":"52.24N","longitude":"2.63W"}
{"date":"2013-01-01","average_temperature":"3.7110000000000003","city":"West Bromwich","latitude":"52.24N","longitude":"2.63W"}
{"date":"2012-01-01","average_temperature":"0.21499999999999986","city":"West Jordan","latitude":"40.99N","longitude":"112.90W"}
{"date":"2012-10-01","average_temperature":"11.338","city":"West Jordan","latitude":"40.99N","longitude":"112.90W"}
{"date":"2012-01-01","average_temperature":"5.2139999999999995","city":"Worcester","latitude":"52.24N","longitude":"2.63W"}
{"date":"2010-01-01","average_temperature":"13.921","city":"Wuzhou","latitude":"23.31N","longitude":"110.97E"}
{"date":"2011-09-01","average_temperature":"26.184","city":"Xiamen","latitude":"24.92N","longitude":"118.82E"}
{"date":"2012-12-01","average_temperature":"-0.8220000000000001","city":"Xian","latitude":"34.56N","longitude":"108.97E"}
{"date":"2012-04-01","average_temperature":"18.209","city":"Xiantao","latitude":"29.74N","longitude":"112.62E"}
{"date":"2010-02-01","average_temperature":"13.489","city":"Xingyi","latitude":"24.92N","longitude":"104.63E"}
{"date":"2011-08-01","average_temperature":"22.034000000000002","city":"Xingyi","latitude":"24.92N","longitude":"104.63E"}
{"date":"2012-08-01","average_temperature":"23.81","city":"Yaan","latitude":"29.74N","longitude":"103.38E"}
{"date":"2011-06-01","average_temperature":"30.605999999999998","city":"Yamunanagar","latitude":"29.74N","longitude":"77.54E"}
{"date":"2010-01-01","average_temperature":"-3.5250000000000004","city":"Yanan","latitude":"36.17N","longitude":"109.39E"}
{"date":"2012-09-01","average_temperature":"14.772","city":"Yanan","latitude":"36.17N","longitude":"109.39E"}
{"date":"2011-08-01","average_temperature":"26.747","city":"Yancheng","latitude":"32.95N","longitude":"119.68E"}
{"date":"2011-07-01","average_temperature":"22.263","city":"Yantai","latitude":"37.78N","longitude":"122.03E"}
{"date":"2010-12-01","average_temperature":"7.057","city":"Yingcheng","latitude":"31.35N","longitude":"113.09E"}
{"date":"2011-11-01","average_temperature":"-1.1940000000000002","city":"Yining","latitude":"44.20N","longitude":"80.50E"}
{"date":"2013-04-01","average_temperature":"16.624000000000002","city":"Yiyang","latitude":"28.13N","longitude":"111.82E"}
{"date":"2010-01-01","average_temperature":"4.64","city":"Yonago","latitude":"36.17N","longitude":"133.26E"}
{"date":"2011-11-01","average_temperature":"8.651","city":"York","latitude":"53.84N","longitude":"1.36W"}
{"date":"2012-03-01","average_temperature":"6.042999999999999","city":"Yuncheng","latitude":"34.56N","longitude":"110.92E"}
{"date":"2013-06-01","average_temperature":"15.043","city":"Zaanstad","latitude":"52.24N","longitude":"5.26E"}
{"date":"2012-05-01","average_temperature":"15.149000000000001","city":"Zagreb","latitude":"45.81N","longitude":"15.00E"}
{"date":"2013-04-01","average_temperature":"11.31","city":"Zama","latitude":"36.17N","longitude":"139.23E"}
{"date":"2013-08-01","average_temperature":"20.423","city":"Zamora","latitude":"20.09N","longitude":"102.37W"}
{"date":"2012-08-01","average_temperature":"24.798000000000002","city":"Zanjan","latitude":"36.17N","longitude":"47.73E"}
{"date":"2010-09-01","average_temperature":"22.764","city":"Zaozhuang","latitude":"34.56N","longitude":"116.76E"}
{"date":"2013-06-01","average_temperature":"22.314","city":"Zaporizhzhya","latitude":"47.42N","longitude":"34.34E"}
{"date":"2011-09-01","average_temperature":"23.062","city":"Zaragoza","latitude":"40.99N","longitude":"0.00W"}
{"date":"2012-08-01","average_temperature":"24.947","city":"Zhaocheng","latitude":"37.78N","longitude":"120.00E"}
{"date":"2013-08-01","average_temperature":"28.700000000000006","city":"Zhaoqing","latitude":"23.31N","longitude":"112.72E"}
{"date":"2010-12-01","average_temperature":"5.649","city":"Zhaotong","latitude":"26.52N","longitude":"103.88E"}
{"date":"2013-01-01","average_temperature":"1.5119999999999998","city":"Zhenjiang","latitude":"32.95N","longitude":"119.68E"}
{"date":"2012-05-01","average_temperature":"22.84","city":"Zhoucun","latitude":"36.17N","longitude":"117.35E"}
{"date":"2011-04-01","average_temperature":"5.729","city":"Zhukovskiy","latitude":"55.45N","longitude":"36.85E"}
{"date":"2011-04-01","average_temperature":"9.067","city":"Zhytomyr","latitude":"50.63N","longitude":"29.15E"}
{"date":"2013-07-01","average_temperature":"18.658","city":"Zurich","latitude":"47.42N","longitude":"8.29E"}
