{"date":"2012-12-01","average_temperature":"10.247","city":"A Coruña","latitude":"42.59N","longitude":"8.73W"}
{"date":"2013-08-01","average_temperature":"16.605","city":"Abbotsford","latitude":"49.03N","longitude":"122.45W"}
{"date":"2010-02-01","average_temperature":"29.261999999999997","city":"Abidjan","latitude":"5.63N","longitude":"3.23W"}
{"date":"2011-12-01","average_temperature":"3.25","city":"Abiko","latitude":"36.17N","longitude":"139.23E"}
{"date":"2010-08-01","average_temperature":"25.674","city":"Accra","latitude":"5.63N","longitude":"0.00W"}
{"date":"2011-04-01","average_temperature":"28.590000000000003","city":"Accra","latitude":"5.63N","longitude":"0.00W"}
{"date":"2011-05-01","average_temperature":"27.999","city":"Accra","latitude":"5.63N","longitude":"0.00W"}
{"date":"2011-12-01","average_temperature":"27.525","city":"Accra","latitude":"5.63N","longitude":"0.00W"}
{"date":"2012-01-01","average_temperature":"10.468","city":"Acuña","latitude":"29.74N","longitude":"101.54W"}
{"date":"2010-03-01","average_temperature":"16.407","city":"Adana","latitude":"36.17N","longitude":"35.80E"}
{"date":"2012-08-01","average_temperature":"29.232","city":"Aden","latitude":"13.66N","longitude":"45.41E"}
{"date":"2011-06-01","average_temperature":"29.563000000000002","city":"Adoni","latitude":"15.27N","longitude":"77.50E"}
{"date":"2013-03-01","average_temperature":"24.366","city":"Agra","latitude":"26.52N","longitude":"78.81E"}
{"date":"2013-05-01","average_temperature":"31.024","city":"Ahmadnagar","latitude":"18.48N","longitude":"74.37E"}
{"date":"2011-12-01","average_temperature":"17.551000000000002","city":"Aizawl","latitude":"23.31N","longitude":"93.50E"}
{"date":"2012-04-01","average_temperature":"25.703000000000003","city":"Aizawl","latitude":"23.31N","longitude":"93.50E"}
{"date":"2011-08-01","average_temperature":"22.886999999999997","city":"Aksaray","latitude":"37.78N","longitude":"34.58E"}
{"date":"2012-10-01","average_temperature":"14.749","city":"Aktau","latitude":"44.20N","longitude":"51.43E"}
{"date":"2013-05-01","average_temperature":"26.542","city":"Akure","latitude":"7.23N","longitude":"5.68E"}
{"date":"2012-08-01","average_temperature":"12.859000000000002","city":"Alberton","latitude":"26.52S","longitude":"28.66E"}
{"date":"2010-07-01","average_temperature":"27.379","city":"Alexandria","latitude":"31.35N","longitude":"30.16E"}
{"date":"2012-08-01","average_temperature":"28.613000000000003","city":"Alexandria","latitude":"31.35N","longitude":"30.16E"}
{"date":"2012-10-01","average_temperature":"26.354","city":"Aligarh","latitude":"28.13N","longitude":"77.27E"}
{"date":"2013-01-01","average_temperature":"-18.378","city":"Altay","latitude":"47.42N","longitude":"88.82E"}
{"date":"2012-06-01","average_temperature":"21.401","city":"Amagasaki","latitude":"34.56N","longitude":"136.22E"}
{"date":"2010-01-01","average_temperature":"2.806","city":"Amarillo","latitude":"34.56N","longitude":"101.19W"}
{"date":"2010-03-01","average_temperature":"9.607999999999999","city":"Amarillo","latitude":"34.56N","longitude":"101.19W"}
{"date":"2011-06-01","average_temperature":"30.605999999999998","city":"Ambala","latitude":"29.74N","longitude":"77.54E"}
{"date":"2011-04-01","average_temperature":"27.715999999999998","city":"Ambarnath","latitude":"18.48N","longitude":"72.68E"}
{"date":"2013-03-01","average_temperature":"26.301","city":"Ambarnath","latitude":"18.48N","longitude":"72.68E"}
{"date":"2013-08-01","average_temperature":"26.953000000000003","city":"Ambarnath","latitude":"18.48N","longitude":"72.68E"}
{"date":"2012-09-01","average_temperature":"17.494","city":"Ambato","latitude":"0.80S","longitude":"77.95W"}
{"date":"2013-09-01","city":"Americana","latitude":"23.31S","longitude":"48.06W"}
{"date":"2011-01-01","average_temperature":"2.9339999999999997","city":"Amersfoort","latitude":"52.24N","longitude":"5.26E"}
{"date":"2011-04-01","average_temperature":"13.198","city":"Amol","latitude":"36.17N","longitude":"51.71E"}
{"date":"2012-01-01","average_temperature":"3.137","city":"Amol","latitude":"36.17N","longitude":"51.71E"}
{"date":"2012-02-01","average_temperature":"17.875999999999994","city":"Amroha","latitude":"28.13N","longitude":"79.09E"}
{"date":"2011-07-01","average_temperature":"11.611","city":"Anchorage","latitude":"61.88N","longitude":"151.13W"}
{"date":"2011-02-01","average_temperature":"-15.741","city":"Angarsk","latitude":"52.24N","longitude":"105.11E"}
{"date":"2011-05-01","average_temperature":"16.076999999999998","city":"Angers","latitude":"47.42N","longitude":"1.18W"}
{"date":"2010-08-01","average_temperature":"23.634","city":"Ann Arbor","latitude":"42.59N","longitude":"82.91W"}
{"date":"2010-11-01","average_temperature":"4.738","city":"Ann Arbor","latitude":"42.59N","longitude":"82.91W"}
{"date":"2012-09-01","average_temperature":"20.938","city":"Anqiu","latitude":"36.17N","longitude":"119.34E"}
{"date":"2012-09-01","average_temperature":"20.725","city":"Antalya","latitude":"37.78N","longitude":"30.51E"}
{"date":"2012-04-01","average_temperature":"21.125999999999998","city":"Antsirabe","latitude":"20.09S","longitude":"47.77E"}
{"date":"2010-08-01","average_temperature":"20.201","city":"Apucarana","latitude":"23.31S","longitude":"51.55W"}
{"date":"2011-10-01","average_temperature":"6.081","city":"Aqtöbe","latitude":"50.63N","longitude":"57.04E"}
{"date":"2012-03-01","average_temperature":"26.238000000000003","city":"Araçatuba","latitude":"21.70S","longitude":"51.06W"}
{"date":"2011-12-01","average_temperature":"21.559","city":"Armenia","latitude":"4.02N","longitude":"76.34W"}
{"date":"2011-10-01","average_temperature":"3.7910000000000004","city":"Arvada","latitude":"39.38N","longitude":"106.13W"}
{"date":"2013-02-01","average_temperature":"10.755","city":"Aryanah","latitude":"36.17N","longitude":"9.94E"}
{"date":"2010-02-01","average_temperature":"-6.777000000000001","city":"Asahikawa","latitude":"44.20N","longitude":"143.11E"}
{"date":"2010-09-01","average_temperature":"22.414","city":"Asaka","latitude":"36.17N","longitude":"139.23E"}
{"date":"2013-01-01","average_temperature":"14.181","city":"Ashdod","latitude":"31.35N","longitude":"33.93E"}
{"date":"2012-06-01","average_temperature":"24.653","city":"Ashqelon","latitude":"31.35N","longitude":"33.93E"}
{"date":"2012-09-01","average_temperature":"20.464000000000002","city":"Atibaia","latitude":"23.31S","longitude":"46.31W"}
{"date":"2013-04-01","average_temperature":"20.864","city":"Awassa","latitude":"7.23N","longitude":"38.11E"}
{"date":"2013-06-01","average_temperature":"19.692999999999998","city":"Awassa","latitude":"7.23N","longitude":"38.11E"}
{"date":"2010-05-01","average_temperature":"30.295","city":"Bac Lieu","latitude":"8.84N","longitude":"106.22E"}
{"date":"2011-11-01","average_temperature":"1.164","city":"Bacau","latitude":"45.81N","longitude":"26.54E"}
{"date":"2011-02-01","average_temperature":"26.997","city":"Bacolod","latitude":"10.45N","longitude":"123.55E"}
{"date":"2011-02-01","average_temperature":"24.2","city":"Baguio","latitude":"16.87N","longitude":"120.56E"}
{"date":"2011-05-01","average_temperature":"21.257","city":"Bahir Dar","latitude":"12.05N","longitude":"37.81E"}
{"date":"2012-05-01","average_temperature":"16.477999999999998","city":"Baia Mare","latitude":"47.42N","longitude":"22.50E"}
{"date":"2011-12-01","average_temperature":"-7.191","city":"Baiyin","latitude":"36.17N","longitude":"103.43E"}
{"date":"2010-03-01","average_temperature":"-4.737","city":"Balakovo","latitude":"52.24N","longitude":"47.30E"}
{"date":"2012-03-01","average_temperature":"28.314","city":"Baleshwar","latitude":"21.70N","longitude":"87.40E"}
{"date":"2012-10-01","average_temperature":"25.633000000000003","city":"Ballia","latitude":"26.52N","longitude":"84.18E"}
{"date":"2013-06-01","average_temperature":"30.469","city":"Balurghat","latitude":"24.92N","longitude":"88.67E"}
{"date":"2012-10-01","average_temperature":"26.87","city":"Banda Aceh","latitude":"5.63N","longitude":"95.25E"}
{"date":"2011-11-01","average_temperature":"23.964000000000002","city":"Bangalore","latitude":"12.05N","longitude":"77.26E"}
{"date":"2010-04-01","average_temperature":"31.086","city":"Bangkok","latitude":"13.66N","longitude":"99.91E"}
{"date":"2012-05-01","average_temperature":"14.19","city":"Banja Luka","latitude":"44.20N","longitude":"17.89E"}
{"date":"2010-09-01","average_temperature":"28.349","city":"Bankura","latitude":"23.31N","longitude":"86.50E"}
{"date":"2012-04-01","average_temperature":"27.628","city":"Banyuwangi","latitude":"8.84S","longitude":"114.32E"}
{"date":"2012-05-01","average_temperature":"27.169","city":"Banyuwangi","latitude":"8.84S","longitude":"114.32E"}
{"date":"2013-05-01","average_temperature":"30.884","city":"Baripada","latitude":"21.70N","longitude":"87.40E"}
{"date":"2010-01-01","average_temperature":"15.957","city":"Bat Yam","latitude":"31.35N","longitude":"33.93E"}
{"date":"2013-07-01","average_temperature":"25.345","city":"Bat Yam","latitude":"31.35N","longitude":"33.93E"}
{"date":"2012-04-01","average_temperature":"27.809","city":"Batangas","latitude":"13.66N","longitude":"121.38E"}
{"date":"2010-05-01","average_temperature":"18.414","city":"Bataysk","latitude":"47.42N","longitude":"39.08E"}
{"date":"2010-09-01","average_temperature":"19.237","city":"Bello","latitude":"5.63N","longitude":"75.87W"}
{"date":"2012-03-01","average_temperature":"8.776","city":"Bengbu","latitude":"32.95N","longitude":"117.77E"}
{"date":"2010-07-01","average_temperature":"26.358","city":"Beppu","latitude":"32.95N","longitude":"131.17E"}
{"date":"2011-07-01","average_temperature":"34.137","city":"Berbera","latitude":"10.45N","longitude":"45.00E"}
{"date":"2010-04-01","average_temperature":"5.416","city":"Berezniki","latitude":"58.66N","longitude":"55.38E"}
{"date":"2011-03-01","average_temperature":"11.886","city":"Berkeley","latitude":"37.78N","longitude":"122.03W"}
{"date":"2012-07-01","average_temperature":"29.535999999999998","city":"Bettiah","latitude":"26.52N","longitude":"84.18E"}
{"date":"2010-10-01","average_temperature":"27.288","city":"Bhairab Bazar","latitude":"24.92N","longitude":"90.44E"}
{"date":"2012-06-01","average_temperature":"31.959","city":"Bhatpara","latitude":"23.31N","longitude":"88.25E"}
{"date":"2010-07-01","average_temperature":"29.097","city":"Bhilwara","latitude":"24.92N","longitude":"74.48E"}
{"date":"2011-09-01","average_temperature":"29.011","city":"Bhind","latitude":"26.52N","longitude":"78.81E"}
{"date":"2011-03-01","average_temperature":"28.695","city":"Bhubaneswar","latitude":"20.09N","longitude":"85.31E"}
{"date":"2011-10-01","average_temperature":"27.424","city":"Bhubaneswar","latitude":"20.09N","longitude":"85.31E"}
{"date":"2011-09-01","average_temperature":"27.995","city":"Biên Hòa","latitude":"10.45N","longitude":"107.18E"}
{"date":"2011-02-01","average_temperature":"-6.76","city":"Bialystok","latitude":"53.84N","longitude":"23.18E"}
{"date":"2012-03-01","average_temperature":"2.5250000000000004","city":"Bialystok","latitude":"53.84N","longitude":"23.18E"}
{"date":"2013-08-01","average_temperature":"18.192999999999998","city":"Bialystok","latitude":"53.84N","longitude":"23.18E"}
{"date":"2011-08-01","average_temperature":"26.779","city":"Bidar","latitude":"18.48N","longitude":"77.75E"}
{"date":"2011-03-01","average_temperature":"28.729","city":"Bijapur","latitude":"16.87N","longitude":"75.35E"}
{"date":"2012-12-01","average_temperature":"23.857","city":"Bijapur","latitude":"16.87N","longitude":"75.35E"}
{"date":"2010-05-01","average_temperature":"16.064","city":"Bila Tserkva","latitude":"49.03N","longitude":"29.39E"}
{"date":"2012-10-01","average_temperature":"25.83","city":"Bilaspur","latitude":"21.70N","longitude":"82.21E"}
{"date":"2011-02-01","average_temperature":"6.799","city":"Bilbao","latitude":"42.59N","longitude":"2.18W"}
{"date":"2013-06-01","average_temperature":"28.552","city":"Binangonan","latitude":"13.66N","longitude":"121.38E"}
{"date":"2013-08-01","average_temperature":"24.642000000000003","city":"Birnin Kebbi","latitude":"12.05N","longitude":"4.93E"}
{"date":"2012-11-01","average_temperature":"26.814","city":"Bitung","latitude":"0.80N","longitude":"124.55E"}
{"date":"2013-09-01","city":"Biysk","latitude":"52.24N","longitude":"84.09E"}
{"date":"2012-12-01","average_temperature":"26.554000000000002","city":"Bogor","latitude":"7.23S","longitude":"106.22E"}
{"date":"2010-02-01","average_temperature":"3.07","city":"Borujerd","latitude":"34.56N","longitude":"48.65E"}
{"date":"2012-07-01","average_temperature":"29.618000000000002","city":"Botad","latitude":"21.70N","longitude":"71.83E"}
{"date":"2013-03-01","average_temperature":"1.056","city":"Bottrop","latitude":"52.24N","longitude":"7.88E"}
{"date":"2010-07-01","average_temperature":"20.909000000000002","city":"Boulogne Billancourt","latitude":"49.03N","longitude":"2.45E"}
{"date":"2013-03-01","average_temperature":"4.213","city":"Bournemouth","latitude":"50.63N","longitude":"1.27W"}
{"date":"2010-11-01","average_temperature":"11.976","city":"Bozhou","latitude":"32.95N","longitude":"115.85E"}
{"date":"2011-10-01","average_temperature":"16.956","city":"Bozhou","latitude":"32.95N","longitude":"115.85E"}
{"date":"2011-01-01","average_temperature":"-2.155","city":"Brest","latitude":"52.24N","longitude":"23.65E"}
{"date":"2012-11-01","average_temperature":"5.7570000000000014","city":"Brunswick","latitude":"52.24N","longitude":"10.51E"}
{"date":"2012-05-01","average_temperature":"28.621","city":"Bukit Mertajam","latitude":"5.63N","longitude":"100.09E"}
{"date":"2011-06-01","average_temperature":"27.416","city":"Bulaon","latitude":"15.27N","longitude":"120.83E"}
{"date":"2011-05-01","average_temperature":"17.934","city":"Bulawayo","latitude":"20.09S","longitude":"29.00E"}
{"date":"2012-09-01","average_temperature":"21.142","city":"Bulawayo","latitude":"20.09S","longitude":"29.00E"}
{"date":"2013-05-01","average_temperature":"30.59","city":"Buraydah","latitude":"26.52N","longitude":"44.78E"}
{"date":"2010-08-01","average_temperature":"23.545","city":"Burbank","latitude":"34.56N","longitude":"118.70W"}
{"date":"2010-12-01","average_temperature":"10.237","city":"Burbank","latitude":"34.56N","longitude":"118.70W"}
{"date":"2010-08-01","average_temperature":"20.39","city":"Burgos","latitude":"42.59N","longitude":"4.36W"}
{"date":"2012-01-01","average_temperature":"3.852","city":"Burgos","latitude":"42.59N","longitude":"4.36W"}
{"date":"2012-07-01","average_temperature":"25.947","city":"Cúa","latitude":"10.45N","longitude":"66.27W"}
{"date":"2011-11-01","average_temperature":"25.039","city":"Cairns","latitude":"16.87S","longitude":"145.67E"}
{"date":"2012-07-01","average_temperature":"27.489","city":"Calamba","latitude":"13.66N","longitude":"121.38E"}
{"date":"2012-01-01","average_temperature":"27.221","city":"Camaçari","latitude":"12.05S","longitude":"37.81W"}
{"date":"2010-02-01","average_temperature":"22.899","city":"Camagüey","latitude":"21.70N","longitude":"78.75W"}
{"date":"2013-05-01","average_temperature":"14.309","city":"Cambridge","latitude":"42.59N","longitude":"72.00W"}
{"date":"2012-03-01","average_temperature":"26.561999999999998","city":"Campina Grande","latitude":"7.23S","longitude":"36.49W"}
{"date":"2010-01-01","average_temperature":"20.51","city":"Canberra","latitude":"36.17S","longitude":"149.17E"}
{"date":"2012-11-01","average_temperature":"21.059","city":"Cape Coral","latitude":"26.52N","longitude":"82.39W"}
{"date":"2013-08-01","average_temperature":"23.851999999999997","city":"Cary","latitude":"36.17N","longitude":"79.56W"}
{"date":"2010-04-01","average_temperature":"23.378","city":"Catanduva","latitude":"21.70S","longitude":"49.33W"}
{"date":"2010-12-01","average_temperature":"25.275","city":"Catia La Mar","latitude":"10.45N","longitude":"66.27W"}
{"date":"2010-09-01","average_temperature":"28.392","city":"Caucaia","latitude":"4.02S","longitude":"39.38W"}
{"date":"2012-10-01","average_temperature":"28.654","city":"Caucaia","latitude":"4.02S","longitude":"39.38W"}
{"date":"2012-09-01","average_temperature":"17.374000000000002","city":"Chalco","latitude":"20.09N","longitude":"98.96W"}
{"date":"2012-10-01","average_temperature":"25.875","city":"Chandausi","latitude":"28.13N","longitude":"79.09E"}
{"date":"2011-10-01","average_temperature":"17.494","city":"Changde","latitude":"28.13N","longitude":"111.82E"}
{"date":"2013-04-01","average_temperature":"15.526","city":"Chaohu","latitude":"31.35N","longitude":"118.74E"}
{"date":"2010-12-01","average_temperature":"6.832999999999998","city":"Charleston","latitude":"32.95N","longitude":"79.47W"}
{"date":"2011-06-01","average_temperature":"28.285","city":"Chenghai","latitude":"23.31N","longitude":"116.21E"}
{"date":"2011-09-01","average_temperature":"27.291","city":"Chenghai","latitude":"23.31N","longitude":"116.21E"}
{"date":"2012-12-01","average_temperature":"11.318","city":"Chesapeake","latitude":"36.17N","longitude":"75.58W"}
{"date":"2010-01-01","average_temperature":"21.272","city":"Chimbote","latitude":"8.84S","longitude":"78.65W"}
{"date":"2012-06-01","average_temperature":"17.366999999999994","city":"Chingola","latitude":"12.05S","longitude":"27.95E"}
{"date":"2013-04-01","average_temperature":"29.272","city":"Churu","latitude":"28.13N","longitude":"75.45E"}
{"date":"2010-05-01","average_temperature":"26.193","city":"Cianjur","latitude":"7.23S","longitude":"107.84E"}
{"date":"2012-11-01","average_temperature":"26.804","city":"Cibadak","latitude":"7.23S","longitude":"106.22E"}
{"date":"2010-08-01","average_temperature":"25.756999999999998","city":"Cicalengka","latitude":"7.23S","longitude":"107.84E"}
{"date":"2013-06-01","average_temperature":"25.64","city":"Cicalengka","latitude":"7.23S","longitude":"107.84E"}
{"date":"2010-03-01","average_temperature":"27.899","city":"Cikarang","latitude":"5.63S","longitude":"106.55E"}
{"date":"2010-02-01","average_temperature":"27.568","city":"Cileungsi","latitude":"5.63S","longitude":"106.55E"}
{"date":"2011-03-01","average_temperature":"26.47","city":"Cisaat","latitude":"7.23S","longitude":"106.22E"}
{"date":"2012-06-01","average_temperature":"26.03","city":"Ciudad Guayana","latitude":"8.84N","longitude":"62.43W"}
{"date":"2010-10-01","average_temperature":"15.023","city":"Coimbra","latitude":"40.99N","longitude":"8.52W"}
{"date":"2011-03-01","average_temperature":"24.866999999999997","city":"Colatina","latitude":"20.09S","longitude":"40.95W"}
{"date":"2012-07-01","average_temperature":"16.487000000000002","city":"Colchester","latitude":"52.24N","longitude":"0.00W"}
{"date":"2012-06-01","average_temperature":"27.586","city":"Colombo","latitude":"7.23N","longitude":"80.27E"}
{"date":"2010-04-01","average_temperature":"18.754","city":"Concordia","latitude":"31.35S","longitude":"58.43W"}
{"date":"2012-09-01","average_temperature":"20.423","city":"Constanta","latitude":"44.20N","longitude":"29.07E"}
{"date":"2012-09-01","average_temperature":"14.088","city":"Coquimbo","latitude":"29.74S","longitude":"72.00W"}
{"date":"2011-09-01","average_temperature":"28.038","city":"Coral Springs","latitude":"26.52N","longitude":"80.60W"}
{"date":"2010-02-01","average_temperature":"23.449","city":"Cordoba","latitude":"31.35S","longitude":"64.08W"}
{"date":"2012-03-01","average_temperature":"26.928","city":"Cotabato","latitude":"7.23N","longitude":"124.05E"}
{"date":"2013-05-01","average_temperature":"27.936","city":"Cotabato","latitude":"7.23N","longitude":"124.05E"}
{"date":"2011-04-01","average_temperature":"12.669","city":"Cottbus","latitude":"52.24N","longitude":"13.14E"}
{"date":"2013-05-01","average_temperature":"10.489999999999998","city":"Coventry","latitude":"52.24N","longitude":"2.63W"}
{"date":"2011-09-01","average_temperature":"15.770999999999999","city":"Cracow","latitude":"50.63N","longitude":"19.01E"}
{"date":"2012-07-01","average_temperature":"15.515","city":"Crawley","latitude":"50.63N","longitude":"1.27W"}
{"date":"2013-04-01","average_temperature":"33.116","city":"Cuddapah","latitude":"15.27N","longitude":"79.17E"}
{"date":"2013-02-01","average_temperature":"22.337","city":"Cuenca","latitude":"2.41S","longitude":"79.55W"}
{"date":"2013-08-01","average_temperature":"29.684","city":"Culiacán","latitude":"24.92N","longitude":"108.18W"}
{"date":"2012-06-01","average_temperature":"17.298000000000002","city":"Czestochowa","latitude":"50.63N","longitude":"19.01E"}
{"date":"2013-07-01","average_temperature":"28.88","city":"Daan","latitude":"29.74N","longitude":"105.23E"}
{"date":"2012-03-01","average_temperature":"23.93","city":"Dadu","latitude":"26.52N","longitude":"68.06E"}
{"date":"2012-10-01","average_temperature":"14.048","city":"Dalian","latitude":"39.38N","longitude":"120.69E"}
{"date":"2010-11-01","average_temperature":"27.114","city":"Dar Es Salaam","latitude":"7.23S","longitude":"39.73E"}
{"date":"2010-02-01","average_temperature":"18.901","city":"Darbhanga","latitude":"26.52N","longitude":"85.97E"}
{"date":"2011-07-01","average_temperature":"26.351999999999997","city":"Darjiling","latitude":"26.52N","longitude":"87.76E"}
{"date":"2011-09-01","average_temperature":"28.441999999999997","city":"Daska","latitude":"32.95N","longitude":"73.72E"}
{"date":"2010-05-01","average_temperature":"20.673","city":"Daxian","latitude":"31.35N","longitude":"107.43E"}
{"date":"2013-05-01","average_temperature":"34.333","city":"Dehri","latitude":"24.92N","longitude":"83.35E"}
{"date":"2010-04-01","average_temperature":"27.281999999999996","city":"Denpasar","latitude":"8.84S","longitude":"115.95E"}
{"date":"2012-02-01","average_temperature":"14.231","city":"Dera Ismail Khan","latitude":"31.35N","longitude":"71.62E"}
{"date":"2012-11-01","average_temperature":"5.944","city":"Des Moines","latitude":"40.99N","longitude":"93.73W"}
{"date":"2012-01-01","average_temperature":"24.566","city":"Dharmavaram","latitude":"15.27N","longitude":"77.50E"}
{"date":"2013-08-01","average_temperature":"25.783","city":"Digos","latitude":"7.23N","longitude":"125.68E"}
{"date":"2010-06-01","average_temperature":"17.078","city":"Dijon","latitude":"47.42N","longitude":"5.92E"}
{"date":"2012-08-01","average_temperature":"28.679000000000002","city":"Diourbel","latitude":"15.27N","longitude":"15.83W"}
{"date":"2011-02-01","average_temperature":"2.943","city":"Dortmund","latitude":"52.24N","longitude":"7.88E"}
{"date":"2010-04-01","average_temperature":"27.103","city":"Douala","latitude":"4.02N","longitude":"10.45E"}
{"date":"2011-09-01","average_temperature":"24.143","city":"Dourados","latitude":"21.70S","longitude":"54.52W"}
{"date":"2012-04-01","average_temperature":"7.034","city":"Dudley","latitude":"52.24N","longitude":"2.63W"}
{"date":"2012-01-01","average_temperature":"3.466","city":"Duisburg","latitude":"50.63N","longitude":"6.34E"}
{"date":"2012-09-01","average_temperature":"29.653000000000002","city":"Dum Dum","latitude":"23.31N","longitude":"88.25E"}
{"date":"2011-11-01","average_temperature":"10.046","city":"Dunedin","latitude":"45.81S","longitude":"169.62E"}
{"date":"2012-02-01","average_temperature":"-13.695","city":"Dzerzhinsk","latitude":"57.05N","longitude":"42.79E"}
{"date":"2013-07-01","average_temperature":"19.12","city":"Dzerzhinsk","latitude":"57.05N","longitude":"42.79E"}
{"date":"2012-11-01","average_temperature":"13.902999999999999","city":"East Los Angeles","latitude":"34.56N","longitude":"118.70W"}
{"date":"2011-08-01","average_temperature":"21.531999999999996","city":"Ebetsu","latitude":"42.59N","longitude":"141.82E"}
{"date":"2011-09-01","average_temperature":"25.77","city":"Ede","latitude":"7.23N","longitude":"4.05E"}
{"date":"2012-05-01","average_temperature":"10.133","city":"Edinburgh","latitude":"55.45N","longitude":"2.83W"}
{"date":"2013-05-01","average_temperature":"11.888","city":"Ekibastuz","latitude":"52.24N","longitude":"76.20E"}
{"date":"2013-01-01","average_temperature":"15.23","city":"El Mahalla El Kubra","latitude":"31.35N","longitude":"32.04E"}
{"date":"2010-10-01","average_temperature":"15.869000000000002","city":"Elbasan","latitude":"40.99N","longitude":"19.17E"}
{"date":"2012-05-01","average_temperature":"21.023000000000003","city":"Eldoret","latitude":"0.80N","longitude":"34.55E"}
{"date":"2010-08-01","average_temperature":"22.116999999999997","city":"Elektrostal","latitude":"55.45N","longitude":"39.69E"}
{"date":"2013-02-01","average_temperature":"0.5299999999999994","city":"Elista","latitude":"45.81N","longitude":"45.00E"}
{"date":"2010-04-01","average_temperature":"20.855","city":"Embu","latitude":"23.31S","longitude":"46.31W"}
{"date":"2013-06-01","average_temperature":"28.014","city":"Encheng","latitude":"21.70N","longitude":"111.63E"}
{"date":"2012-05-01","average_temperature":"27.48","city":"Enugu","latitude":"7.23N","longitude":"7.30E"}
{"date":"2013-06-01","average_temperature":"20.36","city":"Envigado","latitude":"5.63N","longitude":"75.87W"}
{"date":"2012-12-01","average_temperature":"13.530999999999999","city":"Escondido","latitude":"32.95N","longitude":"117.77W"}
{"date":"2010-07-01","average_temperature":"21.064","city":"Escuintla","latitude":"15.27N","longitude":"90.83W"}
{"date":"2013-01-01","average_temperature":"18.072","city":"Escuintla","latitude":"15.27N","longitude":"90.83W"}
{"date":"2012-05-01","average_temperature":"16.555","city":"Fairfield","latitude":"37.78N","longitude":"122.03W"}
{"date":"2013-09-01","city":"Faisalabad","latitude":"31.35N","longitude":"73.51E"}
{"date":"2010-04-01","average_temperature":"22.909000000000002","city":"Fianarantsoa","latitude":"21.70S","longitude":"47.60E"}
{"date":"2010-09-01","average_temperature":"21.107000000000006","city":"Fianarantsoa","latitude":"21.70S","longitude":"47.60E"}
{"date":"2010-01-01","average_temperature":"13.779000000000002","city":"Firozabad","latitude":"26.52N","longitude":"78.81E"}
{"date":"2011-07-01","average_temperature":"23.16","city":"Fort Collins","latitude":"40.99N","longitude":"104.38W"}
{"date":"2011-12-01","average_temperature":"1.8040000000000005","city":"Fort Wayne","latitude":"40.99N","longitude":"85.21W"}
{"date":"2012-06-01","average_temperature":"17.576","city":"Foz Do Iguaçu","latitude":"24.92S","longitude":"54.98W"}
{"date":"2011-02-01","average_temperature":"13.442","city":"Fresnillo","latitude":"23.31N","longitude":"102.23W"}
{"date":"2011-12-01","average_temperature":"6.399","city":"Fukuyama","latitude":"34.56N","longitude":"134.27E"}
{"date":"2011-08-01","average_temperature":"25.201999999999998","city":"Funabashi","latitude":"36.17N","longitude":"139.23E"}
{"date":"2013-09-01","city":"Fuyang","latitude":"32.95N","longitude":"115.85E"}
{"date":"2013-08-01","average_temperature":"18.346","city":"Göttingen","latitude":"52.24N","longitude":"10.51E"}
{"date":"2011-06-01","average_temperature":"33.056999999999995","city":"Gangapur","latitude":"26.52N","longitude":"77.01E"}
{"date":"2012-01-01","average_temperature":"14.45","city":"Gangapur","latitude":"26.52N","longitude":"77.01E"}
{"date":"2013-09-01","city":"Gardez","latitude":"32.95N","longitude":"69.89E"}
{"date":"2010-05-01","average_temperature":"35.364000000000004","city":"Gashua","latitude":"13.66N","longitude":"10.73E"}
{"date":"2013-02-01","average_temperature":"19.509","city":"Gaya","latitude":"24.92N","longitude":"85.12E"}
{"date":"2012-01-01","average_temperature":"-1.5120000000000005","city":"Gdynia","latitude":"53.84N","longitude":"17.73E"}
{"date":"2011-02-01","average_temperature":"19.977","city":"Ghazipur","latitude":"24.92N","longitude":"83.35E"}
{"date":"2011-07-01","average_temperature":"26.145000000000003","city":"Girón","latitude":"7.23N","longitude":"73.78W"}
{"date":"2011-10-01","average_temperature":"20.105999999999998","city":"Girardot","latitude":"4.02N","longitude":"74.73W"}
{"date":"2010-07-01","average_temperature":"25.357","city":"Giugliano In Campania","latitude":"40.99N","longitude":"14.91E"}
{"date":"2011-09-01","average_temperature":"22.798","city":"Giugliano In Campania","latitude":"40.99N","longitude":"14.91E"}
{"date":"2010-12-01","average_temperature":"-5.077","city":"Gliwice","latitude":"50.63N","longitude":"19.01E"}
{"date":"2012-12-01","average_temperature":"4.785","city":"Gloucester","latitude":"52.24N","longitude":"2.63W"}
{"date":"2010-11-01","average_temperature":"26.721","city":"Gorontalo","latitude":"0.80N","longitude":"122.95E"}
{"date":"2013-06-01","average_temperature":"27.087","city":"Gorontalo","latitude":"0.80N","longitude":"122.95E"}
{"date":"2012-12-01","average_temperature":"-2.196","city":"Graz","latitude":"47.42N","longitude":"15.39E"}
{"date":"2011-07-01","average_temperature":"26.865","city":"Guacara","latitude":"10.45N","longitude":"67.91W"}
{"date":"2011-08-01","average_temperature":"23.218000000000004","city":"Guadalajara","latitude":"20.09N","longitude":"104.08W"}
{"date":"2013-04-01","average_temperature":"16.794","city":"Guangshui","latitude":"31.35N","longitude":"113.09E"}
{"date":"2013-06-01","average_temperature":"26.682","city":"Guangshui","latitude":"31.35N","longitude":"113.09E"}
{"date":"2011-08-01","average_temperature":"24.369","city":"Guangyuan","latitude":"32.95N","longitude":"106.28E"}
{"date":"2010-03-01","average_temperature":"21.952","city":"Guarapuava","latitude":"24.92S","longitude":"51.43W"}
{"date":"2010-12-01","average_temperature":"10.774","city":"Guilin","latitude":"24.92N","longitude":"109.95E"}
{"date":"2011-01-01","average_temperature":"3.7760000000000002","city":"Guilin","latitude":"24.92N","longitude":"109.95E"}
{"date":"2010-01-01","average_temperature":"6.707000000000002","city":"Guiyang","latitude":"26.52N","longitude":"107.46E"}
{"date":"2013-06-01","average_temperature":"16.247","city":"Gweru","latitude":"20.09S","longitude":"29.00E"}
{"date":"2011-06-01","average_temperature":"20.472","city":"Gyor","latitude":"47.42N","longitude":"17.76E"}
{"date":"2011-07-01","average_temperature":"28.921","city":"Hòa Bình","latitude":"20.09N","longitude":"105.78E"}
{"date":"2010-07-01","average_temperature":"19.775","city":"Haarlem","latitude":"52.24N","longitude":"5.26E"}
{"date":"2013-01-01","average_temperature":"1.288","city":"Hachioji","latitude":"36.17N","longitude":"139.23E"}
{"date":"2012-05-01","average_temperature":"32.178000000000004","city":"Hadejia","latitude":"12.05N","longitude":"9.86E"}
{"date":"2013-05-01","average_temperature":"25.896","city":"Haicheng","latitude":"23.31N","longitude":"114.47E"}
{"date":"2011-09-01","average_temperature":"25.547","city":"Haifa","latitude":"32.95N","longitude":"35.43E"}
{"date":"2010-11-01","average_temperature":"25.875","city":"Haldia","latitude":"21.70N","longitude":"87.40E"}
{"date":"2013-04-01","average_temperature":"30.111","city":"Haldia","latitude":"21.70N","longitude":"87.40E"}
{"date":"2011-03-01","average_temperature":"6.9849999999999985","city":"Handa","latitude":"34.56N","longitude":"136.22E"}
{"date":"2010-06-01","average_temperature":"23.033","city":"Hangu","latitude":"39.38N","longitude":"118.61E"}
{"date":"2010-06-01","average_temperature":"35.165","city":"Hapur","latitude":"28.13N","longitude":"77.27E"}
{"date":"2012-06-01","average_temperature":"27.502","city":"Hargeysa","latitude":"8.84N","longitude":"44.59E"}
{"date":"2013-05-01","average_temperature":"14.137","city":"Hartford","latitude":"40.99N","longitude":"72.43W"}
{"date":"2010-04-01","average_temperature":"2.8469999999999995","city":"Hegang","latitude":"47.42N","longitude":"131.45E"}
{"date":"2011-04-01","average_temperature":"12.561","city":"Heidelberg","latitude":"49.03N","longitude":"9.80E"}
{"date":"2013-02-01","average_temperature":"-0.8280000000000001","city":"Heidelberg","latitude":"49.03N","longitude":"9.80E"}
{"date":"2013-06-01","average_temperature":"27.796","city":"Henzada","latitude":"16.87N","longitude":"95.44E"}
{"date":"2013-07-01","average_temperature":"28.787","city":"Herat","latitude":"34.56N","longitude":"62.27E"}
{"date":"2010-01-01","average_temperature":"14.772999999999998","city":"Hialeah","latitude":"26.52N","longitude":"80.60W"}
{"date":"2010-09-01","average_temperature":"27.998","city":"Higüey","latitude":"18.48N","longitude":"69.30W"}
{"date":"2011-04-01","average_temperature":"27.206","city":"Holguín","latitude":"20.09N","longitude":"76.78W"}
{"date":"2012-05-01","average_temperature":"27.625999999999998","city":"Holguín","latitude":"20.09N","longitude":"76.78W"}
{"date":"2012-05-01","average_temperature":"25.958000000000002","city":"Hollywood","latitude":"26.52N","longitude":"80.60W"}
{"date":"2010-09-01","average_temperature":"26.659000000000002","city":"Hoshangabad","latitude":"23.31N","longitude":"77.77E"}
{"date":"2011-03-01","average_temperature":"26.844","city":"Hoshangabad","latitude":"23.31N","longitude":"77.77E"}
{"date":"2011-10-01","average_temperature":"26.19","city":"Hoshangabad","latitude":"23.31N","longitude":"77.77E"}
{"date":"2010-06-01","average_temperature":"26.526","city":"Hospet","latitude":"15.27N","longitude":"75.83E"}
{"date":"2011-12-01","average_temperature":"13.915999999999999","city":"Huangpu","latitude":"23.31N","longitude":"112.72E"}
{"date":"2012-05-01","average_temperature":"29.139","city":"Hubli","latitude":"15.27N","longitude":"75.83E"}
{"date":"2011-11-01","average_temperature":"26.578000000000007","city":"Hyderabad","latitude":"24.92N","longitude":"69.16E"}
{"date":"2013-03-01","average_temperature":"10.33","city":"Ibaraki","latitude":"34.56N","longitude":"136.22E"}
{"date":"2012-11-01","average_temperature":"25.11","city":"Ibb","latitude":"13.66N","longitude":"43.76E"}
{"date":"2012-03-01","average_temperature":"5.617000000000001","city":"Ichikawa","latitude":"36.17N","longitude":"139.23E"}
{"date":"2011-04-01","average_temperature":"17.174","city":"Idlib","latitude":"36.17N","longitude":"35.80E"}
{"date":"2013-02-01","average_temperature":"29.055","city":"Ikare","latitude":"7.23N","longitude":"5.68E"}
{"date":"2010-12-01","average_temperature":"27.396","city":"Ikirun","latitude":"7.23N","longitude":"4.05E"}
{"date":"2011-12-01","average_temperature":"26.515","city":"Ila","latitude":"7.23N","longitude":"5.68E"}
{"date":"2013-07-01","average_temperature":"23.183000000000003","city":"Indianapolis","latitude":"39.38N","longitude":"85.32W"}
{"date":"2012-06-01","average_temperature":"17.06","city":"Ingolstadt","latitude":"49.03N","longitude":"12.24E"}
{"date":"2011-09-01","average_temperature":"25.547","city":"Irbid","latitude":"32.95N","longitude":"35.43E"}
{"date":"2013-06-01","average_temperature":"30.89","city":"Irbil","latitude":"36.17N","longitude":"43.76E"}
{"date":"2013-08-01","average_temperature":"26.364","city":"Isehara","latitude":"36.17N","longitude":"139.23E"}
{"date":"2011-10-01","average_temperature":"13.649","city":"Istanbul","latitude":"40.99N","longitude":"29.82E"}
{"date":"2012-11-01","average_temperature":"13.414000000000001","city":"Istanbul","latitude":"40.99N","longitude":"29.82E"}
{"date":"2011-09-01","average_temperature":"23.851000000000006","city":"Itami","latitude":"34.56N","longitude":"136.22E"}
{"date":"2012-11-01","average_temperature":"11.014000000000001","city":"Itami","latitude":"34.56N","longitude":"136.22E"}
{"date":"2010-05-01","average_temperature":"18.679000000000002","city":"Itapevi","latitude":"23.31S","longitude":"46.31W"}
{"date":"2013-05-01","average_temperature":"14.821","city":"Ivanovo","latitude":"57.05N","longitude":"39.84E"}
{"date":"2013-03-01","average_temperature":"5.125","city":"Iwaki","latitude":"37.78N","longitude":"140.34E"}
{"date":"2010-11-01","average_temperature":"21.508000000000003","city":"Jacareí","latitude":"23.31S","longitude":"46.31W"}
{"date":"2010-12-01","average_temperature":"15.605","city":"Jacobabad","latitude":"28.13N","longitude":"68.18E"}
{"date":"2012-09-01","average_temperature":"31.528000000000002","city":"Jacobabad","latitude":"28.13N","longitude":"68.18E"}
{"date":"2010-10-01","average_temperature":"28.206999999999997","city":"Jaffna","latitude":"8.84N","longitude":"80.27E"}
{"date":"2013-07-01","average_temperature":"28.705","city":"Jaffna","latitude":"8.84N","longitude":"80.27E"}
{"date":"2011-04-01","average_temperature":"26.561","city":"Jagadhri","latitude":"29.74N","longitude":"77.54E"}
{"date":"2011-10-01","average_temperature":"24.678","city":"Jagadhri","latitude":"29.74N","longitude":"77.54E"}
{"date":"2013-06-01","average_temperature":"26.958","city":"Jamame","latitude":"0.80N","longitude":"42.59E"}
{"date":"2012-07-01","average_temperature":"28.721999999999998","city":"Jamshedpur","latitude":"23.31N","longitude":"86.50E"}
{"date":"2013-03-01","average_temperature":"26.938000000000002","city":"Jamshedpur","latitude":"23.31N","longitude":"86.50E"}
{"date":"2010-06-01","average_temperature":"25.56","city":"Jaramana","latitude":"32.95N","longitude":"35.43E"}
{"date":"2011-07-01","average_temperature":"29.409","city":"Jian","latitude":"26.52N","longitude":"114.63E"}
{"date":"2012-10-01","average_temperature":"18.979","city":"Jiangyin","latitude":"31.35N","longitude":"120.63E"}
{"date":"2010-04-01","average_temperature":"19.722","city":"Jiazi","latitude":"23.31N","longitude":"116.21E"}
{"date":"2010-06-01","average_temperature":"20.753","city":"Jimma","latitude":"7.23N","longitude":"36.49E"}
{"date":"2010-08-01","average_temperature":"23.883000000000006","city":"Jinzhou","latitude":"40.99N","longitude":"121.42E"}
{"date":"2012-06-01","average_temperature":"24.271","city":"Jishou","latitude":"28.13N","longitude":"110.00E"}
{"date":"2010-12-01","average_temperature":"7.317","city":"Jiujiang","latitude":"29.74N","longitude":"116.31E"}
{"date":"2013-08-01","average_temperature":"29.982","city":"Jiujiang","latitude":"29.74N","longitude":"116.31E"}
{"date":"2010-01-01","average_temperature":"26.491","city":"Jolo","latitude":"5.63N","longitude":"119.46E"}
{"date":"2011-02-01","average_temperature":"26.805999999999997","city":"Jombang","latitude":"7.23S","longitude":"112.70E"}
{"date":"2012-11-01","average_temperature":"7.134","city":"Juliaca","latitude":"15.27S","longitude":"70.83W"}
{"date":"2011-08-01","average_temperature":"27.764","city":"Junagadh","latitude":"21.70N","longitude":"70.10E"}
{"date":"2012-06-01","average_temperature":"31.068","city":"Junagadh","latitude":"21.70N","longitude":"70.10E"}
{"date":"2013-06-01","average_temperature":"30.543000000000006","city":"Junagadh","latitude":"21.70N","longitude":"70.10E"}
{"date":"2012-08-01","average_temperature":"25.524","city":"Kabul","latitude":"34.56N","longitude":"70.05E"}
{"date":"2011-01-01","average_temperature":"-1.35","city":"Kaifeng","latitude":"34.56N","longitude":"114.81E"}
{"date":"2011-11-01","average_temperature":"24.283","city":"Kalyan","latitude":"20.09N","longitude":"73.36E"}
{"date":"2010-01-01","average_temperature":"11.81","city":"Kamalia","latitude":"31.35N","longitude":"73.51E"}
{"date":"2011-04-01","average_temperature":"5.8610000000000015","city":"Kamensk Uralskiy","latitude":"55.45N","longitude":"62.36E"}
{"date":"2011-08-01","average_temperature":"24.28","city":"Kananga","latitude":"5.63S","longitude":"22.60E"}
{"date":"2012-05-01","average_temperature":"24.739","city":"Kananga","latitude":"5.63S","longitude":"22.60E"}
{"date":"2012-08-01","average_temperature":"25.409000000000002","city":"Kandi","latitude":"10.45N","longitude":"2.45E"}
{"date":"2010-11-01","average_temperature":"25.938000000000002","city":"Kandy","latitude":"7.23N","longitude":"80.27E"}
{"date":"2013-04-01","average_temperature":"10.089","city":"Kansas City","latitude":"39.38N","longitude":"93.64W"}
{"date":"2012-02-01","average_temperature":"-18.657","city":"Kansk","latitude":"55.45N","longitude":"96.38E"}
{"date":"2013-05-01","average_temperature":"31.996","city":"Karachi","latitude":"24.92N","longitude":"67.39E"}
{"date":"2013-09-01","city":"Karaman","latitude":"37.78N","longitude":"32.54E"}
{"date":"2013-05-01","average_temperature":"36.217","city":"Karimnagar","latitude":"18.48N","longitude":"79.44E"}
{"date":"2012-04-01","average_temperature":"11.355","city":"Kashiwa","latitude":"36.17N","longitude":"139.23E"}
{"date":"2010-03-01","average_temperature":"30.522","city":"Kassala","latitude":"15.27N","longitude":"35.83E"}
{"date":"2012-03-01","average_temperature":"28.898000000000003","city":"Kassala","latitude":"15.27N","longitude":"35.83E"}
{"date":"2010-12-01","average_temperature":"7.487","city":"Kasugai","latitude":"34.56N","longitude":"136.22E"}
{"date":"2012-05-01","average_temperature":"33.013000000000005","city":"Kasur","latitude":"31.35N","longitude":"73.51E"}
{"date":"2011-07-01","average_temperature":"17.974999999999994","city":"Katowice","latitude":"50.63N","longitude":"19.01E"}
{"date":"2013-04-01","average_temperature":"9.016","city":"Katowice","latitude":"50.63N","longitude":"19.01E"}
{"date":"2010-09-01","average_temperature":"22.414","city":"Kawagoe","latitude":"36.17N","longitude":"139.23E"}
{"date":"2013-01-01","average_temperature":"26.244","city":"Kemang","latitude":"7.23S","longitude":"106.22E"}
{"date":"2013-06-01","average_temperature":"35.93","city":"Khanewal","latitude":"29.74N","longitude":"72.00E"}
{"date":"2012-05-01","average_temperature":"29.636999999999997","city":"Khlong Luang","latitude":"13.66N","longitude":"99.91E"}
{"date":"2012-12-01","average_temperature":"27.215","city":"Khlong Luang","latitude":"13.66N","longitude":"99.91E"}
{"date":"2011-09-01","average_temperature":"20.114","city":"Khomeynishahr","latitude":"32.95N","longitude":"50.74E"}
{"date":"2012-05-01","average_temperature":"23.223000000000006","city":"Khorramabad","latitude":"32.95N","longitude":"48.83E"}
{"date":"2013-08-01","average_temperature":"11.765","city":"Kimberley","latitude":"28.13S","longitude":"24.55E"}
{"date":"2011-08-01","average_temperature":"24.052","city":"Kindia","latitude":"10.45N","longitude":"12.27W"}
{"date":"2010-12-01","average_temperature":"24.08","city":"Kinshasa","latitude":"4.02S","longitude":"15.27E"}
{"date":"2012-07-01","average_temperature":"25.531999999999996","city":"Kishi","latitude":"8.84N","longitude":"4.05E"}
{"date":"2011-09-01","average_temperature":"14.791","city":"Klaipeda","latitude":"55.45N","longitude":"19.84E"}
{"date":"2010-02-01","average_temperature":"28.476999999999997","city":"Klang","latitude":"2.41N","longitude":"102.05E"}
{"date":"2012-09-01","average_temperature":"27.357000000000006","city":"Klang","latitude":"2.41N","longitude":"102.05E"}
{"date":"2010-12-01","average_temperature":"-19.852","city":"Komsomolsk Na Amure","latitude":"50.63N","longitude":"138.17E"}
{"date":"2013-05-01","average_temperature":"36.213","city":"Kota","latitude":"24.92N","longitude":"76.26E"}
{"date":"2013-02-01","average_temperature":"25.985","city":"Kota Bahru","latitude":"5.63N","longitude":"101.70E"}
{"date":"2012-06-01","average_temperature":"16.985","city":"Krasnoyarsk","latitude":"55.45N","longitude":"93.54E"}
{"date":"2012-01-01","average_temperature":"25.624000000000002","city":"Kuantan","latitude":"4.02N","longitude":"103.66E"}
{"date":"2010-06-01","average_temperature":"17.645999999999994","city":"Kuito","latitude":"12.05S","longitude":"16.44E"}
{"date":"2010-12-01","average_temperature":"26.659000000000002","city":"Kulim","latitude":"5.63N","longitude":"100.09E"}
{"date":"2010-01-01","average_temperature":"27.246","city":"Kupang","latitude":"10.45S","longitude":"123.55E"}
{"date":"2010-08-01","average_temperature":"20.172","city":"Kuytun","latitude":"44.20N","longitude":"84.97E"}
{"date":"2010-04-01","average_temperature":"27.212","city":"La Romana","latitude":"18.48N","longitude":"69.30W"}
{"date":"2012-04-01","average_temperature":"30.239","city":"Lafiagi","latitude":"8.84N","longitude":"5.68E"}
{"date":"2011-10-01","average_temperature":"16.143","city":"Laiyang","latitude":"36.17N","longitude":"121.33E"}
{"date":"2013-07-01","average_temperature":"27.848000000000006","city":"Lalitpur","latitude":"24.92N","longitude":"78.03E"}
{"date":"2013-03-01","average_temperature":"6.534000000000002","city":"Langfang","latitude":"39.38N","longitude":"116.53E"}
{"date":"2010-11-01","average_temperature":"27.596","city":"Laoag","latitude":"18.48N","longitude":"120.00E"}
{"date":"2010-10-01","average_temperature":"27.521","city":"Lapu Lapu","latitude":"10.45N","longitude":"123.55E"}
{"date":"2011-12-01","average_temperature":"16.445","city":"Larkana","latitude":"28.13N","longitude":"68.18E"}
{"date":"2013-05-01","average_temperature":"35.565","city":"Larkana","latitude":"28.13N","longitude":"68.18E"}
{"date":"2011-05-01","average_temperature":"4.191","city":"Lasa","latitude":"29.74N","longitude":"90.46E"}
{"date":"2012-07-01","average_temperature":"29.144","city":"Leiyang","latitude":"26.52N","longitude":"112.84E"}
{"date":"2013-02-01","average_temperature":"25.502","city":"Lembang","latitude":"7.23S","longitude":"107.84E"}
{"date":"2010-06-01","average_temperature":"24.171999999999997","city":"Lengshuijiang","latitude":"28.13N","longitude":"111.82E"}
{"date":"2013-05-01","average_temperature":"9.38","city":"Leninsk Kuznetskiy","latitude":"53.84N","longitude":"85.91E"}
{"date":"2011-04-01","average_temperature":"15.147","city":"Lexington Fayette","latitude":"37.78N","longitude":"85.42W"}
{"date":"2010-08-01","average_temperature":"16.863999999999994","city":"Liège","latitude":"50.63N","longitude":"6.34E"}
{"date":"2010-02-01","average_temperature":"17.708000000000006","city":"Liancheng","latitude":"21.70N","longitude":"109.90E"}
{"date":"2010-06-01","average_temperature":"26.308000000000003","city":"Licheng","latitude":"23.31N","longitude":"114.47E"}
{"date":"2011-11-01","average_temperature":"22.885","city":"Likasi","latitude":"10.45S","longitude":"27.00E"}
{"date":"2010-04-01","average_temperature":"22.522","city":"Limeira","latitude":"21.70S","longitude":"47.60W"}
{"date":"2011-10-01","average_temperature":"19.005000000000006","city":"Linchuan","latitude":"28.13N","longitude":"115.45E"}
{"date":"2010-04-01","average_temperature":"14.124","city":"Lincoln","latitude":"40.99N","longitude":"95.86W"}
{"date":"2013-08-01","average_temperature":"24.048","city":"Linfen","latitude":"36.17N","longitude":"111.38E"}
{"date":"2010-02-01","average_temperature":"26.561999999999998","city":"Lira","latitude":"2.41N","longitude":"32.95E"}
{"date":"2013-09-01","city":"Liusha","latitude":"23.31N","longitude":"116.21E"}
{"date":"2012-12-01","average_temperature":"9.72","city":"Liuzhou","latitude":"24.92N","longitude":"109.95E"}
{"date":"2013-05-01","average_temperature":"14.422","city":"Ljubljana","latitude":"45.81N","longitude":"15.00E"}
{"date":"2013-01-01","average_temperature":"27.398000000000003","city":"Loa Janan","latitude":"0.80S","longitude":"116.52E"}
{"date":"2011-10-01","average_temperature":"5.706","city":"Longjing","latitude":"42.59N","longitude":"128.73E"}
{"date":"2010-02-01","average_temperature":"10.353","city":"Los Angeles","latitude":"34.56N","longitude":"118.70W"}
{"date":"2012-01-01","average_temperature":"19.427000000000003","city":"Los Mochis","latitude":"26.52N","longitude":"109.25W"}
{"date":"2012-10-01","average_temperature":"28.004","city":"Los Mochis","latitude":"26.52N","longitude":"109.25W"}
{"date":"2012-11-01","average_temperature":"14.009","city":"Los Reyes","latitude":"20.09N","longitude":"98.96W"}
{"date":"2010-12-01","average_temperature":"26.543000000000003","city":"Louga","latitude":"15.27N","longitude":"15.83W"}
{"date":"2013-02-01","average_temperature":"5.614000000000001","city":"Luan","latitude":"31.35N","longitude":"116.86E"}
{"date":"2010-01-01","average_temperature":"-7.931999999999999","city":"Lublin","latitude":"50.63N","longitude":"21.55E"}
{"date":"2011-09-01","average_temperature":"26.790000000000006","city":"Luchou","latitude":"24.92N","longitude":"120.59E"}
{"date":"2010-11-01","average_temperature":"20.269","city":"Ludhiana","latitude":"31.35N","longitude":"75.39E"}
{"date":"2011-10-01","average_temperature":"16.351","city":"Luohe","latitude":"32.95N","longitude":"113.94E"}
{"date":"2012-09-01","average_temperature":"23.741","city":"Luque","latitude":"24.92S","longitude":"56.75W"}
{"date":"2010-09-01","average_temperature":"24.115","city":"Luzhou","latitude":"29.74N","longitude":"105.23E"}
{"date":"2012-12-01","average_temperature":"4.9719999999999995","city":"Móstoles","latitude":"40.99N","longitude":"4.26W"}
{"date":"2013-07-01","average_temperature":"19.869","city":"Mülheim","latitude":"50.63N","longitude":"6.34E"}
{"date":"2012-06-01","average_temperature":"25.864","city":"Maceió","latitude":"10.45S","longitude":"35.18W"}
{"date":"2013-08-01","average_temperature":"18.346","city":"Magdeburg","latitude":"52.24N","longitude":"10.51E"}
{"date":"2012-06-01","average_temperature":"31.775","city":"Mahbubnagar","latitude":"16.87N","longitude":"78.70E"}
{"date":"2013-02-01","average_temperature":"26.226000000000006","city":"Mahbubnagar","latitude":"16.87N","longitude":"78.70E"}
{"date":"2011-09-01","average_temperature":"26.518","city":"Makati","latitude":"15.27N","longitude":"120.83E"}
{"date":"2012-12-01","average_temperature":"26.58","city":"Makati","latitude":"15.27N","longitude":"120.83E"}
{"date":"2013-06-01","average_temperature":"28.572","city":"Makati","latitude":"15.27N","longitude":"120.83E"}
{"date":"2012-04-01","average_temperature":"12.956","city":"Makhachkala","latitude":"42.59N","longitude":"48.00E"}
{"date":"2011-11-01","average_temperature":"27.543000000000003","city":"Makurdi","latitude":"7.23N","longitude":"8.92E"}
{"date":"2012-09-01","average_temperature":"26.288","city":"Makurdi","latitude":"7.23N","longitude":"8.92E"}
{"date":"2011-10-01","average_temperature":"27.057","city":"Malakal","latitude":"8.84N","longitude":"31.62E"}
{"date":"2011-09-01","average_temperature":"24.881","city":"Man","latitude":"7.23N","longitude":"7.30W"}
{"date":"2013-05-01","average_temperature":"28.479","city":"Managua","latitude":"12.05N","longitude":"85.48W"}
{"date":"2011-09-01","average_temperature":"27.045","city":"Manbij","latitude":"36.17N","longitude":"37.79E"}
{"date":"2011-07-01","average_temperature":"28.518","city":"Manzanillo","latitude":"20.09N","longitude":"76.78W"}
{"date":"2011-11-01","average_temperature":"24.33","city":"Marília","latitude":"21.70S","longitude":"49.33W"}
{"date":"2012-01-01","average_temperature":"-2.3840000000000003","city":"Marand","latitude":"39.38N","longitude":"45.78E"}
{"date":"2011-05-01","average_temperature":"31.606","city":"Maroua","latitude":"10.45N","longitude":"13.91E"}
{"date":"2010-04-01","average_temperature":"9.167","city":"Matsumoto","latitude":"36.17N","longitude":"137.24E"}
{"date":"2012-09-01","average_temperature":"24.467","city":"Matsusaka","latitude":"34.56N","longitude":"136.22E"}
{"date":"2010-03-01","average_temperature":"29.871","city":"Maymyo","latitude":"21.70N","longitude":"96.06E"}
{"date":"2011-08-01","average_temperature":"27.451999999999998","city":"Medan","latitude":"4.02N","longitude":"98.84E"}
{"date":"2011-11-01","average_temperature":"26.826999999999998","city":"Medan","latitude":"4.02N","longitude":"98.84E"}
{"date":"2011-09-01","average_temperature":"19.828","city":"Medellín","latitude":"5.63N","longitude":"75.87W"}
{"date":"2012-10-01","average_temperature":"25.307","city":"Mejicanos","latitude":"13.66N","longitude":"90.00W"}
{"date":"2011-08-01","average_temperature":"27.443","city":"Melaka","latitude":"2.41N","longitude":"102.05E"}
{"date":"2013-07-01","average_temperature":"27.93","city":"Metairie","latitude":"29.74N","longitude":"90.46W"}
{"date":"2010-10-01","average_temperature":"15.228","city":"Mexico","latitude":"20.09N","longitude":"98.96W"}
{"date":"2010-11-01","average_temperature":"13.654000000000002","city":"Mexico","latitude":"20.09N","longitude":"98.96W"}
{"date":"2010-06-01","average_temperature":"9.0","city":"Middelburg","latitude":"26.52S","longitude":"28.66E"}
{"date":"2012-02-01","average_temperature":"7.231999999999998","city":"Mingaora","latitude":"34.56N","longitude":"72.00E"}
{"date":"2011-02-01","average_temperature":"-8.706","city":"Minsk","latitude":"53.84N","longitude":"28.64E"}
{"date":"2010-06-01","average_temperature":"22.401999999999997","city":"Mishima","latitude":"34.56N","longitude":"138.16E"}
{"date":"2010-03-01","average_temperature":"17.901","city":"Misratah","latitude":"32.95N","longitude":"14.36E"}
{"date":"2011-08-01","average_temperature":"27.217","city":"Misratah","latitude":"32.95N","longitude":"14.36E"}
{"date":"2011-04-01","average_temperature":"13.315","city":"Modena","latitude":"44.20N","longitude":"11.18E"}
{"date":"2013-02-01","average_temperature":"15.744000000000002","city":"Monclova","latitude":"26.52N","longitude":"102.09W"}
{"date":"2012-09-01","average_temperature":"28.746","city":"Montería","latitude":"8.84N","longitude":"75.41W"}
{"date":"2012-10-01","average_temperature":"27.678","city":"Montería","latitude":"8.84N","longitude":"75.41W"}
{"date":"2010-06-01","average_temperature":"18.836","city":"Montpellier","latitude":"44.20N","longitude":"4.47E"}
{"date":"2011-06-01","average_temperature":"23.559","city":"Moreno Valley","latitude":"34.56N","longitude":"116.76W"}
{"date":"2011-11-01","average_temperature":"27.153000000000002","city":"Morvi","latitude":"23.31N","longitude":"70.78E"}
{"date":"2010-03-01","average_temperature":"-2.0369999999999995","city":"Moscow","latitude":"55.45N","longitude":"36.85E"}
{"date":"2011-04-01","average_temperature":"8.118","city":"Munich","latitude":"47.42N","longitude":"10.66E"}
{"date":"2012-09-01","average_temperature":"22.135","city":"Murcia","latitude":"37.78N","longitude":"2.03W"}
{"date":"2013-09-01","city":"Mutare","latitude":"18.48S","longitude":"32.11E"}
{"date":"2010-05-01","average_temperature":"35.374","city":"Muzaffargarh","latitude":"29.74N","longitude":"72.00E"}
{"date":"2013-09-01","city":"Muzaffargarh","latitude":"29.74N","longitude":"72.00E"}
{"date":"2012-11-01","average_temperature":"20.369","city":"Muzaffarpur","latitude":"26.52N","longitude":"85.97E"}
{"date":"2011-12-01","average_temperature":"-0.8680000000000003","city":"Mytishchi","latitude":"55.45N","longitude":"36.85E"}
{"date":"2012-04-01","average_temperature":"11.355","city":"Nagareyama","latitude":"36.17N","longitude":"139.23E"}
{"date":"2013-09-01","city":"Nagareyama","latitude":"36.17N","longitude":"139.23E"}
{"date":"2010-01-01","average_temperature":"27.015","city":"Nagercoil","latitude":"8.84N","longitude":"77.03E"}
{"date":"2013-06-01","average_temperature":"21.693","city":"Nampula","latitude":"15.27S","longitude":"39.17E"}
{"date":"2011-12-01","average_temperature":"6.8229999999999995","city":"Nanchang","latitude":"28.13N","longitude":"115.45E"}
{"date":"2012-08-01","average_temperature":"29.762","city":"Navadwip","latitude":"23.31N","longitude":"88.25E"}
{"date":"2011-07-01","average_temperature":"34.523","city":"Nawabshah","latitude":"26.52N","longitude":"68.06E"}
{"date":"2013-07-01","average_temperature":"34.693000000000005","city":"Nawabshah","latitude":"26.52N","longitude":"68.06E"}
{"date":"2012-05-01","average_temperature":"22.859","city":"Neijiang","latitude":"29.74N","longitude":"105.23E"}
{"date":"2010-09-01","average_temperature":"17.941","city":"Nevinnomyssk","latitude":"44.20N","longitude":"42.48E"}
{"date":"2013-01-01","average_temperature":"3.7110000000000003","city":"Newport","latitude":"52.24N","longitude":"2.63W"}
{"date":"2013-09-01","city":"Neyagawa","latitude":"34.56N","longitude":"136.22E"}
{"date":"2013-04-01","average_temperature":"24.023000000000003","city":"Ngaoundéré","latitude":"7.23N","longitude":"13.78E"}
{"date":"2011-09-01","average_temperature":"16.52","city":"Nigel","latitude":"26.52S","longitude":"28.66E"}
{"date":"2012-06-01","average_temperature":"21.039","city":"Nizhnevartovsk","latitude":"60.27N","longitude":"77.84E"}
{"date":"2011-12-01","average_temperature":"-2.569000000000001","city":"Nizhniy Novgorod","latitude":"57.05N","longitude":"42.79E"}
{"date":"2013-05-01","average_temperature":"14.634","city":"Nizhniy Novgorod","latitude":"57.05N","longitude":"42.79E"}
{"date":"2010-04-01","average_temperature":"5.645","city":"Nizhniy Tagil","latitude":"57.05N","longitude":"60.49E"}
{"date":"2011-11-01","average_temperature":"13.854000000000001","city":"Nobeoka","latitude":"32.95N","longitude":"131.17E"}
{"date":"2012-09-01","average_temperature":"31.448","city":"Nouakchott","latitude":"18.48N","longitude":"15.21W"}
{"date":"2011-03-01","average_temperature":"6.211","city":"Novi Sad","latitude":"45.81N","longitude":"19.62E"}
{"date":"2010-03-01","average_temperature":"23.016","city":"Novo Hamburgo","latitude":"29.74S","longitude":"51.69W"}
{"date":"2010-05-01","average_temperature":"22.163","city":"Nukus","latitude":"42.59N","longitude":"58.91E"}
{"date":"2012-07-01","average_temperature":"19.632","city":"Oakland","latitude":"37.78N","longitude":"122.03W"}
{"date":"2011-03-01","average_temperature":"22.694000000000003","city":"Obregon","latitude":"28.13N","longitude":"110.00W"}
{"date":"2010-05-01","average_temperature":"27.111","city":"Ocumare Del Tuy","latitude":"10.45N","longitude":"66.27W"}
{"date":"2012-07-01","average_temperature":"24.706999999999997","city":"Odesa","latitude":"45.81N","longitude":"31.15E"}
{"date":"2012-08-01","average_temperature":"25.113000000000003","city":"Offa","latitude":"8.84N","longitude":"4.05E"}
{"date":"2010-05-01","average_temperature":"17.619","city":"Ogaki","latitude":"34.56N","longitude":"136.22E"}
{"date":"2010-10-01","average_temperature":"26.642000000000003","city":"Okrika","latitude":"4.02N","longitude":"7.23E"}
{"date":"2011-12-01","average_temperature":"5.232","city":"Oldenburg","latitude":"52.24N","longitude":"7.88E"}
{"date":"2011-06-01","average_temperature":"22.848000000000003","city":"Omaha","latitude":"40.99N","longitude":"95.86W"}
{"date":"2011-09-01","average_temperature":"18.316","city":"Oradea","latitude":"47.42N","longitude":"22.50E"}
{"date":"2012-10-01","average_temperature":"26.1","city":"Orai","latitude":"26.52N","longitude":"78.81E"}
{"date":"2011-09-01","average_temperature":"18.801","city":"Ordu","latitude":"40.99N","longitude":"38.34E"}
{"date":"2013-09-01","city":"Oron","latitude":"5.63N","longitude":"8.07E"}
{"date":"2010-01-01","average_temperature":"-13.242","city":"Orsha","latitude":"53.84N","longitude":"31.36E"}
{"date":"2012-12-01","average_temperature":"2.9609999999999994","city":"Ota","latitude":"36.17N","longitude":"139.23E"}
{"date":"2010-01-01","average_temperature":"-13.415999999999999","city":"Oulu","latitude":"65.09N","longitude":"24.89E"}
{"date":"2010-01-01","average_temperature":"1.381","city":"Oxford","latitude":"52.24N","longitude":"0.00W"}
{"date":"2011-02-01","average_temperature":"28.828000000000003","city":"Oyo","latitude":"7.23N","longitude":"4.05E"}
{"date":"2013-05-01","average_temperature":"28.755","city":"Pabna","latitude":"23.31N","longitude":"90.00E"}
{"date":"2010-01-01","average_temperature":"11.607000000000001","city":"Pachuca","latitude":"20.09N","longitude":"98.96W"}
{"date":"2011-05-01","average_temperature":"29.069000000000003","city":"Palakkad","latitude":"10.45N","longitude":"76.09E"}
{"date":"2012-09-01","average_temperature":"27.455","city":"Palakkad","latitude":"10.45N","longitude":"76.09E"}
{"date":"2011-09-01","average_temperature":"25.256999999999998","city":"Palanpur","latitude":"24.92N","longitude":"72.71E"}
{"date":"2012-09-01","average_temperature":"25.908","city":"Palanpur","latitude":"24.92N","longitude":"72.71E"}
{"date":"2011-01-01","average_temperature":"24.911","city":"Pallavaram","latitude":"13.66N","longitude":"80.09E"}
{"date":"2013-05-01","average_temperature":"34.587","city":"Pallavaram","latitude":"13.66N","longitude":"80.09E"}
{"date":"2012-07-01","average_temperature":"19.078","city":"Panevezys","latitude":"55.45N","longitude":"25.51E"}
{"date":"2010-06-01","average_temperature":"31.075","city":"Panihati","latitude":"23.31N","longitude":"88.25E"}
{"date":"2011-02-01","average_temperature":"24.288","city":"Parbhani","latitude":"20.09N","longitude":"76.78E"}
{"date":"2011-10-01","average_temperature":"26.878","city":"Pasir Gudang","latitude":"0.80N","longitude":"103.66E"}
{"date":"2012-01-01","average_temperature":"18.856","city":"Patan","latitude":"23.31N","longitude":"72.52E"}
{"date":"2012-01-01","average_temperature":"14.267000000000001","city":"Pate","latitude":"24.92N","longitude":"120.59E"}
{"date":"2010-03-01","average_temperature":"24.067","city":"Patos De Minas","latitude":"18.48S","longitude":"47.32W"}
{"date":"2012-01-01","average_temperature":"-21.003","city":"Pavlodar","latitude":"52.24N","longitude":"76.20E"}
{"date":"2012-05-01","average_temperature":"19.358","city":"Pavlohrad","latitude":"49.03N","longitude":"36.73E"}
{"date":"2011-07-01","average_temperature":"28.826","city":"Pembroke Pines","latitude":"26.52N","longitude":"80.60W"}
{"date":"2010-02-01","average_temperature":"9.269","city":"Pescara","latitude":"42.59N","longitude":"15.27E"}
{"date":"2012-01-01","average_temperature":"24.46","city":"Petare","latitude":"10.45N","longitude":"66.27W"}
{"date":"2010-06-01","average_temperature":"16.13","city":"Peterborough","latitude":"52.24N","longitude":"0.00W"}
{"date":"2010-02-01","average_temperature":"-12.356000000000002","city":"Petrozavodsk","latitude":"61.88N","longitude":"35.66E"}
{"date":"2010-05-01","average_temperature":"33.233000000000004","city":"Phagwara","latitude":"31.35N","longitude":"75.39E"}
{"date":"2011-04-01","average_temperature":"25.998","city":"Phagwara","latitude":"31.35N","longitude":"75.39E"}
{"date":"2012-06-01","average_temperature":"27.184","city":"Pingtung","latitude":"23.31N","longitude":"119.71E"}
{"date":"2011-10-01","average_temperature":"18.204","city":"Pingxiang","latitude":"28.13N","longitude":"113.64E"}
{"date":"2012-07-01","average_temperature":"26.287","city":"Plây Cu","latitude":"13.66N","longitude":"108.17E"}
{"date":"2011-01-01","average_temperature":"-0.6569999999999999","city":"Plovdiv","latitude":"42.59N","longitude":"24.00E"}
{"date":"2010-01-01","average_temperature":"24.969","city":"Plumbon","latitude":"7.23S","longitude":"107.84E"}
{"date":"2010-03-01","average_temperature":"25.827","city":"Plumbon","latitude":"7.23S","longitude":"107.84E"}
{"date":"2010-05-01","average_temperature":"26.193","city":"Plumbon","latitude":"7.23S","longitude":"107.84E"}
{"date":"2012-04-01","average_temperature":"8.82","city":"Plymouth","latitude":"50.63N","longitude":"3.80W"}
{"date":"2013-06-01","average_temperature":"33.172","city":"Pondicherry","latitude":"12.05N","longitude":"80.55E"}
{"date":"2012-01-01","average_temperature":"20.634","city":"Ponta Grossa","latitude":"24.92S","longitude":"49.66W"}
{"date":"2012-07-01","average_temperature":"27.039","city":"Pontianak","latitude":"0.80S","longitude":"110.09E"}
{"date":"2011-01-01","average_temperature":"25.52","city":"Port Au Prince","latitude":"18.48N","longitude":"72.68W"}
{"date":"2012-08-01","average_temperature":"28.786","city":"Port Au Prince","latitude":"18.48N","longitude":"72.68W"}
{"date":"2010-08-01","average_temperature":"25.054000000000002","city":"Port Gentil","latitude":"0.80S","longitude":"8.84E"}
{"date":"2012-12-01","average_temperature":"21.840999999999998","city":"Potchefstroom","latitude":"26.52S","longitude":"26.87E"}
{"date":"2012-08-01","average_temperature":"23.357","city":"Presidente Prudente","latitude":"21.70S","longitude":"51.06W"}
{"date":"2010-09-01","average_temperature":"16.201","city":"Prizren","latitude":"42.59N","longitude":"21.82E"}
{"date":"2010-10-01","average_temperature":"8.677","city":"Prizren","latitude":"42.59N","longitude":"21.82E"}
{"date":"2012-12-01","average_temperature":"-20.153","city":"Prokopyevsk","latitude":"53.84N","longitude":"85.91E"}
{"date":"2011-03-01","average_temperature":"10.893","city":"Puqi","latitude":"29.74N","longitude":"114.46E"}
{"date":"2013-04-01","average_temperature":"27.046999999999997","city":"Purwodadi","latitude":"7.23S","longitude":"111.08E"}
{"date":"2011-06-01","average_temperature":"26.433000000000003","city":"Purwokerto","latitude":"7.23S","longitude":"109.46E"}
{"date":"2011-06-01","average_temperature":"25.793000000000003","city":"Qianjiang","latitude":"29.74N","longitude":"112.62E"}
{"date":"2013-02-01","average_temperature":"1.2409999999999999","city":"Qingdao","latitude":"36.17N","longitude":"121.33E"}
{"date":"2011-01-01","average_temperature":"1.27","city":"Qom","latitude":"34.56N","longitude":"50.59E"}
{"date":"2010-05-01","average_temperature":"22.211","city":"Querétaro","latitude":"20.09N","longitude":"100.66W"}
{"date":"2013-03-01","average_temperature":"22.951","city":"Quevedo","latitude":"0.80S","longitude":"79.55W"}
{"date":"2011-02-01","average_temperature":"23.425","city":"Qui Nhon","latitude":"13.66N","longitude":"109.82E"}
{"date":"2013-06-01","average_temperature":"12.743","city":"Quilpue","latitude":"32.95S","longitude":"71.81W"}
{"date":"2010-11-01","average_temperature":"12.24","city":"Qujing","latitude":"24.92N","longitude":"104.63E"}
{"date":"2012-03-01","average_temperature":"30.139","city":"Raichur","latitude":"16.87N","longitude":"77.02E"}
{"date":"2012-02-01","average_temperature":"26.098000000000006","city":"Rajamahendri","latitude":"16.87N","longitude":"82.05E"}
{"date":"2011-03-01","average_temperature":"10.146","city":"Raleigh","latitude":"36.17N","longitude":"79.56W"}
{"date":"2011-05-01","average_temperature":"20.691000000000006","city":"Ramat Gan","latitude":"32.95N","longitude":"35.43E"}
{"date":"2011-02-01","average_temperature":"21.423000000000002","city":"Randfontein","latitude":"26.52S","longitude":"26.87E"}
{"date":"2012-08-01","average_temperature":"14.128","city":"Randfontein","latitude":"26.52S","longitude":"26.87E"}
{"date":"2010-03-01","average_temperature":"22.705","city":"Rangpur","latitude":"26.52N","longitude":"89.55E"}
{"date":"2010-09-01","average_temperature":"26.34","city":"Rangpur","latitude":"26.52N","longitude":"89.55E"}
{"date":"2011-10-01","average_temperature":"26.764","city":"Ratlam","latitude":"23.31N","longitude":"74.27E"}
{"date":"2013-04-01","average_temperature":"30.586","city":"Raurkela","latitude":"21.70N","longitude":"85.67E"}
{"date":"2012-04-01","average_temperature":"26.174000000000003","city":"Rawang","latitude":"4.02N","longitude":"102.05E"}
{"date":"2011-09-01","average_temperature":"19.829","city":"Resistencia","latitude":"28.13S","longitude":"59.09W"}
{"date":"2013-02-01","average_temperature":"24.965","city":"Ribeirão Prêto","latitude":"21.70S","longitude":"47.60W"}
{"date":"2012-04-01","average_temperature":"19.639","city":"Richards Bay","latitude":"28.13S","longitude":"31.82E"}
{"date":"2011-07-01","average_temperature":"20.245","city":"Rijeka","latitude":"45.81N","longitude":"15.00E"}
{"date":"2013-07-01","average_temperature":"27.248","city":"Rizhao","latitude":"36.17N","longitude":"119.34E"}
{"date":"2010-06-01","average_temperature":"35.165","city":"Rohtak","latitude":"28.13N","longitude":"77.27E"}
{"date":"2010-07-01","average_temperature":"19.825","city":"Rongcheng","latitude":"26.52N","longitude":"103.88E"}
{"date":"2013-04-01","average_temperature":"17.081","city":"Rongcheng","latitude":"29.74N","longitude":"112.62E"}
{"date":"2011-06-01","average_temperature":"17.622","city":"Rostock","latitude":"53.84N","longitude":"12.27E"}
{"date":"2010-07-01","average_temperature":"16.89","city":"Rotherham","latitude":"53.84N","longitude":"1.36W"}
{"date":"2010-06-01","average_temperature":"30.386999999999997","city":"Roxas","latitude":"12.05N","longitude":"123.29E"}
{"date":"2010-06-01","average_temperature":"18.947","city":"Rubtsovsk","latitude":"52.24N","longitude":"81.46E"}
{"date":"2011-04-01","average_temperature":"8.591000000000001","city":"Rubtsovsk","latitude":"52.24N","longitude":"81.46E"}
{"date":"2012-02-01","average_temperature":"-5.932","city":"Ruda Slaska","latitude":"50.63N","longitude":"19.01E"}
{"date":"2013-01-01","average_temperature":"-0.6849999999999998","city":"Ruse","latitude":"44.20N","longitude":"26.83E"}
{"date":"2011-03-01","average_temperature":"4.12","city":"Rybnik","latitude":"50.63N","longitude":"19.01E"}
{"date":"2011-11-01","average_temperature":"3.315","city":"Rybnik","latitude":"50.63N","longitude":"19.01E"}
{"date":"2010-04-01","average_temperature":"25.724","city":"São Gonçalo","latitude":"23.31S","longitude":"42.82W"}
{"date":"2012-12-01","average_temperature":"12.179","city":"Sabadell","latitude":"40.99N","longitude":"2.13E"}
{"date":"2012-01-01","average_temperature":"22.278000000000002","city":"Sabará","latitude":"20.09S","longitude":"44.36W"}
{"date":"2012-04-01","average_temperature":"19.457","city":"Sabratah","latitude":"32.95N","longitude":"12.45E"}
{"date":"2013-02-01","average_temperature":"13.100999999999999","city":"Sabratah","latitude":"32.95N","longitude":"12.45E"}
{"date":"2011-12-01","average_temperature":"18.057000000000002","city":"Sagar","latitude":"23.31N","longitude":"79.51E"}
{"date":"2012-07-01","average_temperature":"27.514","city":"Sagar","latitude":"23.31N","longitude":"79.51E"}
{"date":"2012-08-01","average_temperature":"28.084000000000003","city":"Saint Petersburg","latitude":"28.13N","longitude":"82.73W"}
{"date":"2011-05-01","average_temperature":"18.11","city":"Sakai","latitude":"34.56N","longitude":"136.22E"}
{"date":"2013-05-01","average_temperature":"30.074","city":"Salalah","latitude":"16.87N","longitude":"53.58E"}
{"date":"2013-08-01","average_temperature":"26.95","city":"Salatiga","latitude":"7.23S","longitude":"111.08E"}
{"date":"2012-03-01","average_temperature":"-5.8820000000000014","city":"Salavat","latitude":"53.84N","longitude":"55.91E"}
{"date":"2010-10-01","average_temperature":"3.489","city":"Samara","latitude":"53.84N","longitude":"50.45E"}
{"date":"2011-03-01","average_temperature":"6.4639999999999995","city":"Samsun","latitude":"40.99N","longitude":"36.21E"}
{"date":"2013-02-01","average_temperature":"13.190999999999999","city":"San Bernardo","latitude":"32.95S","longitude":"69.89W"}
{"date":"2013-05-01","average_temperature":"21.309","city":"San Juan Del Río","latitude":"20.09N","longitude":"100.66W"}
{"date":"2011-03-01","average_temperature":"19.373","city":"San Juan Sacatepéquez","latitude":"15.27N","longitude":"90.83W"}
{"date":"2010-05-01","average_temperature":"24.04","city":"San Luis Río Colorado","latitude":"32.95N","longitude":"113.94W"}
{"date":"2013-06-01","average_temperature":"11.13","city":"San Martin","latitude":"32.95S","longitude":"67.98W"}
{"date":"2010-11-01","average_temperature":"25.948","city":"San Miguelito","latitude":"8.84N","longitude":"80.27W"}
{"date":"2010-01-01","average_temperature":"21.406999999999996","city":"San Pedro Sula","latitude":"15.27N","longitude":"87.50W"}
{"date":"2013-04-01","average_temperature":"26.827","city":"San Pedro Sula","latitude":"15.27N","longitude":"87.50W"}
{"date":"2011-09-01","average_temperature":"14.154000000000002","city":"San Rafael","latitude":"34.56S","longitude":"68.11W"}
{"date":"2011-05-01","average_temperature":"18.224","city":"Sanda","latitude":"34.56N","longitude":"134.27E"}
{"date":"2011-07-01","average_temperature":"11.975999999999999","city":"Santa Fe","latitude":"31.35S","longitude":"60.31W"}
{"date":"2012-12-01","average_temperature":"27.426","city":"Santa Marta","latitude":"10.45N","longitude":"74.45W"}
{"date":"2010-09-01","average_temperature":"27.701","city":"Santa Rosa","latitude":"13.66N","longitude":"121.38E"}
{"date":"2013-09-01","city":"Santa Teresa","latitude":"10.45N","longitude":"66.27W"}
{"date":"2012-03-01","average_temperature":"11.758","city":"Santiago","latitude":"32.95S","longitude":"69.89W"}
{"date":"2010-12-01","average_temperature":"23.216","city":"Santo André","latitude":"23.31S","longitude":"46.31W"}
{"date":"2012-08-01","average_temperature":"28.301","city":"Santo Domingo","latitude":"18.48N","longitude":"69.30W"}
{"date":"2012-09-01","average_temperature":"23.105","city":"Saqqez","latitude":"36.17N","longitude":"45.75E"}
{"date":"2010-11-01","average_temperature":"8.061","city":"Sarajevo","latitude":"44.20N","longitude":"17.89E"}
{"date":"2010-04-01","average_temperature":"5.1099999999999985","city":"Sarapul","latitude":"57.05N","longitude":"54.59E"}
{"date":"2010-07-01","average_temperature":"21.539","city":"Sarapul","latitude":"57.05N","longitude":"54.59E"}
{"date":"2010-02-01","average_temperature":"4.646000000000001","city":"Seattle","latitude":"47.42N","longitude":"121.97W"}
{"date":"2012-11-01","average_temperature":"4.831","city":"Seattle","latitude":"47.42N","longitude":"121.97W"}
{"date":"2011-12-01","average_temperature":"19.769000000000002","city":"Seoni","latitude":"21.70N","longitude":"78.75E"}
{"date":"2010-12-01","average_temperature":"-8.186","city":"Serpukhov","latitude":"55.45N","longitude":"36.85E"}
{"date":"2011-04-01","average_temperature":"17.733","city":"Shahrud","latitude":"36.17N","longitude":"55.69E"}
{"date":"2010-12-01","average_temperature":"4.362","city":"Shangqiu","latitude":"34.56N","longitude":"114.81E"}
{"date":"2012-08-01","average_temperature":"26.496","city":"Shangqiu","latitude":"34.56N","longitude":"114.81E"}
{"date":"2013-01-01","average_temperature":"17.757","city":"Shantipur","latitude":"23.31N","longitude":"88.25E"}
{"date":"2011-04-01","average_temperature":"18.396","city":"Shashi","latitude":"29.74N","longitude":"112.62E"}
{"date":"2013-09-01","city":"Shashi","latitude":"29.74N","longitude":"112.62E"}
{"date":"2012-10-01","average_temperature":"9.496","city":"Sherbrooke","latitude":"45.81N","longitude":"72.69W"}
{"date":"2013-07-01","average_temperature":"27.998","city":"Shillong","latitude":"24.92N","longitude":"92.22E"}
{"date":"2010-03-01","average_temperature":"14.244000000000002","city":"Shimla","latitude":"31.35N","longitude":"77.28E"}
{"date":"2011-07-01","average_temperature":"26.92","city":"Shiyan","latitude":"32.95N","longitude":"110.11E"}
{"date":"2013-02-01","average_temperature":"-1.246","city":"Shunyi","latitude":"39.38N","longitude":"116.53E"}
{"date":"2010-08-01","average_temperature":"26.283","city":"Shymkent","latitude":"42.59N","longitude":"69.82E"}
{"date":"2013-06-01","average_temperature":"28.616","city":"Si Racha","latitude":"13.66N","longitude":"101.56E"}
{"date":"2010-11-01","average_temperature":"3.0439999999999996","city":"Siauliai","latitude":"55.45N","longitude":"22.68E"}
{"date":"2013-05-01","average_temperature":"27.132","city":"Sibu","latitude":"2.41N","longitude":"111.70E"}
{"date":"2013-07-01","average_temperature":"26.738000000000003","city":"Sidoarjo","latitude":"7.23S","longitude":"112.70E"}
{"date":"2011-06-01","average_temperature":"23.402","city":"Siirt","latitude":"37.78N","longitude":"42.71E"}
{"date":"2013-09-01","city":"Sikasso","latitude":"10.45N","longitude":"5.73W"}
{"date":"2012-03-01","average_temperature":"11.576","city":"Simi Valley","latitude":"34.56N","longitude":"118.70W"}
{"date":"2010-10-01","average_temperature":"27.844","city":"Sincelejo","latitude":"8.84N","longitude":"75.41W"}
{"date":"2013-08-01","average_temperature":"27.297","city":"Sirjan","latitude":"29.74N","longitude":"55.38E"}
{"date":"2010-11-01","average_temperature":"5.4639999999999995","city":"Slough","latitude":"52.24N","longitude":"0.00W"}
{"date":"2011-01-01","average_temperature":"14.043","city":"Sohag","latitude":"26.52N","longitude":"32.24E"}
{"date":"2012-07-01","average_temperature":"24.444000000000006","city":"Soka","latitude":"36.17N","longitude":"139.23E"}
{"date":"2012-02-01","average_temperature":"-0.975","city":"Solingen","latitude":"50.63N","longitude":"6.34E"}
{"date":"2013-07-01","average_temperature":"17.104000000000006","city":"Sorocaba","latitude":"23.31S","longitude":"48.06W"}
{"date":"2011-12-01","average_temperature":"1.8040000000000005","city":"South Bend","latitude":"40.99N","longitude":"85.21W"}
{"date":"2013-03-01","average_temperature":"25.426","city":"Spanish Town","latitude":"18.48N","longitude":"77.75W"}
{"date":"2010-02-01","average_temperature":"2.775","city":"Stara Zagora","latitude":"42.59N","longitude":"26.18E"}
{"date":"2013-09-01","city":"Staryy Oskol","latitude":"50.63N","longitude":"36.76E"}
{"date":"2010-03-01","average_temperature":"-0.366","city":"Stockholm","latitude":"58.66N","longitude":"18.46E"}
{"date":"2012-04-01","average_temperature":"11.943","city":"Suceava","latitude":"47.42N","longitude":"27.24E"}
{"date":"2013-05-01","average_temperature":"10.884","city":"Sucre","latitude":"18.48S","longitude":"65.92W"}
{"date":"2010-01-01","average_temperature":"13.157","city":"Sur","latitude":"32.95N","longitude":"35.43E"}
{"date":"2010-12-01","average_temperature":"12.382","city":"Susah","latitude":"36.17N","longitude":"9.94E"}
{"date":"2012-07-01","average_temperature":"14.74","city":"Sydney","latitude":"34.56S","longitude":"151.78E"}
{"date":"2011-06-01","average_temperature":"22.223000000000003","city":"Syracuse","latitude":"37.78N","longitude":"16.27E"}
{"date":"2010-12-01","average_temperature":"-7.084","city":"Syzran","latitude":"53.84N","longitude":"47.73E"}
{"date":"2012-04-01","average_temperature":"21.167","city":"Tacna","latitude":"18.48S","longitude":"70.99W"}
{"date":"2012-01-01","average_temperature":"24.175","city":"Tadepallegudem","latitude":"16.87N","longitude":"82.05E"}
{"date":"2012-04-01","average_temperature":"16.535999999999998","city":"Taian","latitude":"36.17N","longitude":"117.35E"}
{"date":"2011-10-01","average_temperature":"24.218000000000004","city":"Taipei","latitude":"24.92N","longitude":"122.36E"}
{"date":"2010-02-01","average_temperature":"-2.4799999999999995","city":"Taiyuan","latitude":"37.78N","longitude":"111.86E"}
{"date":"2010-03-01","average_temperature":"2.274","city":"Taiyuan","latitude":"37.78N","longitude":"111.86E"}
{"date":"2012-12-01","average_temperature":"2.9609999999999994","city":"Takasaki","latitude":"36.17N","longitude":"139.23E"}
{"date":"2013-01-01","average_temperature":"27.406","city":"Takoradi","latitude":"5.63N","longitude":"1.61W"}
{"date":"2010-09-01","average_temperature":"27.974","city":"Talisay","latitude":"10.45N","longitude":"123.55E"}
{"date":"2010-01-01","average_temperature":"16.637999999999998","city":"Talkha","latitude":"31.35N","longitude":"32.04E"}
{"date":"2010-07-01","average_temperature":"28.649","city":"Tallahassee","latitude":"29.74N","longitude":"84.92W"}
{"date":"2013-08-01","average_temperature":"26.364","city":"Tama","latitude":"36.17N","longitude":"139.23E"}
{"date":"2013-08-01","average_temperature":"19.983","city":"Tambov","latitude":"52.24N","longitude":"42.04E"}
{"date":"2011-01-01","average_temperature":"26.558000000000003","city":"Tambun","latitude":"5.63S","longitude":"106.55E"}
{"date":"2012-03-01","average_temperature":"18.744","city":"Tandil","latitude":"37.78S","longitude":"58.98W"}
{"date":"2013-01-01","average_temperature":"15.039000000000001","city":"Tanta","latitude":"31.35N","longitude":"30.16E"}
{"date":"2013-04-01","average_temperature":"30.005","city":"Tanza","latitude":"15.27N","longitude":"120.83E"}
{"date":"2013-03-01","average_temperature":"18.025","city":"Taoyüan","latitude":"24.92N","longitude":"120.59E"}
{"date":"2012-07-01","average_temperature":"25.669","city":"Tapachula","latitude":"15.27N","longitude":"92.50W"}
{"date":"2010-04-01","average_temperature":"15.778","city":"Tarija","latitude":"21.70S","longitude":"64.90W"}
{"date":"2012-02-01","average_temperature":"18.954","city":"Tarija","latitude":"21.70S","longitude":"64.90W"}
{"date":"2012-04-01","average_temperature":"16.339000000000002","city":"Tarija","latitude":"21.70S","longitude":"64.90W"}
{"date":"2012-06-01","average_temperature":"10.963","city":"Tarija","latitude":"21.70S","longitude":"64.90W"}
{"date":"2012-08-01","average_temperature":"19.262999999999998","city":"Tarnow","latitude":"50.63N","longitude":"21.55E"}
{"date":"2011-09-01","average_temperature":"18.343","city":"Tashkent","latitude":"40.99N","longitude":"70.30E"}
{"date":"2012-06-01","average_temperature":"18.113","city":"Taubaté","latitude":"23.31S","longitude":"46.31W"}
{"date":"2010-02-01","average_temperature":"26.816","city":"Tawau","latitude":"4.02N","longitude":"118.13E"}
{"date":"2013-08-01","average_temperature":"21.685","city":"Teófilo Otoni","latitude":"18.48S","longitude":"42.25W"}
{"date":"2013-09-01","city":"Tema","latitude":"5.63N","longitude":"0.00W"}
{"date":"2010-04-01","average_temperature":"22.233","city":"Teresópolis","latitude":"21.70S","longitude":"42.40W"}
{"date":"2013-09-01","city":"Teresópolis","latitude":"21.70S","longitude":"42.40W"}
{"date":"2011-06-01","average_temperature":"26.418000000000003","city":"Ternate","latitude":"0.80N","longitude":"127.77E"}
{"date":"2010-02-01","average_temperature":"18.625","city":"Thái Nguyên","latitude":"21.70N","longitude":"106.44E"}
{"date":"2011-12-01","average_temperature":"25.268","city":"Thanyaburi","latitude":"13.66N","longitude":"101.56E"}
{"date":"2011-06-01","average_temperature":"26.493","city":"Thiruvananthapuram","latitude":"8.84N","longitude":"77.03E"}
{"date":"2011-10-01","average_temperature":"18.692","city":"Tijuana","latitude":"32.95N","longitude":"117.77W"}
{"date":"2012-10-01","average_temperature":"22.456000000000003","city":"Tlaquepaque","latitude":"20.09N","longitude":"104.08W"}
{"date":"2012-07-01","average_temperature":"27.196","city":"Tokuyama","latitude":"34.56N","longitude":"132.32E"}
{"date":"2010-10-01","average_temperature":"12.292","city":"Tongchuan","latitude":"34.56N","longitude":"108.97E"}
{"date":"2012-03-01","average_temperature":"9.431","city":"Tongling","latitude":"31.35N","longitude":"118.74E"}
{"date":"2013-06-01","average_temperature":"28.048000000000002","city":"Touliu","latitude":"23.31N","longitude":"119.71E"}
{"date":"2012-03-01","average_temperature":"9.156","city":"Toulouse","latitude":"44.20N","longitude":"2.24E"}
{"date":"2010-08-01","average_temperature":"22.561999999999998","city":"Townsville","latitude":"18.48S","longitude":"147.04E"}
{"date":"2012-07-01","average_temperature":"25.355","city":"Toyokawa","latitude":"34.56N","longitude":"138.16E"}
{"date":"2010-02-01","average_temperature":"21.566","city":"Trujillo","latitude":"8.84S","longitude":"78.65W"}
{"date":"2012-06-01","average_temperature":"26.063000000000002","city":"Tucheng","latitude":"24.92N","longitude":"120.59E"}
{"date":"2010-11-01","average_temperature":"21.048","city":"Tuluá","latitude":"4.02N","longitude":"76.34W"}
{"date":"2012-02-01","average_temperature":"25.574","city":"Tumkur","latitude":"13.66N","longitude":"76.79E"}
{"date":"2012-12-01","average_temperature":"23.377","city":"Tumkur","latitude":"13.66N","longitude":"76.79E"}
{"date":"2010-04-01","average_temperature":"10.139","city":"Tuzla","latitude":"44.20N","longitude":"17.89E"}
{"date":"2013-08-01","average_temperature":"26.364","city":"Ueda","latitude":"36.17N","longitude":"139.23E"}
{"date":"2010-10-01","average_temperature":"28.774","city":"Ulhasnagar","latitude":"18.48N","longitude":"72.68E"}
{"date":"2011-10-01","average_temperature":"28.097","city":"Ulubaria","latitude":"23.31N","longitude":"88.25E"}
{"date":"2013-06-01","average_temperature":"26.475","city":"Uyo","latitude":"5.63N","longitude":"8.07E"}
{"date":"2011-02-01","average_temperature":"24.412","city":"Várzea Paulista","latitude":"23.31S","longitude":"46.31W"}
{"date":"2011-08-01","average_temperature":"11.600999999999999","city":"Valparaiso","latitude":"32.95S","longitude":"71.81W"}
{"date":"2010-10-01","average_temperature":"21.987","city":"Varginha","latitude":"21.70S","longitude":"45.87W"}
{"date":"2011-06-01","average_temperature":"26.666999999999998","city":"Veracruz","latitude":"18.48N","longitude":"96.34W"}
{"date":"2010-01-01","average_temperature":"24.374000000000002","city":"Viamão","latitude":"29.74S","longitude":"51.69W"}
{"date":"2011-08-01","average_temperature":"32.952","city":"Vihari","latitude":"29.74N","longitude":"72.00E"}
{"date":"2010-09-01","average_temperature":"13.488","city":"Villeurbanne","latitude":"45.81N","longitude":"5.77E"}
{"date":"2012-04-01","average_temperature":"14.79","city":"Vina Del Mar","latitude":"32.95S","longitude":"71.81W"}
{"date":"2013-03-01","average_temperature":"15.297","city":"Vina Del Mar","latitude":"32.95S","longitude":"71.81W"}
{"date":"2013-06-01","average_temperature":"10.761","city":"Virginia","latitude":"28.13S","longitude":"26.36E"}
{"date":"2010-08-01","average_temperature":"26.987","city":"Visakhapatnam","latitude":"18.48N","longitude":"82.82E"}
{"date":"2013-02-01","average_temperature":"-5.102","city":"Vladimir","latitude":"55.45N","longitude":"39.69E"}
{"date":"2010-01-01","average_temperature":"-10.24","city":"Volgograd","latitude":"49.03N","longitude":"44.08E"}
{"date":"2012-12-01","average_temperature":"1.872","city":"Würzburg","latitude":"49.03N","longitude":"9.80E"}
{"date":"2013-03-01","average_temperature":"19.316000000000006","city":"Waitakere","latitude":"36.17S","longitude":"175.03E"}
{"date":"2013-04-01","average_temperature":"27.615","city":"Waru","latitude":"7.23S","longitude":"112.70E"}
{"date":"2013-07-01","average_temperature":"26.738000000000003","city":"Waru","latitude":"7.23S","longitude":"112.70E"}
{"date":"2011-10-01","average_temperature":"19.421000000000006","city":"Welkom","latitude":"28.13S","longitude":"26.36E"}
{"date":"2010-01-01","average_temperature":"-2.053","city":"Wencheng","latitude":"37.78N","longitude":"122.03E"}
{"date":"2011-03-01","average_temperature":"4.0360000000000005","city":"Wencheng","latitude":"37.78N","longitude":"122.03E"}
{"date":"2012-02-01","average_temperature":"-1.129","city":"Wencheng","latitude":"37.78N","longitude":"122.03E"}
{"date":"2011-10-01","average_temperature":"19.726","city":"Wenzhou","latitude":"28.13N","longitude":"120.91E"}
{"date":"2012-05-01","average_temperature":"15.206","city":"West Jordan","latitude":"40.99N","longitude":"112.90W"}
{"date":"2012-05-01","average_temperature":"15.206","city":"West Valley City","latitude":"40.99N","longitude":"112.90W"}
{"date":"2010-10-01","average_temperature":"11.867","city":"Windsor","latitude":"42.59N","longitude":"82.91W"}
{"date":"2013-09-01","city":"Witten","latitude":"52.24N","longitude":"7.88E"}
{"date":"2010-09-01","average_temperature":"13.825999999999999","city":"Worcester","latitude":"32.95S","longitude":"20.11E"}
{"date":"2012-03-01","average_temperature":"2.318","city":"Wuda","latitude":"39.38N","longitude":"106.13E"}
{"date":"2013-07-01","average_temperature":"31.171","city":"Wuhan","latitude":"29.74N","longitude":"114.46E"}
{"date":"2010-10-01","average_temperature":"18.032","city":"Wuxi","latitude":"31.35N","longitude":"120.63E"}
{"date":"2011-06-01","average_temperature":"24.638","city":"Wuxi","latitude":"31.35N","longitude":"120.63E"}
{"date":"2012-09-01","average_temperature":"22.66","city":"Wuxue","latitude":"29.74N","longitude":"116.31E"}
{"date":"2013-06-01","average_temperature":"23.522","city":"Xian","latitude":"34.56N","longitude":"108.97E"}
{"date":"2011-12-01","average_temperature":"-1.7380000000000002","city":"Xingtai","latitude":"37.78N","longitude":"113.90E"}
{"date":"2011-05-01","average_temperature":"9.295","city":"Xining","latitude":"36.17N","longitude":"101.44E"}
{"date":"2010-09-01","average_temperature":"22.19","city":"Xinyang","latitude":"32.95N","longitude":"113.94E"}
{"date":"2010-10-01","average_temperature":"16.014","city":"Xuzhou","latitude":"34.56N","longitude":"116.76E"}
{"date":"2011-07-01","average_temperature":"28.061","city":"Xuzhou","latitude":"34.56N","longitude":"116.76E"}
{"date":"2010-12-01","average_temperature":"17.364","city":"Yangjiang","latitude":"21.70N","longitude":"111.63E"}
{"date":"2013-09-01","city":"Yaoundé","latitude":"4.02N","longitude":"12.05E"}
{"date":"2013-05-01","average_temperature":"14.821","city":"Yaroslavl","latitude":"57.05N","longitude":"39.84E"}
{"date":"2010-02-01","average_temperature":"25.647","city":"Yavatmal","latitude":"20.09N","longitude":"78.48E"}
{"date":"2012-08-01","average_temperature":"24.517","city":"Yibin","latitude":"28.13N","longitude":"104.55E"}
{"date":"2011-05-01","average_temperature":"19.226","city":"Yidu","latitude":"36.17N","longitude":"119.34E"}
{"date":"2010-11-01","average_temperature":"13.275","city":"Yingcheng","latitude":"31.35N","longitude":"113.09E"}
{"date":"2010-10-01","average_temperature":"8.687000000000001","city":"Yingkou","latitude":"40.99N","longitude":"123.55E"}
{"date":"2010-05-01","average_temperature":"27.255","city":"Yogyakarta","latitude":"7.23S","longitude":"111.08E"}
{"date":"2012-01-01","average_temperature":"4.225","city":"York","latitude":"53.84N","longitude":"1.36W"}
{"date":"2012-09-01","average_temperature":"23.217","city":"Yushan","latitude":"31.35N","longitude":"120.63E"}
{"date":"2012-10-01","average_temperature":"13.76","city":"Zanjan","latitude":"36.17N","longitude":"47.73E"}
{"date":"2012-07-01","average_temperature":"29.053","city":"Zaozhuang","latitude":"34.56N","longitude":"116.76E"}
{"date":"2013-02-01","average_temperature":"7.7860000000000005","city":"Zaragoza","latitude":"40.99N","longitude":"0.00W"}
{"date":"2011-07-01","average_temperature":"21.775","city":"Zhangjiakou","latitude":"40.99N","longitude":"115.03E"}
{"date":"2010-01-01","average_temperature":"2.225","city":"Zhaoyang","latitude":"32.95N","longitude":"119.68E"}
{"date":"2012-12-01","average_temperature":"17.49","city":"Zhongshan","latitude":"21.70N","longitude":"113.37E"}
{"date":"2010-10-01","average_temperature":"14.298","city":"Zhoucheng","latitude":"24.92N","longitude":"102.86E"}
{"date":"2010-02-01","average_temperature":"8.769","city":"Zhuzhou","latitude":"28.13N","longitude":"113.64E"}
{"date":"2012-03-01","average_temperature":"29.003","city":"Zinder","latitude":"13.66N","longitude":"9.08E"}
{"date":"2010-11-01","average_temperature":"5.385","city":"Zoetermeer","latitude":"52.24N","longitude":"5.26E"}
{"date":"2010-09-01","average_temperature":"19.698","city":"Zonguldak","latitude":"40.99N","longitude":"31.95E"}
