{"date":"2012-02-01","average_temperature":"-22.101","city":"Öskemen","latitude":"50.63N","longitude":"82.39E"}
{"date":"2013-01-01","average_temperature":"-13.558","city":"Ürümqi","latitude":"44.20N","longitude":"87.20E"}
{"date":"2012-09-01","average_temperature":"13.822","city":"Aachen","latitude":"50.63N","longitude":"6.34E"}
{"date":"2012-05-01","average_temperature":"27.245","city":"Aba","latitude":"5.63N","longitude":"8.07E"}
{"date":"2011-09-01","average_temperature":"34.364000000000004","city":"Abadan","latitude":"29.74N","longitude":"48.00E"}
{"date":"2011-07-01","average_temperature":"31.954","city":"Abilene","latitude":"32.95N","longitude":"100.53W"}
{"date":"2010-12-01","average_temperature":"13.603000000000002","city":"Abohar","latitude":"29.74N","longitude":"73.85E"}
{"date":"2012-06-01","average_temperature":"26.816999999999997","city":"Abomey Calavi","latitude":"7.23N","longitude":"2.43E"}
{"date":"2011-03-01","average_temperature":"31.176","city":"Abuja","latitude":"8.84N","longitude":"7.30E"}
{"date":"2010-06-01","average_temperature":"26.732","city":"Agboville","latitude":"5.63N","longitude":"4.84W"}
{"date":"2010-04-01","average_temperature":"33.051","city":"Ajmer","latitude":"26.52N","longitude":"75.22E"}
{"date":"2010-01-01","average_temperature":"2.608","city":"Akishima","latitude":"36.17N","longitude":"139.23E"}
{"date":"2012-05-01","average_temperature":"18.921","city":"Akron","latitude":"40.99N","longitude":"80.95W"}
{"date":"2010-11-01","average_temperature":"3.0989999999999998","city":"Aksu","latitude":"40.99N","longitude":"80.95E"}
{"date":"2012-10-01","average_temperature":"25.805","city":"Alagoinhas","latitude":"12.05S","longitude":"37.81W"}
{"date":"2010-08-01","average_temperature":"29.165","city":"Alanya","latitude":"36.17N","longitude":"31.82E"}
{"date":"2012-01-01","average_temperature":"5.114","city":"Albacete","latitude":"39.38N","longitude":"2.08W"}
{"date":"2011-11-01","average_temperature":"18.326","city":"Albury","latitude":"36.17S","longitude":"147.18E"}
{"date":"2013-06-01","average_temperature":"27.292","city":"Aleppo","latitude":"36.17N","longitude":"37.79E"}
{"date":"2011-09-01","average_temperature":"15.788","city":"Almere","latitude":"52.24N","longitude":"5.26E"}
{"date":"2010-04-01","average_temperature":"29.092","city":"Alor Setar","latitude":"5.63N","longitude":"100.09E"}
{"date":"2010-09-01","average_temperature":"20.97","city":"Americana","latitude":"23.31S","longitude":"48.06W"}
{"date":"2012-05-01","average_temperature":"18.539","city":"Americana","latitude":"23.31S","longitude":"48.06W"}
{"date":"2010-03-01","average_temperature":"26.386","city":"Amroha","latitude":"28.13N","longitude":"79.09E"}
{"date":"2013-03-01","average_temperature":"30.693","city":"Anantapur","latitude":"15.27N","longitude":"77.50E"}
{"date":"2010-07-01","average_temperature":"24.468000000000004","city":"Ancona","latitude":"44.20N","longitude":"13.42E"}
{"date":"2012-04-01","average_temperature":"15.746","city":"Angren","latitude":"40.99N","longitude":"70.30E"}
{"date":"2012-07-01","average_temperature":"26.26","city":"Anjo","latitude":"34.56N","longitude":"136.22E"}
{"date":"2010-04-01","average_temperature":"21.384","city":"Antananarivo","latitude":"18.48S","longitude":"47.32E"}
{"date":"2012-12-01","average_temperature":"23.103","city":"Antsirabe","latitude":"20.09S","longitude":"47.77E"}
{"date":"2011-09-01","average_temperature":"23.206000000000003","city":"Araras","latitude":"21.70S","longitude":"47.60W"}
{"date":"2013-07-01","average_temperature":"19.026","city":"Araras","latitude":"21.70S","longitude":"47.60W"}
{"date":"2011-10-01","average_temperature":"22.526","city":"Arusha","latitude":"4.02S","longitude":"36.16E"}
{"date":"2012-04-01","average_temperature":"10.807","city":"Aurora","latitude":"39.38N","longitude":"104.05W"}
{"date":"2012-09-01","average_temperature":"27.357","city":"Azare","latitude":"12.05N","longitude":"9.86E"}
{"date":"2010-06-01","average_temperature":"27.248","city":"Baguio","latitude":"16.87N","longitude":"120.56E"}
{"date":"2012-01-01","average_temperature":"-18.674","city":"Baicheng","latitude":"45.81N","longitude":"123.46E"}
{"date":"2011-10-01","average_temperature":"27.956999999999997","city":"Baleshwar","latitude":"21.70N","longitude":"87.40E"}
{"date":"2013-07-01","average_temperature":"30.159000000000002","city":"Balurghat","latitude":"24.92N","longitude":"88.67E"}
{"date":"2011-01-01","average_temperature":"26.257","city":"Banda Aceh","latitude":"5.63N","longitude":"95.25E"}
{"date":"2011-04-01","average_temperature":"27.42","city":"Bandar Maharani","latitude":"2.41N","longitude":"102.05E"}
{"date":"2011-07-01","average_temperature":"27.877","city":"Bandar Maharani","latitude":"2.41N","longitude":"102.05E"}
{"date":"2011-02-01","average_temperature":"2.6439999999999997","city":"Baneh","latitude":"36.17N","longitude":"45.75E"}
{"date":"2013-01-01","average_temperature":"24.168000000000006","city":"Bangalore","latitude":"12.05N","longitude":"77.26E"}
{"date":"2010-08-01","average_temperature":"25.374000000000002","city":"Bangui","latitude":"4.02N","longitude":"18.48E"}
{"date":"2010-11-01","average_temperature":"23.98","city":"Bankura","latitude":"23.31N","longitude":"86.50E"}
{"date":"2013-02-01","average_temperature":"-17.178","city":"Baoshan","latitude":"47.42N","longitude":"131.45E"}
{"date":"2012-04-01","average_temperature":"30.299","city":"Barakpur","latitude":"23.31N","longitude":"88.25E"}
{"date":"2012-04-01","average_temperature":"27.979000000000006","city":"Barranquilla","latitude":"10.45N","longitude":"74.45W"}
{"date":"2013-04-01","average_temperature":"25.761","city":"Barreiras","latitude":"12.05S","longitude":"44.38W"}
{"date":"2013-09-01","city":"Barueri","latitude":"23.31S","longitude":"46.31W"}
{"date":"2011-10-01","average_temperature":"25.441","city":"Baruta","latitude":"10.45N","longitude":"66.27W"}
{"date":"2010-10-01","average_temperature":"7.004","city":"Basel","latitude":"47.42N","longitude":"8.29E"}
{"date":"2010-10-01","average_temperature":"24.950000000000006","city":"Bata","latitude":"2.41N","longitude":"10.45E"}
{"date":"2012-12-01","average_temperature":"26.038","city":"Bata","latitude":"2.41N","longitude":"10.45E"}
{"date":"2010-10-01","average_temperature":"22.125999999999998","city":"Beaumont","latitude":"29.74N","longitude":"94.15W"}
{"date":"2013-02-01","average_temperature":"20.561","city":"Begusarai","latitude":"24.92N","longitude":"86.90E"}
{"date":"2012-09-01","average_temperature":"14.41","city":"Beian","latitude":"47.42N","longitude":"126.71E"}
{"date":"2010-08-01","average_temperature":"23.883000000000006","city":"Beipiao","latitude":"40.99N","longitude":"121.42E"}
{"date":"2011-03-01","average_temperature":"25.967","city":"Belford Roxo","latitude":"23.31S","longitude":"42.82W"}
{"date":"2012-06-01","average_temperature":"26.849","city":"Belgaum","latitude":"15.27N","longitude":"74.17E"}
{"date":"2010-03-01","average_temperature":"31.411","city":"Bellary","latitude":"15.27N","longitude":"77.50E"}
{"date":"2012-09-01","average_temperature":"28.090999999999998","city":"Bellary","latitude":"15.27N","longitude":"77.50E"}
{"date":"2010-05-01","average_temperature":"27.807","city":"Bengkulu","latitude":"4.02S","longitude":"102.05E"}
{"date":"2013-08-01","average_temperature":"28.588","city":"Beni Suef","latitude":"29.74N","longitude":"31.38E"}
{"date":"2010-01-01","average_temperature":"23.398000000000003","city":"Berbera","latitude":"10.45N","longitude":"45.00E"}
{"date":"2012-09-01","average_temperature":"32.354","city":"Berbera","latitude":"10.45N","longitude":"45.00E"}
{"date":"2012-02-01","average_temperature":"20.571","city":"Bhairab Bazar","latitude":"24.92N","longitude":"90.44E"}
{"date":"2012-07-01","average_temperature":"20.743000000000002","city":"Bharatpur","latitude":"28.13N","longitude":"84.55E"}
{"date":"2012-02-01","average_temperature":"22.408","city":"Bhatpara","latitude":"23.31N","longitude":"88.25E"}
{"date":"2010-05-01","average_temperature":"34.733000000000004","city":"Bhilai","latitude":"21.70N","longitude":"82.21E"}
{"date":"2010-04-01","average_temperature":"31.288","city":"Bhimavaram","latitude":"16.87N","longitude":"82.05E"}
{"date":"2011-07-01","average_temperature":"18.885","city":"Bialystok","latitude":"53.84N","longitude":"23.18E"}
{"date":"2013-06-01","average_temperature":"28.180999999999997","city":"Bid","latitude":"18.48N","longitude":"76.06E"}
{"date":"2011-05-01","average_temperature":"14.277999999999999","city":"Bielsko Biala","latitude":"50.63N","longitude":"19.01E"}
{"date":"2012-09-01","average_temperature":"15.085","city":"Bielsko Biala","latitude":"50.63N","longitude":"19.01E"}
{"date":"2012-06-01","average_temperature":"27.208","city":"Bintulu","latitude":"2.41N","longitude":"113.30E"}
{"date":"2010-12-01","average_temperature":"-0.09099999999999996","city":"Binzhou","latitude":"37.78N","longitude":"117.97E"}
{"date":"2011-10-01","average_temperature":"23.952","city":"Biratnagar","latitude":"26.52N","longitude":"87.76E"}
{"date":"2010-04-01","average_temperature":"21.396","city":"Birjand","latitude":"32.95N","longitude":"58.40E"}
{"date":"2011-10-01","average_temperature":"16.172","city":"Birmingham","latitude":"32.95N","longitude":"87.13W"}
{"date":"2010-09-01","average_temperature":"14.163","city":"Blackpool","latitude":"53.84N","longitude":"4.09W"}
{"date":"2010-09-01","average_temperature":"24.083000000000002","city":"Blantyre","latitude":"15.27S","longitude":"35.83E"}
{"date":"2011-06-01","average_temperature":"29.585","city":"Bokaro","latitude":"23.31N","longitude":"86.50E"}
{"date":"2012-08-01","average_temperature":"24.446","city":"Bologna","latitude":"44.20N","longitude":"11.18E"}
{"date":"2012-02-01","average_temperature":"3.855","city":"Bolton","latitude":"53.84N","longitude":"1.36W"}
{"date":"2012-12-01","average_temperature":"26.828000000000003","city":"Bombay","latitude":"18.48N","longitude":"72.68E"}
{"date":"2012-09-01","average_temperature":"20.178","city":"Borujerd","latitude":"34.56N","longitude":"48.65E"}
{"date":"2010-04-01","average_temperature":"28.191000000000006","city":"Bouaké","latitude":"7.23N","longitude":"5.68W"}
{"date":"2011-07-01","average_temperature":"25.601","city":"Bouaké","latitude":"7.23N","longitude":"5.68W"}
{"date":"2011-02-01","average_temperature":"22.88","city":"Brasília","latitude":"15.27S","longitude":"47.50W"}
{"date":"2013-09-01","city":"Brazzaville","latitude":"4.02S","longitude":"15.27E"}
{"date":"2013-09-01","city":"Bremerhaven","latitude":"53.84N","longitude":"9.55E"}
{"date":"2011-11-01","average_temperature":"13.677","city":"Brest","latitude":"49.03N","longitude":"4.90W"}
{"date":"2013-05-01","average_temperature":"14.137","city":"Bridgeport","latitude":"40.99N","longitude":"72.43W"}
{"date":"2011-11-01","average_temperature":"2.42","city":"Brno","latitude":"49.03N","longitude":"17.14E"}
{"date":"2013-08-01","average_temperature":"18.69","city":"Brugge","latitude":"50.63N","longitude":"3.80E"}
{"date":"2010-02-01","average_temperature":"25.094","city":"Buon Me Thuot","latitude":"12.05N","longitude":"108.49E"}
{"date":"2010-10-01","average_temperature":"26.706999999999997","city":"Burhanpur","latitude":"21.70N","longitude":"77.02E"}
{"date":"2011-05-01","average_temperature":"13.975","city":"Buzau","latitude":"45.81N","longitude":"26.54E"}
{"date":"2011-01-01","average_temperature":"24.67","city":"Cúa","latitude":"10.45N","longitude":"66.27W"}
{"date":"2012-08-01","average_temperature":"22.072","city":"Cúcuta","latitude":"7.23N","longitude":"72.16W"}
{"date":"2010-11-01","average_temperature":"27.621","city":"Cadiz","latitude":"10.45N","longitude":"123.55E"}
{"date":"2011-09-01","average_temperature":"27.332","city":"Calabozo","latitude":"8.84N","longitude":"67.30W"}
{"date":"2010-02-01","average_temperature":"18.659","city":"Calama","latitude":"23.31S","longitude":"69.03W"}
{"date":"2013-09-01","city":"Calamba","latitude":"13.66N","longitude":"121.38E"}
{"date":"2011-11-01","average_temperature":"25.066999999999997","city":"Camagüey","latitude":"21.70N","longitude":"78.75W"}
{"date":"2010-12-01","average_temperature":"-3.526","city":"Cambridge","latitude":"42.59N","longitude":"72.00W"}
{"date":"2011-10-01","average_temperature":"25.845","city":"Campina Grande","latitude":"7.23S","longitude":"36.49W"}
{"date":"2010-05-01","average_temperature":"18.679000000000002","city":"Campinas","latitude":"23.31S","longitude":"46.31W"}
{"date":"2012-08-01","average_temperature":"28.846999999999998","city":"Cap Haïtien","latitude":"20.09N","longitude":"71.66W"}
{"date":"2010-09-01","average_temperature":"25.589000000000002","city":"Cape Coast","latitude":"5.63N","longitude":"1.61W"}
{"date":"2012-05-01","average_temperature":"26.863000000000003","city":"Cape Coast","latitude":"5.63N","longitude":"1.61W"}
{"date":"2012-08-01","average_temperature":"29.563","city":"Cartagena","latitude":"10.45N","longitude":"76.09W"}
{"date":"2013-03-01","average_temperature":"22.881999999999998","city":"Cartago","latitude":"4.02N","longitude":"76.34W"}
{"date":"2013-08-01","average_temperature":"23.18","city":"Cartago","latitude":"4.02N","longitude":"76.34W"}
{"date":"2011-03-01","average_temperature":"13.134","city":"Casablanca","latitude":"32.95N","longitude":"6.70W"}
{"date":"2010-06-01","average_temperature":"26.694000000000003","city":"Castanhal","latitude":"0.80S","longitude":"47.41W"}
{"date":"2011-10-01","average_temperature":"26.813","city":"Cavite","latitude":"15.27N","longitude":"120.83E"}
{"date":"2011-08-01","average_temperature":"22.389","city":"Cedar Rapids","latitude":"42.59N","longitude":"91.64W"}
{"date":"2010-02-01","average_temperature":"12.39","city":"Chalco","latitude":"20.09N","longitude":"98.96W"}
{"date":"2012-05-01","average_temperature":"32.232","city":"Chandannagar","latitude":"23.31N","longitude":"88.25E"}
{"date":"2010-01-01","average_temperature":"13.819","city":"Chandausi","latitude":"28.13N","longitude":"79.09E"}
{"date":"2010-01-01","average_temperature":"17.354000000000006","city":"Chandpur","latitude":"23.31N","longitude":"90.00E"}
{"date":"2010-01-01","average_temperature":"14.421","city":"Chaozhou","latitude":"23.31N","longitude":"116.21E"}
{"date":"2010-10-01","average_temperature":"22.963","city":"Chaozhou","latitude":"23.31N","longitude":"116.21E"}
{"date":"2010-08-01","average_temperature":"27.52","city":"Charlotte","latitude":"34.56N","longitude":"81.73W"}
{"date":"2010-02-01","average_temperature":"2.696","city":"Cheltenham","latitude":"52.24N","longitude":"2.63W"}
{"date":"2012-12-01","average_temperature":"-4.761","city":"Cherkasy","latitude":"49.03N","longitude":"31.84E"}
{"date":"2011-01-01","average_temperature":"4.425","city":"Chesapeake","latitude":"36.17N","longitude":"75.58W"}
{"date":"2012-08-01","average_temperature":"7.005","city":"Chillan","latitude":"36.17S","longitude":"71.60W"}
{"date":"2012-06-01","average_temperature":"25.967","city":"Chizhou","latitude":"31.35N","longitude":"116.86E"}
{"date":"2012-04-01","average_temperature":"18.749000000000002","city":"Chongqing","latitude":"29.74N","longitude":"107.08E"}
{"date":"2011-05-01","average_temperature":"11.4","city":"Christchurch","latitude":"44.20S","longitude":"172.17E"}
{"date":"2012-10-01","average_temperature":"24.98","city":"Chuncheng","latitude":"21.70N","longitude":"111.63E"}
{"date":"2013-06-01","average_temperature":"28.014","city":"Chuncheng","latitude":"21.70N","longitude":"111.63E"}
{"date":"2010-06-01","average_temperature":"35.019","city":"Churu","latitude":"28.13N","longitude":"75.45E"}
{"date":"2011-10-01","average_temperature":"26.184","city":"Cianjur","latitude":"7.23S","longitude":"107.84E"}
{"date":"2010-09-01","average_temperature":"25.455","city":"Cicalengka","latitude":"7.23S","longitude":"107.84E"}
{"date":"2011-10-01","average_temperature":"26.184","city":"Cikampek","latitude":"7.23S","longitude":"107.84E"}
{"date":"2011-08-01","average_temperature":"27.091","city":"Cikarang","latitude":"5.63S","longitude":"106.55E"}
{"date":"2013-01-01","average_temperature":"26.741999999999997","city":"Cikarang","latitude":"5.63S","longitude":"106.55E"}
{"date":"2010-06-01","average_temperature":"27.388","city":"Cikupa","latitude":"5.63S","longitude":"106.55E"}
{"date":"2010-09-01","average_temperature":"26.296999999999997","city":"Cilegon","latitude":"5.63S","longitude":"106.55E"}
{"date":"2011-09-01","average_temperature":"25.772","city":"Cimahi","latitude":"7.23S","longitude":"107.84E"}
{"date":"2013-03-01","average_temperature":"25.63","city":"Ciparay","latitude":"7.23S","longitude":"107.84E"}
{"date":"2011-04-01","average_temperature":"26.798","city":"Cisaat","latitude":"7.23S","longitude":"106.22E"}
{"date":"2011-11-01","average_temperature":"25.671999999999997","city":"Ciudad Guayana","latitude":"8.84N","longitude":"62.43W"}
{"date":"2012-07-01","average_temperature":"28.019","city":"Clearwater","latitude":"28.13N","longitude":"82.73W"}
{"date":"2010-04-01","average_temperature":"9.501","city":"Clermont Ferrand","latitude":"45.81N","longitude":"3.46E"}
{"date":"2011-11-01","average_temperature":"8.334","city":"Cleveland","latitude":"40.99N","longitude":"80.95W"}
{"date":"2013-01-01","average_temperature":"18.463","city":"Colima","latitude":"20.09N","longitude":"104.08W"}
{"date":"2010-06-01","average_temperature":"17.029","city":"Cologne","latitude":"50.63N","longitude":"6.34E"}
{"date":"2013-09-01","city":"Colombo","latitude":"7.23N","longitude":"80.27E"}
{"date":"2012-02-01","average_temperature":"-2.33","city":"Colorado Springs","latitude":"39.38N","longitude":"104.05W"}
{"date":"2010-09-01","average_temperature":"20.279","city":"Columbus","latitude":"39.38N","longitude":"83.24W"}
{"date":"2012-01-01","average_temperature":"16.793","city":"Concepcion","latitude":"36.17S","longitude":"73.59W"}
{"date":"2011-08-01","average_temperature":"13.137","city":"Concordia","latitude":"31.35S","longitude":"58.43W"}
{"date":"2011-08-01","average_temperature":"26.656999999999996","city":"Constantine","latitude":"36.17N","longitude":"5.97E"}
{"date":"2010-06-01","average_temperature":"10.792000000000002","city":"Cordoba","latitude":"31.35S","longitude":"64.08W"}
{"date":"2011-08-01","average_temperature":"29.499","city":"Coro","latitude":"12.05N","longitude":"69.04W"}
{"date":"2012-11-01","average_temperature":"25.191000000000006","city":"Corrientes","latitude":"28.13S","longitude":"59.09W"}
{"date":"2013-03-01","average_temperature":"15.344","city":"Costa Mesa","latitude":"32.95N","longitude":"117.77W"}
{"date":"2012-02-01","average_temperature":"26.578000000000003","city":"Cotabato","latitude":"7.23N","longitude":"124.05E"}
{"date":"2013-06-01","average_temperature":"18.124000000000002","city":"Cotia","latitude":"23.31S","longitude":"46.31W"}
{"date":"2012-04-01","average_temperature":"9.474","city":"Cottbus","latitude":"52.24N","longitude":"13.14E"}
{"date":"2013-05-01","average_temperature":"10.168","city":"Crawley","latitude":"50.63N","longitude":"1.27W"}
{"date":"2012-01-01","average_temperature":"12.901","city":"Cuautitlán Izcalli","latitude":"20.09N","longitude":"98.96W"}
{"date":"2011-05-01","average_temperature":"25.745","city":"Da Lat","latitude":"12.05N","longitude":"108.49E"}
{"date":"2011-07-01","average_temperature":"26.744","city":"Da Nang","latitude":"15.27N","longitude":"107.50E"}
{"date":"2013-09-01","city":"Dabrowa Gornicza","latitude":"50.63N","longitude":"19.01E"}
{"date":"2011-06-01","average_temperature":"36.076","city":"Dadu","latitude":"26.52N","longitude":"68.06E"}
{"date":"2013-05-01","average_temperature":"18.358","city":"Daito","latitude":"34.56N","longitude":"136.22E"}
{"date":"2012-05-01","average_temperature":"24.753","city":"Dakar","latitude":"15.27N","longitude":"17.50W"}
{"date":"2013-05-01","average_temperature":"25.978","city":"Daliang","latitude":"23.31N","longitude":"112.72E"}
{"date":"2011-09-01","average_temperature":"28.184","city":"Damaturu","latitude":"12.05N","longitude":"11.51E"}
{"date":"2012-03-01","average_temperature":"28.164","city":"Dar Es Salaam","latitude":"7.23S","longitude":"39.73E"}
{"date":"2012-06-01","average_temperature":"16.963","city":"Datong","latitude":"40.99N","longitude":"112.90E"}
{"date":"2010-11-01","average_temperature":"3.35","city":"Daugavpils","latitude":"55.45N","longitude":"25.51E"}
{"date":"2013-05-01","average_temperature":"23.921","city":"Debre Zeyit","latitude":"8.84N","longitude":"39.73E"}
{"date":"2010-01-01","average_temperature":"-15.830000000000002","city":"Dehui","latitude":"44.20N","longitude":"125.22E"}
{"date":"2012-10-01","average_temperature":"6.974","city":"Dehui","latitude":"44.20N","longitude":"125.22E"}
{"date":"2013-07-01","average_temperature":"28.296999999999997","city":"Delmas","latitude":"18.48N","longitude":"72.68W"}
{"date":"2013-06-01","average_temperature":"26.935","city":"Depok","latitude":"7.23S","longitude":"109.46E"}
{"date":"2012-06-01","average_temperature":"31.967","city":"Dewas","latitude":"23.31N","longitude":"76.02E"}
{"date":"2013-06-01","average_temperature":"30.133000000000003","city":"Dhaka","latitude":"23.31N","longitude":"90.00E"}
{"date":"2011-11-01","average_temperature":"-4.745","city":"Didao","latitude":"45.81N","longitude":"130.38E"}
{"date":"2012-01-01","average_temperature":"25.647","city":"Digos","latitude":"7.23N","longitude":"125.68E"}
{"date":"2012-02-01","average_temperature":"18.622","city":"Dimapur","latitude":"26.52N","longitude":"93.13E"}
{"date":"2013-09-01","city":"Dimapur","latitude":"26.52N","longitude":"93.13E"}
{"date":"2010-12-01","average_temperature":"-6.175","city":"Dingzhou","latitude":"39.38N","longitude":"114.45E"}
{"date":"2012-11-01","average_temperature":"24.901","city":"Dodoma","latitude":"5.63S","longitude":"35.52E"}
{"date":"2013-06-01","average_temperature":"23.708","city":"Dos Hermanas","latitude":"37.78N","longitude":"6.10W"}
{"date":"2010-11-01","average_temperature":"18.433","city":"Dos Quebradas","latitude":"5.63N","longitude":"75.87W"}
{"date":"2013-02-01","average_temperature":"25.656999999999996","city":"Dumaguete","latitude":"8.84N","longitude":"124.05E"}
{"date":"2011-04-01","average_temperature":"4.619","city":"Dunhua","latitude":"42.59N","longitude":"128.73E"}
{"date":"2012-03-01","average_temperature":"26.717","city":"Duque De Caxias","latitude":"23.31S","longitude":"42.82W"}
{"date":"2010-11-01","average_temperature":"18.49","city":"East London","latitude":"32.95S","longitude":"27.77E"}
{"date":"2012-02-01","average_temperature":"26.386999999999997","city":"Edéa","latitude":"4.02N","longitude":"10.45E"}
{"date":"2010-10-01","average_temperature":"10.279000000000002","city":"Ede","latitude":"52.24N","longitude":"5.26E"}
{"date":"2010-12-01","average_temperature":"-2.115","city":"Edinburgh","latitude":"55.45N","longitude":"2.83W"}
{"date":"2011-05-01","average_temperature":"11.052999999999999","city":"Edinburgh","latitude":"55.45N","longitude":"2.83W"}
{"date":"2010-02-01","average_temperature":"-8.753","city":"Edmonton","latitude":"53.84N","longitude":"113.18W"}
{"date":"2012-08-01","average_temperature":"16.829","city":"Edmonton","latitude":"53.84N","longitude":"113.18W"}
{"date":"2011-12-01","average_temperature":"-14.893","city":"Ekibastuz","latitude":"52.24N","longitude":"76.20E"}
{"date":"2010-03-01","average_temperature":"12.437000000000001","city":"El Monte","latitude":"34.56N","longitude":"118.70W"}
{"date":"2013-05-01","average_temperature":"34.889","city":"Eluru","latitude":"16.87N","longitude":"80.37E"}
{"date":"2010-01-01","average_temperature":"23.816000000000006","city":"Erode","latitude":"12.05N","longitude":"77.26E"}
{"date":"2010-06-01","average_temperature":"21.719","city":"Esenyurt","latitude":"40.99N","longitude":"27.69E"}
{"date":"2011-09-01","average_temperature":"19.621","city":"Eskisehir","latitude":"39.38N","longitude":"31.21E"}
{"date":"2012-05-01","average_temperature":"19.47","city":"Esmeraldas","latitude":"20.09S","longitude":"44.36W"}
{"date":"2010-02-01","average_temperature":"6.821000000000001","city":"Eugene","latitude":"44.20N","longitude":"122.98W"}
{"date":"2012-11-01","average_temperature":"7.631","city":"Exeter","latitude":"50.63N","longitude":"3.80W"}
{"date":"2011-10-01","average_temperature":"18.326","city":"Ezhou","latitude":"29.74N","longitude":"114.46E"}
{"date":"2010-10-01","average_temperature":"23.465","city":"Fianarantsoa","latitude":"21.70S","longitude":"47.60E"}
{"date":"2012-07-01","average_temperature":"19.311","city":"Florencia","latitude":"2.41N","longitude":"76.34W"}
{"date":"2012-03-01","average_temperature":"3.006","city":"Focsani","latitude":"45.81N","longitude":"26.54E"}
{"date":"2012-05-01","average_temperature":"20.136","city":"Formosa","latitude":"26.52S","longitude":"57.31W"}
{"date":"2010-02-01","average_temperature":"-3.116","city":"Fort Collins","latitude":"40.99N","longitude":"104.38W"}
{"date":"2010-12-01","average_temperature":"13.45","city":"Fort Lauderdale","latitude":"26.52N","longitude":"80.60W"}
{"date":"2013-09-01","average_temperature":"19.016","city":"Fort Wayne","latitude":"40.99N","longitude":"85.21W"}
{"date":"2011-12-01","average_temperature":"28.741999999999997","city":"Fortaleza","latitude":"4.02S","longitude":"40.98W"}
{"date":"2012-06-01","average_temperature":"27.873","city":"Foshan","latitude":"23.31N","longitude":"112.72E"}
{"date":"2012-05-01","average_temperature":"18.169","city":"Francisco Morato","latitude":"23.31S","longitude":"46.31W"}
{"date":"2010-05-01","average_temperature":"20.875","city":"Fresnillo","latitude":"23.31N","longitude":"102.23W"}
{"date":"2011-10-01","average_temperature":"15.488","city":"Fukaya","latitude":"36.17N","longitude":"139.23E"}
{"date":"2011-07-01","average_temperature":"28.476999999999997","city":"Fuyang","latitude":"32.95N","longitude":"115.85E"}
{"date":"2010-09-01","average_temperature":"20.96","city":"Gaborone","latitude":"24.92S","longitude":"26.60E"}
{"date":"2010-01-01","average_temperature":"20.625999999999998","city":"Gandhidham","latitude":"23.31N","longitude":"70.78E"}
{"date":"2012-06-01","average_temperature":"32.5","city":"Gandhinagar","latitude":"23.31N","longitude":"72.52E"}
{"date":"2012-09-01","average_temperature":"30.096","city":"Ganganagar","latitude":"29.74N","longitude":"73.85E"}
{"date":"2010-01-01","average_temperature":"0.3290000000000002","city":"Gazni","latitude":"32.95N","longitude":"67.98E"}
{"date":"2010-08-01","average_temperature":"19.193","city":"Gdynia","latitude":"53.84N","longitude":"17.73E"}
{"date":"2012-12-01","average_temperature":"7.399999999999999","city":"Gebze","latitude":"40.99N","longitude":"29.82E"}
{"date":"2012-02-01","average_temperature":"20.223000000000006","city":"Geelong","latitude":"37.78S","longitude":"144.41E"}
{"date":"2013-08-01","average_temperature":"10.440999999999999","city":"Geelong","latitude":"37.78S","longitude":"144.41E"}
{"date":"2013-04-01","average_temperature":"22.930999999999997","city":"General Escobedo","latitude":"26.52N","longitude":"100.30W"}
{"date":"2013-05-01","average_temperature":"11.788","city":"Gent","latitude":"50.63N","longitude":"3.80E"}
{"date":"2011-07-01","average_temperature":"16.495","city":"Gijón","latitude":"44.20N","longitude":"6.71W"}
{"date":"2012-07-01","average_temperature":"26.381","city":"Giugliano In Campania","latitude":"40.99N","longitude":"14.91E"}
{"date":"2012-06-01","average_temperature":"12.993","city":"Gloucester","latitude":"52.24N","longitude":"2.63W"}
{"date":"2012-12-01","average_temperature":"16.396","city":"Gonda","latitude":"26.52N","longitude":"82.39E"}
{"date":"2012-07-01","average_temperature":"29.535999999999998","city":"Gorakhpur","latitude":"26.52N","longitude":"84.18E"}
{"date":"2010-07-01","average_temperature":"22.679000000000002","city":"Gorzow Wielkopolski","latitude":"52.24N","longitude":"15.77E"}
{"date":"2010-03-01","average_temperature":"4.44","city":"Grand Rapids","latitude":"42.59N","longitude":"85.09W"}
{"date":"2013-05-01","average_temperature":"16.905","city":"Grand Rapids","latitude":"42.59N","longitude":"85.09W"}
{"date":"2010-07-01","average_temperature":"20.778000000000002","city":"Grenoble","latitude":"45.81N","longitude":"5.77E"}
{"date":"2013-06-01","average_temperature":"18.124000000000002","city":"Guarujá","latitude":"23.31S","longitude":"46.31W"}
{"date":"2013-06-01","average_temperature":"33.172","city":"Gudalur","latitude":"12.05N","longitude":"80.55E"}
{"date":"2011-05-01","average_temperature":"13.13","city":"Guelph","latitude":"44.20N","longitude":"80.50W"}
{"date":"2010-10-01","average_temperature":"25.256999999999998","city":"Gujranwala","latitude":"32.95N","longitude":"73.72E"}
{"date":"2010-03-01","average_temperature":"26.23","city":"Gulu","latitude":"2.41N","longitude":"32.95E"}
{"date":"2013-01-01","average_temperature":"24.801","city":"Guntur","latitude":"16.87N","longitude":"80.37E"}
{"date":"2012-09-01","average_temperature":"29.128","city":"Gwalior","latitude":"26.52N","longitude":"78.81E"}
{"date":"2012-02-01","average_temperature":"0.3759999999999999","city":"Haarlem","latitude":"52.24N","longitude":"5.26E"}
{"date":"2011-01-01","average_temperature":"0.8170000000000001","city":"Hachioji","latitude":"36.17N","longitude":"139.23E"}
{"date":"2011-04-01","average_temperature":"11.175","city":"Hadano","latitude":"36.17N","longitude":"139.23E"}
{"date":"2013-04-01","average_temperature":"21.305","city":"Haicheng","latitude":"23.31N","longitude":"114.47E"}
{"date":"2012-07-01","average_temperature":"24.264","city":"Haicheng","latitude":"40.99N","longitude":"123.55E"}
{"date":"2012-06-01","average_temperature":"28.159","city":"Haikou","latitude":"20.09N","longitude":"110.90E"}
{"date":"2013-08-01","average_temperature":"16.910999999999998","city":"Hailar","latitude":"49.03N","longitude":"120.00E"}
{"date":"2012-12-01","average_temperature":"11.984000000000002","city":"Haldwani","latitude":"29.74N","longitude":"79.38E"}
{"date":"2011-02-01","average_temperature":"-1.837","city":"Halifax","latitude":"44.20N","longitude":"62.61W"}
{"date":"2011-04-01","average_temperature":"7.04","city":"Hamilton","latitude":"42.59N","longitude":"80.73W"}
{"date":"2011-01-01","average_temperature":"11.493","city":"Hanumangarh","latitude":"29.74N","longitude":"73.85E"}
{"date":"2011-01-01","average_temperature":"0.2","city":"Hanzhong","latitude":"32.95N","longitude":"106.28E"}
{"date":"2011-10-01","average_temperature":"17.294999999999998","city":"Hayward","latitude":"37.78N","longitude":"122.03W"}
{"date":"2010-09-01","average_temperature":"14.652","city":"Hegang","latitude":"47.42N","longitude":"131.45E"}
{"date":"2011-04-01","average_temperature":"3.867","city":"Heihe","latitude":"50.63N","longitude":"128.03E"}
{"date":"2013-01-01","average_temperature":"0.5409999999999999","city":"Heilbronn","latitude":"49.03N","longitude":"9.80E"}
{"date":"2011-03-01","average_temperature":"8.64","city":"Hengshui","latitude":"37.78N","longitude":"115.93E"}
{"date":"2010-10-01","average_temperature":"24.575","city":"Hialeah","latitude":"26.52N","longitude":"80.60W"}
{"date":"2013-08-01","average_temperature":"18.346","city":"Hildesheim","latitude":"52.24N","longitude":"10.51E"}
{"date":"2010-06-01","average_temperature":"21.521","city":"Hiratsuka","latitude":"36.17N","longitude":"139.23E"}
{"date":"2013-02-01","average_temperature":"-9.224","city":"Hohhot","latitude":"40.99N","longitude":"110.77E"}
{"date":"2012-08-01","average_temperature":"28.725","city":"Holguín","latitude":"20.09N","longitude":"76.78W"}
{"date":"2010-05-01","average_temperature":"26.882","city":"Hollywood","latitude":"26.52N","longitude":"80.60W"}
{"date":"2011-03-01","average_temperature":"18.805999999999997","city":"Houston","latitude":"29.74N","longitude":"96.00W"}
{"date":"2011-11-01","average_temperature":"13.158","city":"Huainan","latitude":"32.95N","longitude":"117.77E"}
{"date":"2013-07-01","average_temperature":"27.790000000000006","city":"Huelva","latitude":"37.78N","longitude":"6.10W"}
{"date":"2012-01-01","average_temperature":"15.113","city":"Huntington Beach","latitude":"32.95N","longitude":"117.77W"}
{"date":"2010-01-01","average_temperature":"28.597","city":"Ibadan","latitude":"7.23N","longitude":"4.05E"}
{"date":"2013-08-01","average_temperature":"26.587","city":"Iida","latitude":"36.17N","longitude":"137.24E"}
{"date":"2011-12-01","average_temperature":"26.515","city":"Ijero","latitude":"7.23N","longitude":"5.68E"}
{"date":"2012-10-01","average_temperature":"25.759","city":"Ikere","latitude":"7.23N","longitude":"5.68E"}
{"date":"2011-02-01","average_temperature":"28.828000000000003","city":"Ikire","latitude":"7.23N","longitude":"4.05E"}
{"date":"2013-04-01","average_temperature":"27.658","city":"Ikole","latitude":"7.23N","longitude":"5.68E"}
{"date":"2013-05-01","average_temperature":"27.219","city":"Ikot Ekpene","latitude":"5.63N","longitude":"8.07E"}
{"date":"2011-12-01","average_temperature":"8.867999999999997","city":"Inglewood","latitude":"34.56N","longitude":"118.70W"}
{"date":"2011-07-01","average_temperature":"13.099","city":"Innsbruck","latitude":"47.42N","longitude":"10.66E"}
{"date":"2013-06-01","average_temperature":"20.927","city":"Iruma","latitude":"36.17N","longitude":"139.23E"}
{"date":"2010-05-01","average_temperature":"15.248","city":"Irvine","latitude":"32.95N","longitude":"117.77W"}
{"date":"2010-08-01","average_temperature":"19.428","city":"Irvine","latitude":"32.95N","longitude":"117.77W"}
{"date":"2011-12-01","average_temperature":"26.515","city":"Ise","latitude":"7.23N","longitude":"5.68E"}
{"date":"2011-06-01","average_temperature":"26.461","city":"Iseyin","latitude":"7.23N","longitude":"4.05E"}
{"date":"2011-01-01","average_temperature":"23.208","city":"Isiro","latitude":"2.41N","longitude":"28.13E"}
{"date":"2011-02-01","average_temperature":"24.711","city":"Isiro","latitude":"2.41N","longitude":"28.13E"}
{"date":"2011-11-01","average_temperature":"22.406999999999996","city":"Isiro","latitude":"2.41N","longitude":"28.13E"}
{"date":"2010-10-01","average_temperature":"23.148000000000003","city":"Iskenderun","latitude":"36.17N","longitude":"35.80E"}
{"date":"2010-10-01","average_temperature":"19.398","city":"Itaquaquecetuba","latitude":"23.31S","longitude":"46.31W"}
{"date":"2011-08-01","average_temperature":"19.32","city":"Itu","latitude":"23.31S","longitude":"48.06W"}
{"date":"2011-04-01","average_temperature":"28.71","city":"Iwo","latitude":"7.23N","longitude":"4.05E"}
{"date":"2010-12-01","average_temperature":"9.352","city":"Jaén","latitude":"37.78N","longitude":"4.07W"}
{"date":"2011-01-01","average_temperature":"8.587","city":"Jaén","latitude":"37.78N","longitude":"4.07W"}
{"date":"2012-01-01","average_temperature":"16.435","city":"Jabalpur","latitude":"23.31N","longitude":"79.51E"}
{"date":"2010-11-01","average_temperature":"27.191999999999997","city":"Jaffna","latitude":"8.84N","longitude":"80.27E"}
{"date":"2012-08-01","average_temperature":"27.049","city":"Jakarta","latitude":"5.63S","longitude":"106.55E"}
{"date":"2012-05-01","average_temperature":"28.685","city":"Jamame","latitude":"0.80N","longitude":"42.59E"}
{"date":"2011-05-01","average_temperature":"31.008000000000003","city":"Jamuria","latitude":"23.31N","longitude":"86.50E"}
{"date":"2012-08-01","average_temperature":"19.069000000000006","city":"Jandira","latitude":"23.31S","longitude":"46.31W"}
{"date":"2013-03-01","average_temperature":"20.229","city":"Jaranwala","latitude":"31.35N","longitude":"73.51E"}
{"date":"2013-04-01","average_temperature":"27.055999999999997","city":"Jaranwala","latitude":"31.35N","longitude":"73.51E"}
{"date":"2011-09-01","average_temperature":"23.393","city":"Jerez","latitude":"36.17N","longitude":"5.97W"}
{"date":"2013-01-01","average_temperature":"15.505","city":"Jhansi","latitude":"24.92N","longitude":"78.03E"}
{"date":"2013-01-01","average_temperature":"-20.968000000000004","city":"Jiaohe","latitude":"44.20N","longitude":"127.45E"}
{"date":"2013-07-01","average_temperature":"14.392","city":"Jiayuguan","latitude":"39.38N","longitude":"97.80E"}
{"date":"2012-03-01","average_temperature":"21.355","city":"Jimma","latitude":"7.23N","longitude":"36.49E"}
{"date":"2010-01-01","average_temperature":"-1.253","city":"Jinan","latitude":"36.17N","longitude":"117.35E"}
{"date":"2011-05-01","average_temperature":"11.815","city":"Jining","latitude":"40.99N","longitude":"112.90E"}
{"date":"2010-08-01","average_temperature":"23.883000000000006","city":"Jinxi","latitude":"40.99N","longitude":"121.42E"}
{"date":"2011-11-01","average_temperature":"-2.611","city":"Jiutai","latitude":"44.20N","longitude":"125.22E"}
{"date":"2011-09-01","average_temperature":"28.601000000000006","city":"Jodhpur","latitude":"26.52N","longitude":"73.43E"}
{"date":"2012-01-01","average_temperature":"21.278000000000002","city":"Juiz De Fora","latitude":"21.70S","longitude":"44.13W"}
{"date":"2010-02-01","average_temperature":"24.83","city":"Jundiaí","latitude":"23.31S","longitude":"46.31W"}
{"date":"2012-12-01","average_temperature":"5.229","city":"Kadoma","latitude":"34.56N","longitude":"136.22E"}
{"date":"2012-06-01","average_temperature":"16.119","city":"Kadoma","latitude":"18.48S","longitude":"30.42E"}
{"date":"2011-07-01","average_temperature":"28.488000000000003","city":"Kaifeng","latitude":"34.56N","longitude":"114.81E"}
{"date":"2010-09-01","average_temperature":"21.430999999999997","city":"Kaili","latitude":"26.52N","longitude":"107.46E"}
{"date":"2011-05-01","average_temperature":"18.224","city":"Kakogawa","latitude":"34.56N","longitude":"134.27E"}
{"date":"2013-04-01","average_temperature":"6.244","city":"Kaluga","latitude":"53.84N","longitude":"36.82E"}
{"date":"2011-11-01","average_temperature":"10.802999999999999","city":"Kamagaya","latitude":"36.17N","longitude":"139.23E"}
{"date":"2013-01-01","average_temperature":"8.119000000000002","city":"Kamakura","latitude":"34.56N","longitude":"140.11E"}
{"date":"2011-03-01","average_temperature":"27.394","city":"Kamarhati","latitude":"23.31N","longitude":"88.25E"}
{"date":"2012-09-01","average_temperature":"27.682","city":"Kaolack","latitude":"13.66N","longitude":"15.69W"}
{"date":"2010-12-01","average_temperature":"-1.901","city":"Karlsruhe","latitude":"49.03N","longitude":"7.35E"}
{"date":"2010-10-01","average_temperature":"12.462","city":"Kashi","latitude":"39.38N","longitude":"76.99E"}
{"date":"2011-12-01","average_temperature":"11.540999999999999","city":"Kashipur","latitude":"29.74N","longitude":"79.38E"}
{"date":"2013-01-01","average_temperature":"8.727","city":"Kashipur","latitude":"29.74N","longitude":"79.38E"}
{"date":"2010-04-01","average_temperature":"13.144","city":"Kasuga","latitude":"32.95N","longitude":"131.17E"}
{"date":"2012-06-01","average_temperature":"19.359","city":"Kasukabe","latitude":"36.17N","longitude":"139.23E"}
{"date":"2011-07-01","average_temperature":"25.288","city":"Kawaguchi","latitude":"36.17N","longitude":"139.23E"}
{"date":"2010-01-01","average_temperature":"4.745","city":"Kawanishi","latitude":"34.56N","longitude":"136.22E"}
{"date":"2012-10-01","average_temperature":"28.901","city":"Kediri","latitude":"7.23S","longitude":"112.70E"}
{"date":"2011-12-01","average_temperature":"26.898000000000003","city":"Kedungwuni","latitude":"7.23S","longitude":"109.46E"}
{"date":"2011-11-01","average_temperature":"26.614","city":"Kemang","latitude":"7.23S","longitude":"106.22E"}
{"date":"2010-05-01","average_temperature":"16.56","city":"Kerch","latitude":"45.81N","longitude":"35.77E"}
{"date":"2012-07-01","average_temperature":"28.18","city":"Kerman","latitude":"29.74N","longitude":"57.23E"}
{"date":"2010-01-01","average_temperature":"23.639","city":"Khammam","latitude":"16.87N","longitude":"80.37E"}
{"date":"2010-09-01","average_temperature":"29.212","city":"Khulna","latitude":"23.31N","longitude":"90.00E"}
{"date":"2011-06-01","average_temperature":"28.813000000000002","city":"Khulna","latitude":"23.31N","longitude":"90.00E"}
{"date":"2012-05-01","average_temperature":"24.468000000000004","city":"Kikwit","latitude":"5.63S","longitude":"19.37E"}
{"date":"2011-08-01","average_temperature":"15.155999999999999","city":"Kingston Upon Hull","latitude":"53.84N","longitude":"1.36W"}
{"date":"2013-07-01","average_temperature":"19.313","city":"Kirov","latitude":"58.66N","longitude":"49.23E"}
{"date":"2011-12-01","average_temperature":"24.659000000000002","city":"Kisaran","latitude":"2.41N","longitude":"98.84E"}
{"date":"2010-05-01","average_temperature":"8.869","city":"Kitami","latitude":"44.20N","longitude":"143.11E"}
{"date":"2010-11-01","average_temperature":"21.64","city":"Klerksdorp","latitude":"26.52S","longitude":"26.87E"}
{"date":"2011-10-01","average_temperature":"26.418000000000003","city":"Kluang","latitude":"2.41N","longitude":"103.66E"}
{"date":"2010-09-01","average_temperature":"26.366999999999997","city":"Kollam","latitude":"8.84N","longitude":"77.03E"}
{"date":"2011-09-01","average_temperature":"9.556000000000001","city":"Komsomolsk Na Amure","latitude":"50.63N","longitude":"138.17E"}
{"date":"2012-11-01","average_temperature":"27.331","city":"Korhogo","latitude":"8.84N","longitude":"5.68W"}
{"date":"2010-09-01","average_temperature":"28.095","city":"Koronadal","latitude":"5.63N","longitude":"124.30E"}
{"date":"2011-02-01","average_temperature":"-13.964","city":"Kostroma","latitude":"57.05N","longitude":"39.84E"}
{"date":"2011-12-01","average_temperature":"3.663","city":"Koszalin","latitude":"53.84N","longitude":"15.00E"}
{"date":"2012-05-01","average_temperature":"28.621","city":"Kulim","latitude":"5.63N","longitude":"100.09E"}
{"date":"2010-08-01","average_temperature":"29.205","city":"Kumbakonam","latitude":"10.45N","longitude":"79.36E"}
{"date":"2010-10-01","average_temperature":"28.362","city":"Kumbakonam","latitude":"10.45N","longitude":"79.36E"}
{"date":"2012-11-01","average_temperature":"12.99","city":"Kunming","latitude":"24.92N","longitude":"102.86E"}
{"date":"2010-05-01","average_temperature":"28.18","city":"Kupang","latitude":"10.45S","longitude":"123.55E"}
{"date":"2013-01-01","average_temperature":"-17.618000000000006","city":"Kurgan","latitude":"55.45N","longitude":"65.20E"}
{"date":"2010-02-01","average_temperature":"27.912","city":"Kusti","latitude":"13.66N","longitude":"32.20E"}
{"date":"2013-04-01","average_temperature":"30.26","city":"Kusti","latitude":"13.66N","longitude":"32.20E"}
{"date":"2013-04-01","average_temperature":"-0.008000000000000007","city":"Kyzyl","latitude":"52.24N","longitude":"94.60E"}
{"date":"2011-04-01","average_temperature":"13.085999999999999","city":"Lárisa","latitude":"39.38N","longitude":"22.89E"}
{"date":"2012-06-01","average_temperature":"24.986","city":"Lárisa","latitude":"39.38N","longitude":"22.89E"}
{"date":"2011-12-01","average_temperature":"15.503","city":"Lakhimpur","latitude":"28.13N","longitude":"80.91E"}
{"date":"2011-11-01","average_temperature":"21.395","city":"Lakhnau","latitude":"26.52N","longitude":"80.60E"}
{"date":"2011-04-01","average_temperature":"7.693","city":"Lansing","latitude":"42.59N","longitude":"85.09W"}
{"date":"2010-03-01","average_temperature":"17.025","city":"Laredo","latitude":"28.13N","longitude":"99.09W"}
{"date":"2010-07-01","average_temperature":"35.497","city":"Larkana","latitude":"28.13N","longitude":"68.18E"}
{"date":"2012-04-01","average_temperature":"24.604","city":"Las Tunas","latitude":"21.70N","longitude":"77.02W"}
{"date":"2012-12-01","average_temperature":"13.902","city":"León","latitude":"21.70N","longitude":"101.25W"}
{"date":"2011-03-01","average_temperature":"6.862","city":"Leicester","latitude":"52.24N","longitude":"0.00W"}
{"date":"2012-08-01","average_temperature":"17.697000000000006","city":"Leicester","latitude":"52.24N","longitude":"0.00W"}
{"date":"2013-09-01","city":"Lengshuijiang","latitude":"28.13N","longitude":"111.82E"}
{"date":"2011-03-01","average_temperature":"10.759","city":"Lianran","latitude":"24.92N","longitude":"102.86E"}
{"date":"2013-06-01","average_temperature":"17.1","city":"Lilongwe","latitude":"13.66S","longitude":"33.85E"}
{"date":"2011-02-01","average_temperature":"25.244","city":"Limeira","latitude":"21.70S","longitude":"47.60W"}
{"date":"2011-07-01","average_temperature":"17.657","city":"Limoges","latitude":"45.81N","longitude":"1.15E"}
{"date":"2010-05-01","average_temperature":"25.329","city":"Linhares","latitude":"20.09S","longitude":"39.24W"}
{"date":"2011-12-01","average_temperature":"0.016","city":"Linqing","latitude":"36.17N","longitude":"115.36E"}
{"date":"2012-03-01","average_temperature":"7.604","city":"Linqing","latitude":"36.17N","longitude":"115.36E"}
{"date":"2013-07-01","average_temperature":"18.544","city":"Livingstone","latitude":"18.48S","longitude":"25.35E"}
{"date":"2011-07-01","average_temperature":"20.245","city":"Ljubljana","latitude":"45.81N","longitude":"15.00E"}
{"date":"2010-02-01","average_temperature":"13.774000000000001","city":"Long Beach","latitude":"32.95N","longitude":"117.77W"}
{"date":"2011-01-01","average_temperature":"26.431","city":"Long Xuyên","latitude":"10.45N","longitude":"105.55E"}
{"date":"2010-11-01","average_temperature":"22.595","city":"Los Mochis","latitude":"26.52N","longitude":"109.25W"}
{"date":"2010-12-01","average_temperature":"25.275","city":"Los Teques","latitude":"10.45N","longitude":"66.27W"}
{"date":"2013-04-01","average_temperature":"16.624000000000002","city":"Loudi","latitude":"28.13N","longitude":"111.82E"}
{"date":"2012-12-01","average_temperature":"23.789","city":"Loum","latitude":"5.63N","longitude":"9.69E"}
{"date":"2011-03-01","average_temperature":"16.104","city":"Lower Hutt","latitude":"40.99S","longitude":"174.67E"}
{"date":"2010-07-01","average_temperature":"21.488000000000003","city":"Luanda","latitude":"8.84S","longitude":"13.78E"}
{"date":"2011-08-01","average_temperature":"19.403","city":"Lubumbashi","latitude":"12.05S","longitude":"27.95E"}
{"date":"2010-04-01","average_temperature":"10.23","city":"Ludwigshafen","latitude":"49.03N","longitude":"7.35E"}
{"date":"2013-06-01","average_temperature":"24.788","city":"Luqiao","latitude":"28.13N","longitude":"120.91E"}
{"date":"2010-08-01","average_temperature":"27.25","city":"Luzhou","latitude":"29.74N","longitude":"105.23E"}
{"date":"2011-10-01","average_temperature":"22.761999999999997","city":"Luziânia","latitude":"16.87S","longitude":"48.56W"}
{"date":"2012-02-01","average_temperature":"-12.533","city":"Lyubertsy","latitude":"55.45N","longitude":"36.85E"}
{"date":"2013-04-01","average_temperature":"5.353","city":"Lyubertsy","latitude":"55.45N","longitude":"36.85E"}
{"date":"2011-01-01","average_temperature":"13.536","city":"Málaga","latitude":"36.17N","longitude":"3.98W"}
{"date":"2012-10-01","average_temperature":"26.991","city":"Mérida","latitude":"21.70N","longitude":"89.13W"}
{"date":"2013-06-01","average_temperature":"17.565","city":"Móstoles","latitude":"40.99N","longitude":"4.26W"}
{"date":"2013-04-01","average_temperature":"8.374","city":"Mönchengladbach","latitude":"50.63N","longitude":"6.34E"}
{"date":"2011-06-01","average_temperature":"16.518","city":"Mülheim","latitude":"50.63N","longitude":"6.34E"}
{"date":"2011-12-01","average_temperature":"25.416","city":"Madras","latitude":"13.66N","longitude":"80.09E"}
{"date":"2010-09-01","average_temperature":"26.244","city":"Madurai","latitude":"10.45N","longitude":"77.73E"}
{"date":"2010-06-01","average_temperature":"23.085","city":"Magé","latitude":"23.31S","longitude":"42.82W"}
{"date":"2012-01-01","average_temperature":"-16.291999999999998","city":"Magnitogorsk","latitude":"53.84N","longitude":"58.64E"}
{"date":"2010-10-01","average_temperature":"26.418000000000003","city":"Mahbubnagar","latitude":"16.87N","longitude":"78.70E"}
{"date":"2011-04-01","average_temperature":"27.807","city":"Maicao","latitude":"12.05N","longitude":"72.33W"}
{"date":"2013-05-01","average_temperature":"27.794","city":"Makasar","latitude":"5.63S","longitude":"119.46E"}
{"date":"2011-03-01","average_temperature":"27.156999999999996","city":"Makati","latitude":"15.27N","longitude":"120.83E"}
{"date":"2011-06-01","average_temperature":"27.416999999999998","city":"Malambo","latitude":"10.45N","longitude":"74.45W"}
{"date":"2013-06-01","average_temperature":"27.342","city":"Malang","latitude":"7.23S","longitude":"112.70E"}
{"date":"2012-10-01","average_temperature":"25.57","city":"Maler Kotla","latitude":"29.74N","longitude":"75.69E"}
{"date":"2012-06-01","average_temperature":"25.073","city":"Man","latitude":"7.23N","longitude":"7.30W"}
{"date":"2010-08-01","average_temperature":"26.675","city":"Manado","latitude":"0.80N","longitude":"124.55E"}
{"date":"2011-04-01","average_temperature":"26.404","city":"Manado","latitude":"0.80N","longitude":"124.55E"}
{"date":"2013-08-01","average_temperature":"19.579","city":"Manchester","latitude":"42.59N","longitude":"72.00W"}
{"date":"2012-04-01","average_temperature":"31.061999999999998","city":"Mandalay","latitude":"21.70N","longitude":"96.06E"}
{"date":"2013-08-01","average_temperature":"27.199","city":"Mandaue","latitude":"10.45N","longitude":"123.55E"}
{"date":"2011-10-01","average_temperature":"23.997","city":"Maoming","latitude":"21.70N","longitude":"111.63E"}
{"date":"2010-06-01","average_temperature":"12.164000000000001","city":"Mar Del Plata","latitude":"37.78S","longitude":"56.95W"}
{"date":"2011-11-01","average_temperature":"26.253","city":"Maracay","latitude":"10.45N","longitude":"67.91W"}
{"date":"2012-07-01","average_temperature":"30.305999999999997","city":"Mardan","latitude":"34.56N","longitude":"72.00E"}
{"date":"2012-11-01","average_temperature":"26.886999999999997","city":"Mariara","latitude":"10.45N","longitude":"67.91W"}
{"date":"2010-01-01","average_temperature":"25.261000000000006","city":"Matola","latitude":"26.52S","longitude":"32.24E"}
{"date":"2011-11-01","average_temperature":"10.802999999999999","city":"Matsudo","latitude":"36.17N","longitude":"139.23E"}
{"date":"2011-01-01","average_temperature":"26.296999999999997","city":"Maturín","latitude":"10.45N","longitude":"63.00W"}
{"date":"2010-05-01","average_temperature":"31.671","city":"Mau","latitude":"26.52N","longitude":"84.18E"}
{"date":"2013-01-01","average_temperature":"22.503","city":"Mauá","latitude":"23.31S","longitude":"46.31W"}
{"date":"2010-11-01","average_temperature":"28.024","city":"Mawlamyine","latitude":"16.87N","longitude":"97.12E"}
{"date":"2011-06-01","average_temperature":"29.216","city":"Maymyo","latitude":"21.70N","longitude":"96.06E"}
{"date":"2013-04-01","average_temperature":"23.264","city":"Mbour","latitude":"13.66N","longitude":"17.34W"}
{"date":"2012-03-01","average_temperature":"19.857","city":"Medellín","latitude":"5.63N","longitude":"75.87W"}
{"date":"2011-10-01","average_temperature":"27.721","city":"Meiktila","latitude":"20.09N","longitude":"95.55E"}
{"date":"2010-05-01","average_temperature":"27.088","city":"Mejicanos","latitude":"13.66N","longitude":"90.00W"}
{"date":"2010-02-01","average_temperature":"12.21","city":"Mersin","latitude":"36.17N","longitude":"33.81E"}
{"date":"2013-07-01","average_temperature":"17.782","city":"Miass","latitude":"55.45N","longitude":"59.53E"}
{"date":"2011-03-01","average_temperature":"3.4739999999999998","city":"Milwaukee","latitude":"42.59N","longitude":"87.27W"}
{"date":"2011-10-01","average_temperature":"13.837","city":"Milwaukee","latitude":"42.59N","longitude":"87.27W"}
{"date":"2013-04-01","average_temperature":"24.28","city":"Miramar","latitude":"26.52N","longitude":"80.60W"}
{"date":"2011-06-01","average_temperature":"27.972","city":"Miri","latitude":"4.02N","longitude":"113.30E"}
{"date":"2011-08-01","average_temperature":"27.599","city":"Miri","latitude":"4.02N","longitude":"113.30E"}
{"date":"2013-01-01","average_temperature":"12.116","city":"Moga","latitude":"31.35N","longitude":"75.39E"}
{"date":"2012-12-01","average_temperature":"24.826999999999998","city":"Mokolo","latitude":"10.45N","longitude":"13.91E"}
{"date":"2011-05-01","average_temperature":"27.533","city":"Monrovia","latitude":"7.23N","longitude":"10.54W"}
{"date":"2013-04-01","average_temperature":"23.059","city":"Montes Claros","latitude":"16.87S","longitude":"43.53W"}
{"date":"2012-05-01","average_temperature":"28.311999999999998","city":"Moratuwa","latitude":"7.23N","longitude":"80.27E"}
{"date":"2011-07-01","average_temperature":"29.577","city":"Morvi","latitude":"23.31N","longitude":"70.78E"}
{"date":"2010-09-01","average_temperature":"11.602","city":"Moscow","latitude":"55.45N","longitude":"36.85E"}
{"date":"2011-01-01","average_temperature":"-3.576","city":"Munich","latitude":"47.42N","longitude":"10.66E"}
{"date":"2010-04-01","average_temperature":"32.24","city":"Murwara","latitude":"23.31N","longitude":"81.26E"}
{"date":"2013-06-01","average_temperature":"30.229","city":"Myingyan","latitude":"21.70N","longitude":"96.06E"}
{"date":"2011-08-01","average_temperature":"26.136","city":"Nagda","latitude":"23.31N","longitude":"76.02E"}
{"date":"2010-01-01","average_temperature":"26.869","city":"Nakhon Si Thammarat","latitude":"8.84N","longitude":"99.73E"}
{"date":"2013-08-01","average_temperature":"18.69","city":"Namur","latitude":"50.63N","longitude":"3.80E"}
{"date":"2010-08-01","average_temperature":"17.62","city":"Nancy","latitude":"49.03N","longitude":"7.35E"}
{"date":"2010-03-01","average_temperature":"9.244","city":"Nanjing","latitude":"31.35N","longitude":"118.74E"}
{"date":"2011-11-01","average_temperature":"11.296","city":"Naples","latitude":"40.99N","longitude":"14.91E"}
{"date":"2012-12-01","average_temperature":"19.438","city":"Narayanganj","latitude":"23.31N","longitude":"90.00E"}
{"date":"2012-09-01","average_temperature":"21.197","city":"Nashville","latitude":"36.17N","longitude":"87.51W"}
{"date":"2011-01-01","average_temperature":"17.864","city":"Navadwip","latitude":"23.31N","longitude":"88.25E"}
{"date":"2011-10-01","average_temperature":"25.925","city":"Navsari","latitude":"20.09N","longitude":"73.36E"}
{"date":"2011-02-01","average_temperature":"20.95","city":"Nawabganj","latitude":"24.92N","longitude":"88.67E"}
{"date":"2012-03-01","average_temperature":"27.707","city":"Negombo","latitude":"7.23N","longitude":"80.27E"}
{"date":"2010-04-01","average_temperature":"19.797","city":"Newcastle","latitude":"32.95S","longitude":"152.23E"}
{"date":"2013-05-01","average_temperature":"10.977","city":"Nice","latitude":"44.20N","longitude":"6.71E"}
{"date":"2010-01-01","average_temperature":"2.608","city":"Niiza","latitude":"36.17N","longitude":"139.23E"}
{"date":"2013-05-01","average_temperature":"11.464","city":"Nijmegen","latitude":"52.24N","longitude":"5.26E"}
{"date":"2013-03-01","average_temperature":"29.465999999999998","city":"Nizamabad","latitude":"18.48N","longitude":"77.75E"}
{"date":"2011-09-01","average_temperature":"26.450000000000006","city":"Nkpor","latitude":"5.63N","longitude":"6.46E"}
{"date":"2010-11-01","average_temperature":"16.436","city":"North Shore","latitude":"36.17S","longitude":"175.03E"}
{"date":"2013-08-01","average_temperature":"24.413","city":"Nossa Senhora Do Socorro","latitude":"10.45S","longitude":"36.82W"}
{"date":"2010-06-01","average_temperature":"17.444999999999997","city":"Nova Friburgo","latitude":"21.70S","longitude":"42.40W"}
{"date":"2011-08-01","average_temperature":"13.856","city":"Novo Hamburgo","latitude":"29.74S","longitude":"51.69W"}
{"date":"2012-04-01","average_temperature":"8.0","city":"Oberhausen","latitude":"50.63N","longitude":"6.34E"}
{"date":"2010-09-01","average_temperature":"26.139000000000006","city":"Obosi","latitude":"5.63N","longitude":"6.46E"}
{"date":"2011-08-01","average_temperature":"20.003","city":"Oceanside","latitude":"32.95N","longitude":"117.77W"}
{"date":"2012-12-01","average_temperature":"2.7250000000000005","city":"Odesa","latitude":"45.81N","longitude":"31.15E"}
{"date":"2010-06-01","average_temperature":"18.567999999999998","city":"Odintsovo","latitude":"55.45N","longitude":"36.85E"}
{"date":"2010-08-01","average_temperature":"25.534000000000002","city":"Ogbomosho","latitude":"8.84N","longitude":"4.05E"}
{"date":"2011-01-01","average_temperature":"-4.862","city":"Olathe","latitude":"39.38N","longitude":"95.72W"}
{"date":"2013-03-01","average_temperature":"3.398000000000001","city":"Olathe","latitude":"39.38N","longitude":"95.72W"}
{"date":"2013-08-01","average_temperature":"26.364","city":"Ome","latitude":"36.17N","longitude":"139.23E"}
{"date":"2011-03-01","average_temperature":"-8.309000000000001","city":"Omsk","latitude":"55.45N","longitude":"73.70E"}
{"date":"2011-01-01","average_temperature":"27.29","city":"Ondo","latitude":"7.23N","longitude":"4.05E"}
{"date":"2013-02-01","average_temperature":"8.765","city":"Ontario","latitude":"34.56N","longitude":"116.76W"}
{"date":"2013-05-01","average_temperature":"16.578","city":"Orekhovo Zuevo","latitude":"55.45N","longitude":"39.69E"}
{"date":"2011-04-01","average_temperature":"7.518","city":"Orsha","latitude":"53.84N","longitude":"31.36E"}
{"date":"2012-09-01","average_temperature":"13.128","city":"Orsha","latitude":"53.84N","longitude":"31.36E"}
{"date":"2011-01-01","average_temperature":"-9.21","city":"Oshawa","latitude":"44.20N","longitude":"78.26W"}
{"date":"2010-01-01","average_temperature":"28.597","city":"Oshogbo","latitude":"7.23N","longitude":"4.05E"}
{"date":"2013-05-01","average_temperature":"26.956","city":"Oshogbo","latitude":"7.23N","longitude":"4.05E"}
{"date":"2011-11-01","average_temperature":"6.242000000000001","city":"Osmaniye","latitude":"37.78N","longitude":"36.61E"}
{"date":"2012-07-01","average_temperature":"3.7680000000000002","city":"Osorno","latitude":"40.99S","longitude":"72.43W"}
{"date":"2011-10-01","average_temperature":"11.0","city":"Otaru","latitude":"42.59N","longitude":"141.82E"}
{"date":"2013-08-01","average_temperature":"18.201","city":"Ottawa","latitude":"45.81N","longitude":"75.00W"}
{"date":"2013-05-01","average_temperature":"26.116999999999997","city":"Pôrto Velho","latitude":"8.84S","longitude":"64.05W"}
{"date":"2012-01-01","average_temperature":"26.449","city":"Pagadian","latitude":"7.23N","longitude":"124.05E"}
{"date":"2013-05-01","average_temperature":"34.354","city":"Pakpattan","latitude":"29.74N","longitude":"73.85E"}
{"date":"2010-02-01","average_temperature":"26.685","city":"Pallavaram","latitude":"13.66N","longitude":"80.09E"}
{"date":"2013-01-01","average_temperature":"26.741999999999997","city":"Pamulang","latitude":"5.63S","longitude":"106.55E"}
{"date":"2012-12-01","average_temperature":"22.575","city":"Parbhani","latitude":"20.09N","longitude":"76.78E"}
{"date":"2013-03-01","average_temperature":"27.948","city":"Parnamirim","latitude":"5.63S","longitude":"35.52W"}
{"date":"2010-04-01","average_temperature":"28.607","city":"Parung","latitude":"5.63S","longitude":"106.55E"}
{"date":"2011-10-01","average_temperature":"27.035999999999998","city":"Pasarkemis","latitude":"5.63S","longitude":"106.55E"}
{"date":"2012-06-01","average_temperature":"32.5","city":"Patan","latitude":"23.31N","longitude":"72.52E"}
{"date":"2010-02-01","average_temperature":"27.101","city":"Pathein","latitude":"16.87N","longitude":"95.44E"}
{"date":"2010-12-01","average_temperature":"25.145","city":"Payakumbuh","latitude":"0.80S","longitude":"100.45E"}
{"date":"2013-08-01","average_temperature":"32.225","city":"Peoria","latitude":"32.95N","longitude":"112.02W"}
{"date":"2012-01-01","average_temperature":"18.981","city":"Pereira","latitude":"5.63N","longitude":"75.87W"}
{"date":"2011-03-01","average_temperature":"11.886","city":"Peristérion","latitude":"37.78N","longitude":"24.41E"}
{"date":"2010-04-01","average_temperature":"13.927999999999999","city":"Pescara","latitude":"42.59N","longitude":"15.27E"}
{"date":"2012-07-01","average_temperature":"27.278000000000002","city":"Petaling Jaya","latitude":"2.41N","longitude":"102.05E"}
{"date":"2012-08-01","average_temperature":"23.517","city":"Petrópolis","latitude":"23.31S","longitude":"42.82W"}
{"date":"2012-03-01","average_temperature":"7.909000000000002","city":"Pforzheim","latitude":"49.03N","longitude":"9.80E"}
{"date":"2012-07-01","average_temperature":"32.665","city":"Phagwara","latitude":"31.35N","longitude":"75.39E"}
{"date":"2011-06-01","average_temperature":"15.771","city":"Phalaborwa","latitude":"23.31S","longitude":"30.58E"}
{"date":"2012-12-01","average_temperature":"28.123","city":"Phan Thiet","latitude":"10.45N","longitude":"107.18E"}
{"date":"2012-01-01","average_temperature":"25.296","city":"Phitsanulok","latitude":"16.87N","longitude":"100.47E"}
{"date":"2012-03-01","average_temperature":"16.579","city":"Pietermaritzburg","latitude":"29.74S","longitude":"29.54E"}
{"date":"2011-07-01","average_temperature":"28.371","city":"Pingtung","latitude":"23.31N","longitude":"119.71E"}
{"date":"2011-12-01","average_temperature":"23.248","city":"Piracicaba","latitude":"23.31S","longitude":"48.06W"}
{"date":"2010-09-01","average_temperature":"18.142","city":"Pitesti","latitude":"44.20N","longitude":"24.60E"}
{"date":"2011-01-01","average_temperature":"5.417000000000002","city":"Plano","latitude":"32.95N","longitude":"96.70W"}
{"date":"2011-01-01","average_temperature":"-3.842","city":"Ploiesti","latitude":"45.81N","longitude":"26.54E"}
{"date":"2013-05-01","average_temperature":"13.06","city":"Plzen","latitude":"50.63N","longitude":"13.94E"}
{"date":"2010-07-01","average_temperature":"22.131","city":"Porto","latitude":"40.99N","longitude":"8.52W"}
{"date":"2010-01-01","average_temperature":"21.56","city":"Potchefstroom","latitude":"26.52S","longitude":"26.87E"}
{"date":"2011-08-01","average_temperature":"12.089","city":"Potchefstroom","latitude":"26.52S","longitude":"26.87E"}
{"date":"2012-09-01","average_temperature":"19.958","city":"Potgietersrus","latitude":"23.31S","longitude":"28.83E"}
{"date":"2013-06-01","average_temperature":"18.124000000000002","city":"Praia Grande","latitude":"23.31S","longitude":"46.31W"}
{"date":"2011-11-01","average_temperature":"23.241","city":"Pretoria","latitude":"24.92S","longitude":"28.37E"}
{"date":"2013-04-01","average_temperature":"26.929","city":"Pringsewu","latitude":"5.63S","longitude":"104.93E"}
{"date":"2011-11-01","average_temperature":"2.295","city":"Pristina","latitude":"42.59N","longitude":"21.82E"}
{"date":"2013-08-01","average_temperature":"28.995","city":"Proddatur","latitude":"15.27N","longitude":"79.17E"}
{"date":"2010-03-01","average_temperature":"27.078000000000007","city":"Pucallpa","latitude":"8.84S","longitude":"73.78W"}
{"date":"2010-05-01","average_temperature":"27.631999999999998","city":"Puerto Cabello","latitude":"10.45N","longitude":"67.91W"}
{"date":"2010-02-01","average_temperature":"12.02","city":"Puerto Montt","latitude":"40.99S","longitude":"72.43W"}
{"date":"2012-10-01","average_temperature":"25.093000000000004","city":"Pune","latitude":"18.48N","longitude":"74.37E"}
{"date":"2011-04-01","average_temperature":"15.656","city":"Puyang","latitude":"36.17N","longitude":"115.36E"}
{"date":"2012-07-01","average_temperature":"30.263","city":"Qalyub","latitude":"29.74N","longitude":"31.38E"}
{"date":"2013-04-01","average_temperature":"21.146","city":"Qalyub","latitude":"29.74N","longitude":"31.38E"}
{"date":"2012-02-01","average_temperature":"-0.13600000000000012","city":"Qazvin","latitude":"36.17N","longitude":"49.72E"}
{"date":"2013-01-01","average_temperature":"1.914","city":"Qazvin","latitude":"36.17N","longitude":"49.72E"}
{"date":"2010-02-01","average_temperature":"7.479","city":"Qianjiang","latitude":"29.74N","longitude":"112.62E"}
{"date":"2011-12-01","average_temperature":"2.865","city":"Qingdao","latitude":"36.17N","longitude":"121.33E"}
{"date":"2011-12-01","average_temperature":"-2.764","city":"Qinhuangdao","latitude":"39.38N","longitude":"118.61E"}
{"date":"2012-01-01","average_temperature":"12.065","city":"Qinzhou","latitude":"21.70N","longitude":"108.17E"}
{"date":"2010-02-01","average_temperature":"-17.929000000000006","city":"Qiqihar","latitude":"47.42N","longitude":"124.34E"}
{"date":"2010-11-01","average_temperature":"-6.017","city":"Qiqihar","latitude":"47.42N","longitude":"124.34E"}
{"date":"2011-05-01","average_temperature":"12.901000000000002","city":"Qitaihe","latitude":"45.81N","longitude":"130.38E"}
{"date":"2013-03-01","average_temperature":"-7.946000000000001","city":"Qostanay","latitude":"53.84N","longitude":"64.09E"}
{"date":"2010-05-01","average_temperature":"22.826","city":"Quchan","latitude":"37.78N","longitude":"58.98E"}
{"date":"2011-02-01","average_temperature":"-13.495999999999999","city":"Quebec","latitude":"47.42N","longitude":"72.24W"}
{"date":"2013-04-01","average_temperature":"25.357","city":"Queimados","latitude":"23.31S","longitude":"42.82W"}
{"date":"2011-07-01","average_temperature":"28.761000000000006","city":"Rajkot","latitude":"21.70N","longitude":"70.10E"}
{"date":"2010-09-01","average_temperature":"13.129000000000001","city":"Ramnicu Valcea","latitude":"45.81N","longitude":"24.23E"}
{"date":"2010-11-01","average_temperature":"22.39","city":"Ranchi","latitude":"23.31N","longitude":"84.76E"}
{"date":"2013-09-01","city":"Raniganj","latitude":"23.31N","longitude":"86.50E"}
{"date":"2010-07-01","average_temperature":"25.932","city":"Rasht","latitude":"37.78N","longitude":"48.81E"}
{"date":"2011-06-01","average_temperature":"22.329","city":"Rasht","latitude":"37.78N","longitude":"48.81E"}
{"date":"2013-04-01","average_temperature":"8.844","city":"Ratisbon","latitude":"49.03N","longitude":"12.24E"}
{"date":"2013-07-01","average_temperature":"23.899","city":"Ravenna","latitude":"44.20N","longitude":"11.18E"}
{"date":"2012-12-01","average_temperature":"28.001","city":"Rayong","latitude":"12.05N","longitude":"101.92E"}
{"date":"2010-02-01","average_temperature":"-13.871","city":"Regina","latitude":"50.63N","longitude":"105.21W"}
{"date":"2013-06-01","average_temperature":"27.879","city":"Rengasdengklok","latitude":"5.63S","longitude":"106.55E"}
{"date":"2012-11-01","average_temperature":"8.457","city":"Reno","latitude":"39.38N","longitude":"120.69W"}
{"date":"2010-04-01","average_temperature":"20.697","city":"Resistencia","latitude":"28.13S","longitude":"59.09W"}
{"date":"2011-05-01","average_temperature":"18.121","city":"Resistencia","latitude":"28.13S","longitude":"59.09W"}
{"date":"2010-04-01","average_temperature":"9.797","city":"Reutlingen","latitude":"49.03N","longitude":"9.80E"}
{"date":"2012-09-01","average_temperature":"28.683000000000003","city":"Rewa","latitude":"24.92N","longitude":"81.58E"}
{"date":"2010-10-01","average_temperature":"2.401","city":"Reykjavík","latitude":"65.09N","longitude":"21.06W"}
{"date":"2011-10-01","average_temperature":"1.247","city":"Reykjavík","latitude":"65.09N","longitude":"21.06W"}
{"date":"2011-08-01","average_temperature":"33.739999999999995","city":"Richardson","latitude":"32.95N","longitude":"96.70W"}
{"date":"2011-05-01","average_temperature":"12.06","city":"Riga","latitude":"57.05N","longitude":"25.08E"}
{"date":"2011-02-01","average_temperature":"7.277","city":"Rimini","latitude":"44.20N","longitude":"13.42E"}
{"date":"2013-05-01","average_temperature":"15.56","city":"Rio Grande","latitude":"31.35S","longitude":"52.77W"}
{"date":"2010-12-01","average_temperature":"-4.755000000000001","city":"Rivne","latitude":"50.63N","longitude":"26.62E"}
{"date":"2010-06-01","average_temperature":"23.131999999999998","city":"Rizhao","latitude":"36.17N","longitude":"119.34E"}
{"date":"2011-01-01","average_temperature":"-4.7189999999999985","city":"Rizhao","latitude":"36.17N","longitude":"119.34E"}
{"date":"2013-08-01","average_temperature":"27.116999999999997","city":"Robertsonpet","latitude":"13.66N","longitude":"78.44E"}
{"date":"2010-12-01","average_temperature":"15.393","city":"Rohtak","latitude":"28.13N","longitude":"77.27E"}
{"date":"2011-10-01","average_temperature":"23.124000000000002","city":"Rongcheng","latitude":"23.31N","longitude":"116.21E"}
{"date":"2012-10-01","average_temperature":"23.471","city":"Rongcheng","latitude":"23.31N","longitude":"116.21E"}
{"date":"2013-06-01","average_temperature":"27.963","city":"Rongcheng","latitude":"23.31N","longitude":"116.21E"}
{"date":"2012-02-01","average_temperature":"2.267","city":"Rouen","latitude":"49.03N","longitude":"0.00W"}
{"date":"2012-07-01","average_temperature":"28.65","city":"Roxas","latitude":"12.05N","longitude":"123.29E"}
{"date":"2011-01-01","average_temperature":"21.096999999999998","city":"Rustenburg","latitude":"26.52S","longitude":"26.87E"}
{"date":"2012-07-01","average_temperature":"18.047","city":"São José","latitude":"28.13S","longitude":"48.18W"}
{"date":"2010-08-01","average_temperature":"13.966","city":"São Leopoldo","latitude":"29.74S","longitude":"51.69W"}
{"date":"2010-05-01","average_temperature":"27.895","city":"São Luís","latitude":"2.41S","longitude":"44.20W"}
{"date":"2012-11-01","average_temperature":"21.811999999999998","city":"São Vicente","latitude":"23.31S","longitude":"46.31W"}
{"date":"2010-07-01","average_temperature":"32.689","city":"Sabha","latitude":"26.52N","longitude":"14.33E"}
{"date":"2012-11-01","average_temperature":"22.31","city":"Sadiqabad","latitude":"28.13N","longitude":"70.00E"}
{"date":"2012-01-01","average_temperature":"16.435","city":"Sagar","latitude":"23.31N","longitude":"79.51E"}
{"date":"2012-11-01","average_temperature":"19.183","city":"Saharanpur","latitude":"29.74N","longitude":"77.54E"}
{"date":"2010-01-01","average_temperature":"11.81","city":"Sahiwal","latitude":"31.35N","longitude":"73.51E"}
{"date":"2012-09-01","average_temperature":"24.467","city":"Sakai","latitude":"34.56N","longitude":"136.22E"}
{"date":"2010-08-01","average_temperature":"26.575","city":"Sakata","latitude":"39.38N","longitude":"139.42E"}
{"date":"2011-02-01","average_temperature":"22.92","city":"Salalah","latitude":"16.87N","longitude":"53.58E"}
{"date":"2012-02-01","average_temperature":"22.544","city":"Salalah","latitude":"16.87N","longitude":"53.58E"}
{"date":"2010-02-01","average_temperature":"-3.909","city":"Salihorsk","latitude":"52.24N","longitude":"26.28E"}
{"date":"2012-07-01","average_temperature":"20.305","city":"Salinas","latitude":"36.17N","longitude":"121.33W"}
{"date":"2012-03-01","average_temperature":"22.953000000000003","city":"Salto","latitude":"31.35S","longitude":"58.43W"}
{"date":"2012-08-01","average_temperature":"16.061","city":"Salzburg","latitude":"47.42N","longitude":"13.03E"}
{"date":"2013-03-01","average_temperature":"-6.478","city":"Samara","latitude":"53.84N","longitude":"50.45E"}
{"date":"2011-06-01","average_temperature":"26.903","city":"Samarkand","latitude":"39.38N","longitude":"66.59E"}
{"date":"2010-12-01","average_temperature":"19.442999999999998","city":"Sambalpur","latitude":"21.70N","longitude":"83.94E"}
{"date":"2011-01-01","average_temperature":"13.636","city":"Sambhal","latitude":"28.13N","longitude":"79.09E"}
{"date":"2010-06-01","average_temperature":"-0.14","city":"San Bernardo","latitude":"32.95S","longitude":"69.89W"}
{"date":"2010-04-01","average_temperature":"27.212","city":"San Cristóbal","latitude":"18.48N","longitude":"69.30W"}
{"date":"2010-11-01","average_temperature":"27.081999999999997","city":"San Francisco De Macorís","latitude":"20.09N","longitude":"69.95W"}
{"date":"2012-04-01","average_temperature":"17.773","city":"San Juan","latitude":"31.35S","longitude":"67.85W"}
{"date":"2011-10-01","average_temperature":"18.81","city":"San Juan Sacatepéquez","latitude":"15.27N","longitude":"90.83W"}
{"date":"2012-12-01","average_temperature":"18.195","city":"San Juan Sacatepéquez","latitude":"15.27N","longitude":"90.83W"}
{"date":"2010-07-01","average_temperature":"8.982000000000003","city":"San Luis","latitude":"32.95S","longitude":"66.06W"}
{"date":"2011-06-01","average_temperature":"30.32","city":"San Nicolás De Los Garza","latitude":"26.52N","longitude":"100.30W"}
{"date":"2010-05-01","average_temperature":"27.803","city":"San Pedro De Macorís","latitude":"18.48N","longitude":"69.30W"}
{"date":"2010-07-01","average_temperature":"26.238000000000003","city":"San Salvador","latitude":"13.66N","longitude":"90.00W"}
{"date":"2011-03-01","average_temperature":"16.783","city":"Sanbu","latitude":"21.70N","longitude":"113.37E"}
{"date":"2011-11-01","average_temperature":"8.036","city":"Sanmenxia","latitude":"34.56N","longitude":"110.92E"}
{"date":"2011-04-01","average_temperature":"13.357999999999999","city":"Santa Clara","latitude":"37.78N","longitude":"122.03W"}
{"date":"2011-05-01","average_temperature":"15.807","city":"Santa Fe","latitude":"31.35S","longitude":"60.31W"}
{"date":"2012-02-01","average_temperature":"26.534000000000002","city":"Santa Maria","latitude":"29.74S","longitude":"53.54W"}
{"date":"2013-05-01","average_temperature":"18.317","city":"Santo André","latitude":"23.31S","longitude":"46.31W"}
{"date":"2010-11-01","average_temperature":"25.866999999999997","city":"Santo Domingo","latitude":"18.48N","longitude":"69.30W"}
{"date":"2011-07-01","average_temperature":"27.721999999999998","city":"Santo Domingo","latitude":"18.48N","longitude":"69.30W"}
{"date":"2013-07-01","average_temperature":"21.004","city":"Saratov","latitude":"52.24N","longitude":"47.30E"}
{"date":"2012-07-01","average_temperature":"30.031","city":"Sasaram","latitude":"24.92N","longitude":"83.35E"}
{"date":"2013-09-01","city":"Sasaram","latitude":"24.92N","longitude":"83.35E"}
{"date":"2010-03-01","average_temperature":"28.111","city":"Satara","latitude":"16.87N","longitude":"73.67E"}
{"date":"2010-10-01","average_temperature":"19.117","city":"Saveh","latitude":"34.56N","longitude":"50.59E"}
{"date":"2010-01-01","average_temperature":"26.787000000000006","city":"Sawangan","latitude":"5.63S","longitude":"106.55E"}
{"date":"2011-09-01","average_temperature":"22.015","city":"Sete Lagoas","latitude":"20.09S","longitude":"44.36W"}
{"date":"2013-07-01","average_temperature":"19.498","city":"Sete Lagoas","latitude":"20.09S","longitude":"44.36W"}
{"date":"2010-06-01","average_temperature":"34.247","city":"Shahjahanpur","latitude":"28.13N","longitude":"79.09E"}
{"date":"2011-06-01","average_temperature":"31.793000000000003","city":"Shahjahanpur","latitude":"28.13N","longitude":"79.09E"}
{"date":"2011-04-01","average_temperature":"29.722","city":"Shaki","latitude":"8.84N","longitude":"4.05E"}
{"date":"2012-03-01","average_temperature":"10.111","city":"Shashi","latitude":"29.74N","longitude":"112.62E"}
{"date":"2010-03-01","average_temperature":"-0.993","city":"Shenyang","latitude":"40.99N","longitude":"123.55E"}
{"date":"2013-05-01","average_temperature":"27.223000000000003","city":"Sherpur","latitude":"24.92N","longitude":"90.44E"}
{"date":"2013-08-01","average_temperature":"33.254000000000005","city":"Shikarpur","latitude":"28.13N","longitude":"68.18E"}
{"date":"2013-01-01","average_temperature":"5.327000000000001","city":"Shimonoseki","latitude":"34.56N","longitude":"130.38E"}
{"date":"2013-05-01","average_temperature":"21.480999999999998","city":"Shreveport","latitude":"32.95N","longitude":"92.87W"}
{"date":"2011-08-01","average_temperature":"28.976","city":"Shrirampur","latitude":"23.31N","longitude":"88.25E"}
{"date":"2010-07-01","average_temperature":"23.573","city":"Shuangcheng","latitude":"45.81N","longitude":"125.77E"}
{"date":"2012-06-01","average_temperature":"20.401","city":"Shuangcheng","latitude":"45.81N","longitude":"125.77E"}
{"date":"2011-07-01","average_temperature":"27.955","city":"Siirt","latitude":"37.78N","longitude":"42.71E"}
{"date":"2013-04-01","average_temperature":"29.272","city":"Sikar","latitude":"28.13N","longitude":"75.45E"}
{"date":"2011-12-01","average_temperature":"18.558","city":"Silchar","latitude":"24.92N","longitude":"92.22E"}
{"date":"2012-07-01","average_temperature":"27.883000000000006","city":"Singkawang","latitude":"0.80N","longitude":"108.48E"}
{"date":"2013-05-01","average_temperature":"13.441","city":"Sioux Falls","latitude":"44.20N","longitude":"96.15W"}
{"date":"2010-07-01","average_temperature":"22.108","city":"Sivas","latitude":"39.38N","longitude":"37.46E"}
{"date":"2013-05-01","average_temperature":"14.599","city":"Sivas","latitude":"39.38N","longitude":"37.46E"}
{"date":"2011-02-01","average_temperature":"0.09799999999999998","city":"Skopje","latitude":"42.59N","longitude":"21.82E"}
{"date":"2013-07-01","average_temperature":"27.245","city":"Sobral","latitude":"4.02S","longitude":"40.98W"}
{"date":"2011-09-01","average_temperature":"16.78","city":"Sochi","latitude":"44.20N","longitude":"40.25E"}
{"date":"2013-02-01","average_temperature":"3.4730000000000003","city":"Sochi","latitude":"44.20N","longitude":"40.25E"}
{"date":"2012-12-01","average_temperature":"26.743000000000002","city":"Sokodé","latitude":"8.84N","longitude":"0.81E"}
{"date":"2012-12-01","average_temperature":"20.344","city":"Somerset West","latitude":"34.56S","longitude":"19.46E"}
{"date":"2010-06-01","average_temperature":"16.13","city":"Southend On Sea","latitude":"52.24N","longitude":"0.00W"}
{"date":"2012-08-01","average_temperature":"25.866","city":"Springfield","latitude":"37.78N","longitude":"93.56W"}
{"date":"2010-08-01","average_temperature":"20.953000000000003","city":"Springfield","latitude":"42.59N","longitude":"72.00W"}
{"date":"2012-09-01","average_temperature":"18.177","city":"Stamford","latitude":"40.99N","longitude":"74.56W"}
{"date":"2011-12-01","average_temperature":"0.10300000000000063","city":"Staryy Oskol","latitude":"50.63N","longitude":"36.76E"}
{"date":"2011-06-01","average_temperature":"16.590999999999998","city":"Sterlitamak","latitude":"53.84N","longitude":"55.91E"}
{"date":"2010-01-01","average_temperature":"-4.833","city":"Stockholm","latitude":"58.66N","longitude":"18.46E"}
{"date":"2013-05-01","average_temperature":"17.434","city":"Stockton","latitude":"37.78N","longitude":"122.03W"}
{"date":"2013-07-01","average_temperature":"18.180999999999997","city":"Stoke On Trent","latitude":"52.24N","longitude":"2.63W"}
{"date":"2013-09-01","city":"Sucre","latitude":"18.48S","longitude":"65.92W"}
{"date":"2010-02-01","average_temperature":"13.738","city":"Sur","latitude":"32.95N","longitude":"35.43E"}
{"date":"2010-11-01","average_temperature":"28.095","city":"Surabaya","latitude":"7.23S","longitude":"112.70E"}
{"date":"2012-07-01","average_temperature":"28.156","city":"Surat Thani","latitude":"8.84N","longitude":"99.73E"}
{"date":"2012-08-01","average_temperature":"30.95","city":"Susah","latitude":"36.17N","longitude":"9.94E"}
{"date":"2011-06-01","average_temperature":"14.095","city":"Sutton Coldfield","latitude":"52.24N","longitude":"2.63W"}
{"date":"2011-03-01","average_temperature":"9.18","city":"Suzhou","latitude":"34.56N","longitude":"116.76E"}
{"date":"2011-01-01","average_temperature":"-14.081","city":"Syktyvkar","latitude":"61.88N","longitude":"49.25E"}
{"date":"2010-07-01","average_temperature":"23.429000000000002","city":"Szeged","latitude":"45.81N","longitude":"19.62E"}
{"date":"2010-04-01","average_temperature":"18.226000000000006","city":"Türkmenabat","latitude":"39.38N","longitude":"64.51E"}
{"date":"2010-09-01","average_temperature":"21.354","city":"Türkmenabat","latitude":"39.38N","longitude":"64.51E"}
{"date":"2010-05-01","average_temperature":"20.283","city":"Tacna","latitude":"18.48S","longitude":"70.99W"}
{"date":"2011-08-01","average_temperature":"26.768","city":"Taitung","latitude":"23.31N","longitude":"121.46E"}
{"date":"2012-10-01","average_temperature":"14.913","city":"Takaoka","latitude":"36.17N","longitude":"137.24E"}
{"date":"2011-07-01","average_temperature":"25.288","city":"Takasaki","latitude":"36.17N","longitude":"139.23E"}
{"date":"2013-07-01","average_temperature":"24.693","city":"Takoradi","latitude":"5.63N","longitude":"1.61W"}
{"date":"2011-09-01","average_temperature":"11.882","city":"Talcahuano","latitude":"36.17S","longitude":"73.59W"}
{"date":"2010-02-01","average_temperature":"27.521","city":"Talisay","latitude":"10.45N","longitude":"123.55E"}
{"date":"2013-07-01","average_temperature":"24.645000000000003","city":"Tama","latitude":"36.17N","longitude":"139.23E"}
{"date":"2011-10-01","average_temperature":"27.585","city":"Tamale","latitude":"8.84N","longitude":"0.81W"}
{"date":"2013-06-01","average_temperature":"27.705","city":"Tamale","latitude":"8.84N","longitude":"0.81W"}
{"date":"2013-01-01","average_temperature":"26.741999999999997","city":"Tangerang","latitude":"5.63S","longitude":"106.55E"}
{"date":"2011-11-01","average_temperature":"6.1850000000000005","city":"Tanggu","latitude":"39.38N","longitude":"118.61E"}
{"date":"2010-10-01","average_temperature":"18.802","city":"Tangier","latitude":"36.17N","longitude":"5.97W"}
{"date":"2012-09-01","average_temperature":"23.241","city":"Tangier","latitude":"36.17N","longitude":"5.97W"}
{"date":"2011-01-01","average_temperature":"-5.277","city":"Tangshan","latitude":"37.78N","longitude":"113.90E"}
{"date":"2010-12-01","average_temperature":"17.268","city":"Tarhunah","latitude":"32.95N","longitude":"14.36E"}
{"date":"2012-10-01","average_temperature":"13.233","city":"Tbilisi","latitude":"40.99N","longitude":"44.73E"}
{"date":"2012-06-01","average_temperature":"28.699","city":"Tebingtinggi","latitude":"4.02N","longitude":"98.84E"}
{"date":"2013-04-01","average_temperature":"28.425","city":"Tema","latitude":"5.63N","longitude":"0.00W"}
{"date":"2012-03-01","average_temperature":"16.227999999999998","city":"Tempe","latitude":"32.95N","longitude":"112.02W"}
{"date":"2011-10-01","average_temperature":"24.236","city":"Tepic","latitude":"21.70N","longitude":"104.71W"}
{"date":"2013-01-01","average_temperature":"4.261","city":"Terni","latitude":"42.59N","longitude":"13.09E"}
{"date":"2011-02-01","average_temperature":"15.607999999999999","city":"Thái Nguyên","latitude":"21.70N","longitude":"106.44E"}
{"date":"2011-03-01","average_temperature":"16.952","city":"Thanh Hóa","latitude":"20.09N","longitude":"105.78E"}
{"date":"2011-10-01","average_temperature":"17.608","city":"Tianmen","latitude":"31.35N","longitude":"113.09E"}
{"date":"2011-01-01","average_temperature":"26.193","city":"Timon","latitude":"5.63S","longitude":"43.59W"}
{"date":"2013-08-01","average_temperature":"28.565","city":"Tiruvannamalai","latitude":"12.05N","longitude":"78.90E"}
{"date":"2010-05-01","average_temperature":"32.831","city":"Tiruvottiyur","latitude":"13.66N","longitude":"80.09E"}
{"date":"2012-09-01","average_temperature":"30.853","city":"Tiruvottiyur","latitude":"13.66N","longitude":"80.09E"}
{"date":"2013-01-01","average_temperature":"4.2010000000000005","city":"Tokuyama","latitude":"34.56N","longitude":"132.32E"}
{"date":"2010-01-01","average_temperature":"27.002","city":"Toliary","latitude":"23.31S","longitude":"42.82E"}
{"date":"2011-02-01","average_temperature":"19.312","city":"Tonk","latitude":"26.52N","longitude":"75.22E"}
{"date":"2011-01-01","average_temperature":"4.207","city":"Tours","latitude":"47.42N","longitude":"1.18E"}
{"date":"2010-11-01","average_temperature":"24.198","city":"Townsville","latitude":"18.48S","longitude":"147.04E"}
{"date":"2012-05-01","average_temperature":"18.609","city":"Toyokawa","latitude":"34.56N","longitude":"138.16E"}
{"date":"2013-09-01","average_temperature":"24.601","city":"Tucson","latitude":"31.35N","longitude":"111.20W"}
{"date":"2013-07-01","average_temperature":"18.416","city":"Tula","latitude":"53.84N","longitude":"36.82E"}
{"date":"2012-12-01","average_temperature":"23.566999999999997","city":"Tumbes","latitude":"4.02S","longitude":"81.16W"}
{"date":"2011-11-01","average_temperature":"23.607","city":"Tumkur","latitude":"13.66N","longitude":"76.79E"}
{"date":"2012-05-01","average_temperature":"30.202","city":"Tungi","latitude":"23.31N","longitude":"90.00E"}
{"date":"2010-03-01","average_temperature":"11.34","city":"Turgutlu","latitude":"37.78N","longitude":"28.47E"}
{"date":"2013-03-01","average_temperature":"11.253","city":"Turgutlu","latitude":"37.78N","longitude":"28.47E"}
{"date":"2013-03-01","average_temperature":"1.274","city":"Turin","latitude":"45.81N","longitude":"8.08E"}
{"date":"2010-06-01","average_temperature":"14.257","city":"Turku","latitude":"60.27N","longitude":"22.70E"}
{"date":"2011-06-01","average_temperature":"26.628","city":"Tuxtla Gutiérrez","latitude":"16.87N","longitude":"93.77W"}
{"date":"2012-06-01","average_temperature":"19.92","city":"Tyumen","latitude":"57.05N","longitude":"66.39E"}
{"date":"2012-02-01","average_temperature":"24.395","city":"Uberaba","latitude":"20.09S","longitude":"47.77W"}
{"date":"2010-07-01","average_temperature":"27.232","city":"Udgir","latitude":"18.48N","longitude":"77.75E"}
{"date":"2012-10-01","average_temperature":"-1.802","city":"Ulaanbaatar","latitude":"47.42N","longitude":"107.76E"}
{"date":"2010-12-01","average_temperature":"-20.754","city":"Ulan Ude","latitude":"52.24N","longitude":"107.74E"}
{"date":"2013-02-01","average_temperature":"21.982","city":"Ulubaria","latitude":"23.31N","longitude":"88.25E"}
{"date":"2011-09-01","average_temperature":"31.835","city":"Umm Durman","latitude":"15.27N","longitude":"32.50E"}
{"date":"2012-03-01","average_temperature":"29.846999999999998","city":"Umuahia","latitude":"5.63N","longitude":"8.07E"}
{"date":"2013-03-01","average_temperature":"26.785","city":"Ungaran","latitude":"7.23S","longitude":"111.08E"}
{"date":"2011-07-01","average_temperature":"26.919","city":"Urdaneta","latitude":"15.27N","longitude":"120.83E"}
{"date":"2013-09-01","city":"Urdaneta","latitude":"15.27N","longitude":"120.83E"}
{"date":"2012-09-01","average_temperature":"25.978","city":"Uyo","latitude":"5.63N","longitude":"8.07E"}
{"date":"2012-07-01","average_temperature":"21.831","city":"Valladolid","latitude":"40.99N","longitude":"4.26W"}
{"date":"2012-01-01","average_temperature":"17.459","city":"Valparaiso","latitude":"32.95S","longitude":"71.81W"}
{"date":"2011-04-01","average_temperature":"14.817","city":"Vereeniging","latitude":"26.52S","longitude":"28.66E"}
{"date":"2013-02-01","average_temperature":"20.939","city":"Verwoerdburg","latitude":"26.52S","longitude":"28.66E"}
{"date":"2010-06-01","average_temperature":"17.862000000000005","city":"Vienna","latitude":"49.03N","longitude":"17.14E"}
{"date":"2011-06-01","average_temperature":"17.958000000000006","city":"Vilnius","latitude":"55.45N","longitude":"25.51E"}
{"date":"2010-07-01","average_temperature":"10.555","city":"Vina Del Mar","latitude":"32.95S","longitude":"71.81W"}
{"date":"2010-08-01","average_temperature":"28.397","city":"Vinh","latitude":"18.48N","longitude":"106.48E"}
{"date":"2012-04-01","average_temperature":"14.796","city":"Virginia Beach","latitude":"36.17N","longitude":"75.58W"}
{"date":"2012-04-01","average_temperature":"14.645","city":"Visalia","latitude":"36.17N","longitude":"119.34W"}
{"date":"2010-10-01","average_temperature":"25.775","city":"Vitória De Santo Antão","latitude":"8.84S","longitude":"34.86W"}
{"date":"2011-07-01","average_temperature":"19.481","city":"Vladivostok","latitude":"42.59N","longitude":"130.91E"}
{"date":"2010-09-01","average_temperature":"10.668","city":"Vologda","latitude":"58.66N","longitude":"40.00E"}
{"date":"2011-07-01","average_temperature":"27.889","city":"Volzhskiy","latitude":"49.03N","longitude":"44.08E"}
{"date":"2010-10-01","average_temperature":"18.105999999999998","city":"Vryheid","latitude":"28.13S","longitude":"30.00E"}
{"date":"2010-06-01","average_temperature":"21.180999999999997","city":"Warren","latitude":"42.59N","longitude":"82.91W"}
{"date":"2010-12-01","average_temperature":"-0.024000000000000018","city":"Watford","latitude":"52.24N","longitude":"0.00W"}
{"date":"2011-06-01","average_temperature":"11.505","city":"Wellington","latitude":"40.99S","longitude":"174.67E"}
{"date":"2010-12-01","average_temperature":"24.951","city":"Weru","latitude":"7.23S","longitude":"107.84E"}
{"date":"2011-09-01","average_temperature":"22.728","city":"West Covina","latitude":"34.56N","longitude":"118.70W"}
{"date":"2012-11-01","average_temperature":"13.902999999999999","city":"West Covina","latitude":"34.56N","longitude":"118.70W"}
{"date":"2011-12-01","average_temperature":"21.831999999999997","city":"Westonaria","latitude":"26.52S","longitude":"26.87E"}
{"date":"2012-02-01","average_temperature":"22.281999999999996","city":"Windhoek","latitude":"23.31S","longitude":"16.60E"}
{"date":"2013-01-01","average_temperature":"25.895000000000003","city":"Windhoek","latitude":"23.31S","longitude":"16.60E"}
{"date":"2010-01-01","average_temperature":"-4.675","city":"Windsor","latitude":"42.59N","longitude":"82.91W"}
{"date":"2013-03-01","average_temperature":"6.556","city":"Winston Salem","latitude":"36.17N","longitude":"79.56W"}
{"date":"2012-06-01","average_temperature":"14.889000000000001","city":"Witten","latitude":"52.24N","longitude":"7.88E"}
{"date":"2012-12-01","average_temperature":"3.353","city":"Witten","latitude":"52.24N","longitude":"7.88E"}
{"date":"2013-01-01","average_temperature":"1.06","city":"Witten","latitude":"52.24N","longitude":"7.88E"}
{"date":"2011-08-01","average_temperature":"15.571","city":"Wollongong","latitude":"34.56S","longitude":"151.78E"}
{"date":"2012-05-01","average_temperature":"12.009","city":"Worcester","latitude":"52.24N","longitude":"2.63W"}
{"date":"2010-11-01","average_temperature":"11.447","city":"Wufeng","latitude":"28.13N","longitude":"104.55E"}
{"date":"2013-02-01","average_temperature":"6.891","city":"Wuning","latitude":"29.74N","longitude":"120.00E"}
{"date":"2011-11-01","average_temperature":"15.798000000000002","city":"Wuxi","latitude":"31.35N","longitude":"120.63E"}
{"date":"2012-07-01","average_temperature":"29.965","city":"Xiangdong","latitude":"28.13N","longitude":"113.64E"}
{"date":"2012-09-01","average_temperature":"23.529","city":"Xiangdong","latitude":"28.13N","longitude":"113.64E"}
{"date":"2010-06-01","average_temperature":"26.379","city":"Xiaolan","latitude":"23.31N","longitude":"112.72E"}
{"date":"2010-04-01","average_temperature":"11.903","city":"Xintai","latitude":"36.17N","longitude":"117.35E"}
{"date":"2011-07-01","average_temperature":"26.945999999999998","city":"Xintai","latitude":"36.17N","longitude":"117.35E"}
{"date":"2011-10-01","average_temperature":"14.871","city":"Xintai","latitude":"36.17N","longitude":"117.35E"}
{"date":"2013-07-01","average_temperature":"24.283","city":"Xinxiang","latitude":"36.17N","longitude":"113.37E"}
{"date":"2010-07-01","average_temperature":"27.896","city":"Xinyang","latitude":"32.95N","longitude":"113.94E"}
{"date":"2012-07-01","average_temperature":"23.894000000000002","city":"Yaan","latitude":"29.74N","longitude":"103.38E"}
{"date":"2011-06-01","average_temperature":"22.362","city":"Yaizu","latitude":"34.56N","longitude":"138.16E"}
{"date":"2012-07-01","average_temperature":"20.246","city":"Yakeshi","latitude":"49.03N","longitude":"120.00E"}
{"date":"2013-09-01","city":"Yamoussoukro","latitude":"7.23N","longitude":"5.68W"}
{"date":"2012-04-01","average_temperature":"26.835","city":"Yamunanagar","latitude":"29.74N","longitude":"77.54E"}
{"date":"2011-01-01","average_temperature":"-9.004000000000003","city":"Yanan","latitude":"36.17N","longitude":"109.39E"}
{"date":"2011-03-01","average_temperature":"8.414","city":"Yancheng","latitude":"32.95N","longitude":"119.68E"}
{"date":"2013-08-01","average_temperature":"28.180999999999997","city":"Yao","latitude":"34.56N","longitude":"136.22E"}
{"date":"2011-01-01","average_temperature":"23.072","city":"Yenangyaung","latitude":"20.09N","longitude":"95.55E"}
{"date":"2011-01-01","average_temperature":"1.7559999999999998","city":"Yichun","latitude":"28.13N","longitude":"113.64E"}
{"date":"2011-03-01","average_temperature":"1.3419999999999999","city":"Yinchuan","latitude":"37.78N","longitude":"105.76E"}
{"date":"2012-08-01","average_temperature":"22.269000000000002","city":"Yinchuan","latitude":"37.78N","longitude":"105.76E"}
{"date":"2012-11-01","average_temperature":"15.055","city":"Yingcheng","latitude":"24.92N","longitude":"113.50E"}
{"date":"2011-03-01","average_temperature":"9.176","city":"Yushan","latitude":"31.35N","longitude":"120.63E"}
{"date":"2012-08-01","average_temperature":"28.566999999999997","city":"Yushan","latitude":"31.35N","longitude":"120.63E"}
{"date":"2011-02-01","average_temperature":"-12.689","city":"Yushu","latitude":"44.20N","longitude":"127.45E"}
{"date":"2012-08-01","average_temperature":"26.680999999999997","city":"Zama","latitude":"36.17N","longitude":"139.23E"}
{"date":"2012-02-01","average_temperature":"-2.833","city":"Zanjan","latitude":"36.17N","longitude":"47.73E"}
{"date":"2012-09-01","average_temperature":"19.767000000000003","city":"Zanjan","latitude":"36.17N","longitude":"47.73E"}
{"date":"2010-11-01","average_temperature":"8.875","city":"Zhangdian","latitude":"36.17N","longitude":"117.35E"}
{"date":"2010-03-01","average_temperature":"-3.088","city":"Zhezkazgan","latitude":"47.42N","longitude":"67.50E"}
{"date":"2011-11-01","average_temperature":"11.251","city":"Zhoucheng","latitude":"24.92N","longitude":"102.86E"}
{"date":"2013-04-01","average_temperature":"11.53","city":"Zhucheng","latitude":"36.17N","longitude":"119.34E"}
{"date":"2012-12-01","average_temperature":"1.745","city":"Zhumadian","latitude":"32.95N","longitude":"113.94E"}
{"date":"2013-07-01","average_temperature":"29.301","city":"Zhumadian","latitude":"32.95N","longitude":"113.94E"}
{"date":"2010-06-01","average_temperature":"20.3","city":"Zhytomyr","latitude":"50.63N","longitude":"29.15E"}
{"date":"2011-12-01","average_temperature":"24.862","city":"Ziguinchor","latitude":"12.05N","longitude":"16.44W"}
{"date":"2012-01-01","average_temperature":"22.03","city":"Zinder","latitude":"13.66N","longitude":"9.08E"}
{"date":"2010-12-01","average_temperature":"6.2989999999999995","city":"Zonguldak","latitude":"40.99N","longitude":"31.95E"}
{"date":"2012-01-01","average_temperature":"-1.3889999999999998","city":"Zouxian","latitude":"36.17N","longitude":"117.35E"}
{"date":"2013-03-01","average_temperature":"0.932","city":"Zurich","latitude":"47.42N","longitude":"8.29E"}
