{"date":"2012-03-01","average_temperature":"-0.15100000000000002","city":"Ürümqi","latitude":"44.20N","longitude":"87.20E"}
{"date":"2010-05-01","average_temperature":"8.333","city":"Abakan","latitude":"53.84N","longitude":"91.36E"}
{"date":"2012-04-01","average_temperature":"11.355","city":"Abiko","latitude":"36.17N","longitude":"139.23E"}
{"date":"2013-04-01","average_temperature":"28.265","city":"Abohar","latitude":"29.74N","longitude":"73.85E"}
{"date":"2011-01-01","average_temperature":"28.281999999999996","city":"Abomey Calavi","latitude":"7.23N","longitude":"2.43E"}
{"date":"2010-12-01","average_temperature":"25.86","city":"Abuja","latitude":"8.84N","longitude":"7.30E"}
{"date":"2013-09-01","city":"Achinsk","latitude":"57.05N","longitude":"90.00E"}
{"date":"2013-05-01","average_temperature":"24.555999999999997","city":"Acuña","latitude":"29.74N","longitude":"101.54W"}
{"date":"2011-10-01","average_temperature":"20.039","city":"Agadir","latitude":"29.74N","longitude":"9.23W"}
{"date":"2010-11-01","average_temperature":"24.238000000000003","city":"Agartala","latitude":"23.31N","longitude":"91.75E"}
{"date":"2011-08-01","average_temperature":"25.201999999999998","city":"Ageo","latitude":"36.17N","longitude":"139.23E"}
{"date":"2013-08-01","average_temperature":"29.264","city":"Agra","latitude":"26.52N","longitude":"78.81E"}
{"date":"2010-10-01","average_temperature":"25.435","city":"Ahmadnagar","latitude":"18.48N","longitude":"74.37E"}
{"date":"2012-10-01","average_temperature":"26.668000000000003","city":"Ahmadpur East","latitude":"29.74N","longitude":"72.00E"}
{"date":"2012-02-01","average_temperature":"11.894","city":"Ajdabiya","latitude":"31.35N","longitude":"20.73E"}
{"date":"2010-05-01","average_temperature":"17.128999999999998","city":"Akron","latitude":"40.99N","longitude":"80.95W"}
{"date":"2013-02-01","average_temperature":"29.055","city":"Akure","latitude":"7.23N","longitude":"5.68E"}
{"date":"2011-12-01","average_temperature":"4.604","city":"Alcalá De Henares","latitude":"40.99N","longitude":"4.26W"}
{"date":"2012-07-01","average_temperature":"21.831","city":"Alcobendas","latitude":"40.99N","longitude":"4.26W"}
{"date":"2012-07-01","average_temperature":"21.831","city":"Alcorcón","latitude":"40.99N","longitude":"4.26W"}
{"date":"2012-11-01","average_temperature":"5.487","city":"Alexandria","latitude":"39.38N","longitude":"76.99W"}
{"date":"2013-06-01","average_temperature":"22.756","city":"Algiers","latitude":"36.17N","longitude":"3.98E"}
{"date":"2013-03-01","average_temperature":"-8.25","city":"Almetyevsk","latitude":"55.45N","longitude":"51.02E"}
{"date":"2011-01-01","average_temperature":"27.046","city":"Alor Setar","latitude":"5.63N","longitude":"100.09E"}
{"date":"2012-12-01","average_temperature":"16.566","city":"Alwar","latitude":"28.13N","longitude":"77.27E"}
{"date":"2013-09-01","city":"Ambarnath","latitude":"18.48N","longitude":"72.68E"}
{"date":"2012-05-01","average_temperature":"17.657","city":"Ambato","latitude":"0.80S","longitude":"77.95W"}
{"date":"2013-03-01","average_temperature":"9.401","city":"Amol","latitude":"36.17N","longitude":"51.71E"}
{"date":"2010-06-01","average_temperature":"16.825","city":"Anaheim","latitude":"32.95N","longitude":"117.77W"}
{"date":"2012-12-01","average_temperature":"27.566999999999997","city":"Ananindeua","latitude":"0.80S","longitude":"49.02W"}
{"date":"2011-01-01","average_temperature":"-22.485","city":"Angarsk","latitude":"52.24N","longitude":"105.11E"}
{"date":"2012-10-01","average_temperature":"26.631999999999998","city":"Angeles","latitude":"15.27N","longitude":"120.83E"}
{"date":"2010-04-01","average_temperature":"11.763","city":"Angers","latitude":"47.42N","longitude":"1.18W"}
{"date":"2012-08-01","average_temperature":"20.554000000000002","city":"Angers","latitude":"47.42N","longitude":"1.18W"}
{"date":"2010-10-01","average_temperature":"18.380000000000006","city":"Anjo","latitude":"34.56N","longitude":"136.22E"}
{"date":"2012-08-01","average_temperature":"21.798","city":"Ann Arbor","latitude":"42.59N","longitude":"82.91W"}
{"date":"2011-12-01","average_temperature":"4.022","city":"Anqing","latitude":"31.35N","longitude":"116.86E"}
{"date":"2012-04-01","average_temperature":"18.792","city":"Antakya","latitude":"36.17N","longitude":"35.80E"}
{"date":"2011-01-01","average_temperature":"2.9330000000000003","city":"Antalya","latitude":"37.78N","longitude":"30.51E"}
{"date":"2011-04-01","average_temperature":"13.357999999999999","city":"Antioch","latitude":"37.78N","longitude":"122.03W"}
{"date":"2013-02-01","average_temperature":"19.509","city":"Ara","latitude":"24.92N","longitude":"85.12E"}
{"date":"2010-01-01","average_temperature":"26.373","city":"Araguaína","latitude":"7.23S","longitude":"47.84W"}
{"date":"2010-11-01","average_temperature":"9.693","city":"Arak","latitude":"34.56N","longitude":"50.59E"}
{"date":"2011-05-01","average_temperature":"25.732","city":"Arapiraca","latitude":"10.45S","longitude":"36.82W"}
{"date":"2011-03-01","average_temperature":"20.839","city":"Arequipa","latitude":"16.87S","longitude":"72.00W"}
{"date":"2012-09-01","average_temperature":"12.927","city":"Arzamas","latitude":"55.45N","longitude":"42.52E"}
{"date":"2012-10-01","average_temperature":"25.908","city":"Asansol","latitude":"23.31N","longitude":"86.50E"}
{"date":"2012-03-01","average_temperature":"25.076","city":"Asmara","latitude":"15.27N","longitude":"39.17E"}
{"date":"2013-02-01","average_temperature":"-13.406","city":"Astana","latitude":"50.63N","longitude":"72.25E"}
{"date":"2013-07-01","average_temperature":"19.312","city":"Astana","latitude":"50.63N","longitude":"72.25E"}
{"date":"2010-12-01","average_temperature":"11.65","city":"Austin","latitude":"29.74N","longitude":"97.85W"}
{"date":"2012-02-01","average_temperature":"13.719","city":"Austin","latitude":"29.74N","longitude":"97.85W"}
{"date":"2010-06-01","average_temperature":"30.476999999999997","city":"Azare","latitude":"12.05N","longitude":"9.86E"}
{"date":"2012-01-01","average_temperature":"25.97","city":"Bac Lieu","latitude":"8.84N","longitude":"106.22E"}
{"date":"2012-02-01","average_temperature":"27.247","city":"Bacolod","latitude":"10.45N","longitude":"123.55E"}
{"date":"2010-03-01","average_temperature":"28.226","city":"Bacoor","latitude":"15.27N","longitude":"120.83E"}
{"date":"2012-07-01","average_temperature":"32.448","city":"Bahadurgarh","latitude":"28.13N","longitude":"77.27E"}
{"date":"2012-10-01","average_temperature":"24.271","city":"Bahraich","latitude":"28.13N","longitude":"80.91E"}
{"date":"2012-11-01","average_temperature":"-6.069","city":"Baicheng","latitude":"45.81N","longitude":"123.46E"}
{"date":"2011-10-01","average_temperature":"26.813","city":"Baliuag","latitude":"15.27N","longitude":"120.83E"}
{"date":"2011-04-01","average_temperature":"13.627","city":"Baltimore","latitude":"39.38N","longitude":"76.99W"}
{"date":"2010-01-01","average_temperature":"24.969","city":"Bandung","latitude":"7.23S","longitude":"107.84E"}
{"date":"2012-12-01","average_temperature":"23.881","city":"Bangalore","latitude":"12.05N","longitude":"77.26E"}
{"date":"2011-01-01","average_temperature":"25.386999999999997","city":"Bangkok","latitude":"13.66N","longitude":"99.91E"}
{"date":"2010-12-01","average_temperature":"19.602999999999998","city":"Barakpur","latitude":"23.31N","longitude":"88.25E"}
{"date":"2010-06-01","average_temperature":"31.075","city":"Baranagar","latitude":"23.31N","longitude":"88.25E"}
{"date":"2011-11-01","average_temperature":"19.957","city":"Barbacena","latitude":"21.70S","longitude":"44.13W"}
{"date":"2012-07-01","average_temperature":"17.6","city":"Barbacena","latitude":"21.70S","longitude":"44.13W"}
{"date":"2012-02-01","average_temperature":"25.732","city":"Barcelona","latitude":"10.45N","longitude":"64.64W"}
{"date":"2010-07-01","average_temperature":"26.008000000000003","city":"Bari","latitude":"40.99N","longitude":"17.04E"}
{"date":"2011-09-01","average_temperature":"28.543000000000003","city":"Baripada","latitude":"21.70N","longitude":"87.40E"}
{"date":"2011-01-01","average_temperature":"11.725999999999999","city":"Barnala","latitude":"29.74N","longitude":"75.69E"}
{"date":"2013-04-01","average_temperature":"28.578000000000003","city":"Barnala","latitude":"29.74N","longitude":"75.69E"}
{"date":"2011-10-01","average_temperature":"5.621","city":"Barnaul","latitude":"53.84N","longitude":"83.18E"}
{"date":"2012-12-01","average_temperature":"25.73","city":"Barrancabermeja","latitude":"7.23N","longitude":"73.78W"}
{"date":"2010-12-01","average_temperature":"25.831999999999997","city":"Bata","latitude":"2.41N","longitude":"10.45E"}
{"date":"2010-04-01","average_temperature":"33.094","city":"Bauchi","latitude":"10.45N","longitude":"10.64E"}
{"date":"2013-04-01","average_temperature":"31.261","city":"Bauchi","latitude":"10.45N","longitude":"10.64E"}
{"date":"2012-05-01","average_temperature":"21.248","city":"Beirut","latitude":"34.56N","longitude":"35.03E"}
{"date":"2012-09-01","average_temperature":"22.683000000000003","city":"Belo Horizonte","latitude":"20.09S","longitude":"44.36W"}
{"date":"2010-12-01","average_temperature":"16.53","city":"Benha","latitude":"29.74N","longitude":"31.38E"}
{"date":"2010-09-01","average_temperature":"17.163","city":"Benoni","latitude":"26.52S","longitude":"28.66E"}
{"date":"2012-10-01","average_temperature":"17.332","city":"Beppu","latitude":"32.95N","longitude":"131.17E"}
{"date":"2012-02-01","average_temperature":"-1.5829999999999995","city":"Bergamo","latitude":"45.81N","longitude":"10.38E"}
{"date":"2013-07-01","average_temperature":"19.869","city":"Bergisch Gladbach","latitude":"50.63N","longitude":"6.34E"}
{"date":"2012-06-01","average_temperature":"18.482","city":"Berkeley","latitude":"37.78N","longitude":"122.03W"}
{"date":"2010-05-01","average_temperature":"25.772","city":"Bertoua","latitude":"4.02N","longitude":"13.66E"}
{"date":"2011-02-01","average_temperature":"19.575","city":"Bethal","latitude":"26.52S","longitude":"28.66E"}
{"date":"2011-04-01","average_temperature":"30.548","city":"Bhavnagar","latitude":"21.70N","longitude":"71.83E"}
{"date":"2012-05-01","average_temperature":"31.621","city":"Bhuj","latitude":"23.31N","longitude":"69.03E"}
{"date":"2013-09-01","city":"Bhuj","latitude":"23.31N","longitude":"69.03E"}
{"date":"2012-05-01","average_temperature":"34.442","city":"Bihar","latitude":"24.92N","longitude":"85.12E"}
{"date":"2012-07-01","average_temperature":"27.489","city":"Binangonan","latitude":"13.66N","longitude":"121.38E"}
{"date":"2012-06-01","average_temperature":"25.236","city":"Binzhou","latitude":"37.78N","longitude":"117.97E"}
{"date":"2012-02-01","average_temperature":"18.973","city":"Birganj","latitude":"26.52N","longitude":"84.18E"}
{"date":"2010-11-01","average_temperature":"25.524","city":"Birigui","latitude":"21.70S","longitude":"51.06W"}
{"date":"2010-07-01","average_temperature":"31.772","city":"Birjand","latitude":"32.95N","longitude":"58.40E"}
{"date":"2012-03-01","average_temperature":"26.335","city":"Bitung","latitude":"0.80N","longitude":"124.55E"}
{"date":"2013-04-01","average_temperature":"26.5","city":"Bitung","latitude":"0.80N","longitude":"124.55E"}
{"date":"2013-09-01","city":"Bitung","latitude":"0.80N","longitude":"124.55E"}
{"date":"2012-06-01","average_temperature":"20.456","city":"Biysk","latitude":"52.24N","longitude":"84.09E"}
{"date":"2011-07-01","average_temperature":"24.745","city":"Blitar","latitude":"8.84S","longitude":"112.70E"}
{"date":"2013-02-01","average_temperature":"20.549","city":"Bogotá","latitude":"4.02N","longitude":"74.73W"}
{"date":"2010-06-01","average_temperature":"9.0","city":"Boksburg","latitude":"26.52S","longitude":"28.66E"}
{"date":"2012-11-01","average_temperature":"7.291","city":"Borujerd","latitude":"34.56N","longitude":"48.65E"}
{"date":"2010-03-01","average_temperature":"28.506999999999998","city":"Bouaké","latitude":"7.23N","longitude":"5.68W"}
{"date":"2011-08-01","average_temperature":"28.329","city":"Brahmapur","latitude":"18.48N","longitude":"84.51E"}
{"date":"2011-12-01","average_temperature":"5.8500000000000005","city":"Bristol","latitude":"52.24N","longitude":"2.63W"}
{"date":"2010-08-01","average_temperature":"29.375","city":"Brownsville","latitude":"26.52N","longitude":"96.72W"}
{"date":"2011-12-01","average_temperature":"6.05","city":"Brussels","latitude":"50.63N","longitude":"3.80E"}
{"date":"2013-05-01","average_temperature":"17.055999999999997","city":"Bryansk","latitude":"53.84N","longitude":"34.09E"}
{"date":"2012-06-01","average_temperature":"23.45","city":"Bucharest","latitude":"44.20N","longitude":"26.83E"}
{"date":"2012-11-01","average_temperature":"11.284","city":"Buhe","latitude":"29.74N","longitude":"112.62E"}
{"date":"2012-02-01","average_temperature":"24.173000000000002","city":"Buon Me Thuot","latitude":"12.05N","longitude":"108.49E"}
{"date":"2012-03-01","average_temperature":"18.582","city":"Buraydah","latitude":"26.52N","longitude":"44.78E"}
{"date":"2010-03-01","average_temperature":"6.556","city":"Burgas","latitude":"42.59N","longitude":"28.36E"}
{"date":"2011-10-01","average_temperature":"21.502","city":"Bushehr","latitude":"29.74N","longitude":"51.69E"}
{"date":"2010-06-01","average_temperature":"16.828","city":"Bydgoszcz","latitude":"53.84N","longitude":"17.73E"}
{"date":"2013-09-01","city":"Cabanatuan","latitude":"15.27N","longitude":"120.83E"}
{"date":"2010-04-01","average_temperature":"28.615","city":"Cabimas","latitude":"10.45N","longitude":"71.18W"}
{"date":"2011-12-01","average_temperature":"12.355","city":"Cadiz","latitude":"36.17N","longitude":"5.97W"}
{"date":"2013-02-01","average_temperature":"25.656999999999996","city":"Cagayan De Oro","latitude":"8.84N","longitude":"124.05E"}
{"date":"2012-04-01","average_temperature":"23.555","city":"Cairns","latitude":"16.87S","longitude":"145.67E"}
{"date":"2012-03-01","average_temperature":"16.461","city":"Cairo","latitude":"29.74N","longitude":"31.38E"}
{"date":"2012-10-01","average_temperature":"25.086","city":"Cairo","latitude":"29.74N","longitude":"31.38E"}
{"date":"2011-01-01","average_temperature":"17.864","city":"Calcutta","latitude":"23.31N","longitude":"88.25E"}
{"date":"2012-11-01","average_temperature":"26.778000000000002","city":"Camaçari","latitude":"12.05S","longitude":"37.81W"}
{"date":"2011-01-01","average_temperature":"23.878","city":"Campinas","latitude":"23.31S","longitude":"46.31W"}
{"date":"2011-09-01","average_temperature":"22.116","city":"Campos","latitude":"21.70S","longitude":"40.67W"}
{"date":"2010-11-01","average_temperature":"4.8839999999999995","city":"Cardiff","latitude":"52.24N","longitude":"2.63W"}
{"date":"2013-05-01","average_temperature":"10.489999999999998","city":"Cardiff","latitude":"52.24N","longitude":"2.63W"}
{"date":"2013-06-01","average_temperature":"27.111","city":"Carolina","latitude":"18.48N","longitude":"65.92W"}
{"date":"2012-01-01","average_temperature":"9.267000000000001","city":"Casablanca","latitude":"32.95N","longitude":"6.70W"}
{"date":"2012-12-01","average_temperature":"10.995","city":"Casablanca","latitude":"32.95N","longitude":"6.70W"}
{"date":"2010-03-01","average_temperature":"28.226","city":"Cavite","latitude":"15.27N","longitude":"120.83E"}
{"date":"2013-06-01","average_temperature":"30.618000000000002","city":"Champdani","latitude":"23.31N","longitude":"88.25E"}
{"date":"2010-12-01","average_temperature":"19.602999999999998","city":"Chandannagar","latitude":"23.31N","longitude":"88.25E"}
{"date":"2011-04-01","average_temperature":"28.758000000000006","city":"Chandausi","latitude":"28.13N","longitude":"79.09E"}
{"date":"2012-08-01","average_temperature":"29.456","city":"Chandpur","latitude":"23.31N","longitude":"90.00E"}
{"date":"2010-07-01","average_temperature":"24.394000000000002","city":"Changji","latitude":"44.20N","longitude":"87.20E"}
{"date":"2010-08-01","average_temperature":"28.423000000000002","city":"Charleston","latitude":"32.95N","longitude":"79.47W"}
{"date":"2011-02-01","average_temperature":"7.899000000000001","city":"Chattanooga","latitude":"34.56N","longitude":"85.62W"}
{"date":"2010-02-01","average_temperature":"28.155","city":"Chavakachcheri","latitude":"8.84N","longitude":"80.27E"}
{"date":"2010-02-01","average_temperature":"-17.528","city":"Chelyabinsk","latitude":"55.45N","longitude":"62.36E"}
{"date":"2011-04-01","average_temperature":"11.745999999999999","city":"Chemnitz","latitude":"50.63N","longitude":"13.94E"}
{"date":"2013-04-01","average_temperature":"3.447","city":"Cherepovets","latitude":"58.66N","longitude":"36.92E"}
{"date":"2010-08-01","average_temperature":"22.935","city":"Chernihiv","latitude":"52.24N","longitude":"31.53E"}
{"date":"2010-05-01","average_temperature":"16.337","city":"Chigasaki","latitude":"36.17N","longitude":"139.23E"}
{"date":"2013-06-01","average_temperature":"24.973000000000003","city":"Chikmagalur","latitude":"13.66N","longitude":"75.14E"}
{"date":"2010-09-01","average_temperature":"15.555","city":"Chimbote","latitude":"8.84S","longitude":"78.65W"}
{"date":"2012-12-01","average_temperature":"19.032","city":"Chimbote","latitude":"8.84S","longitude":"78.65W"}
{"date":"2013-03-01","average_temperature":"22.449","city":"Chingola","latitude":"12.05S","longitude":"27.95E"}
{"date":"2011-08-01","average_temperature":"31.273000000000003","city":"Chiniot","latitude":"31.35N","longitude":"73.51E"}
{"date":"2011-03-01","average_temperature":"4.674","city":"Chofu","latitude":"36.17N","longitude":"139.23E"}
{"date":"2010-03-01","average_temperature":"17.894000000000002","city":"Chungho","latitude":"24.92N","longitude":"120.59E"}
{"date":"2013-06-01","average_temperature":"26.918000000000003","city":"Cibadak","latitude":"7.23S","longitude":"106.22E"}
{"date":"2012-07-01","average_temperature":"24.96","city":"Cicalengka","latitude":"7.23S","longitude":"107.84E"}
{"date":"2013-05-01","average_temperature":"25.855","city":"Cileunyi","latitude":"7.23S","longitude":"107.84E"}
{"date":"2010-08-01","average_temperature":"26.863000000000003","city":"Ciudad Guayana","latitude":"8.84N","longitude":"62.43W"}
{"date":"2012-05-01","average_temperature":"22.043000000000003","city":"Clarksville","latitude":"36.17N","longitude":"87.51W"}
{"date":"2010-01-01","average_temperature":"-2.615","city":"Cluj Napoca","latitude":"47.42N","longitude":"22.50E"}
{"date":"2013-05-01","average_temperature":"27.537","city":"Coatzacoalcos","latitude":"18.48N","longitude":"94.65W"}
{"date":"2012-06-01","average_temperature":"13.477","city":"Colchester","latitude":"52.24N","longitude":"0.00W"}
{"date":"2010-07-01","average_temperature":"22.783","city":"Colima","latitude":"20.09N","longitude":"104.08W"}
{"date":"2013-09-01","average_temperature":"23.646","city":"Colima","latitude":"20.09N","longitude":"104.08W"}
{"date":"2010-01-01","average_temperature":"26.146","city":"Concordia","latitude":"31.35S","longitude":"58.43W"}
{"date":"2010-04-01","average_temperature":"14.282","city":"Constantine","latitude":"36.17N","longitude":"5.97E"}
{"date":"2011-07-01","average_temperature":"19.447","city":"Corona","latitude":"32.95N","longitude":"117.77W"}
{"date":"2012-10-01","average_temperature":"19.892","city":"Corona","latitude":"32.95N","longitude":"117.77W"}
{"date":"2010-04-01","average_temperature":"30.044","city":"Cotonou","latitude":"7.23N","longitude":"2.43E"}
{"date":"2012-03-01","average_temperature":"7.79","city":"Cottbus","latitude":"52.24N","longitude":"13.14E"}
{"date":"2012-03-01","average_temperature":"8.755","city":"Crawley","latitude":"50.63N","longitude":"1.27W"}
{"date":"2013-03-01","average_temperature":"22.921999999999997","city":"Cuenca","latitude":"2.41S","longitude":"79.55W"}
{"date":"2010-06-01","average_temperature":"28.290000000000006","city":"Cumaná","latitude":"10.45N","longitude":"64.64W"}
{"date":"2010-02-01","average_temperature":"25.336","city":"Da Nang","latitude":"15.27N","longitude":"107.50E"}
{"date":"2011-03-01","average_temperature":"25.15","city":"Dadu","latitude":"26.52N","longitude":"68.06E"}
{"date":"2010-01-01","average_temperature":"23.988000000000003","city":"Dagupan","latitude":"16.87N","longitude":"120.56E"}
{"date":"2013-06-01","average_temperature":"22.49","city":"Daito","latitude":"34.56N","longitude":"136.22E"}
{"date":"2013-09-01","city":"Daito","latitude":"34.56N","longitude":"136.22E"}
{"date":"2011-10-01","average_temperature":"29.228","city":"Dakar","latitude":"15.27N","longitude":"17.50W"}
{"date":"2012-04-01","average_temperature":"21.903","city":"Dakar","latitude":"15.27N","longitude":"17.50W"}
{"date":"2012-05-01","average_temperature":"18.596","city":"Dali","latitude":"26.52N","longitude":"100.30E"}
{"date":"2011-01-01","average_temperature":"5.417000000000002","city":"Dallas","latitude":"32.95N","longitude":"96.70W"}
{"date":"2013-03-01","average_temperature":"22.728","city":"Darbhanga","latitude":"26.52N","longitude":"85.97E"}
{"date":"2012-10-01","average_temperature":"8.424000000000001","city":"Darmstadt","latitude":"50.63N","longitude":"8.87E"}
{"date":"2011-01-01","average_temperature":"10.79","city":"Daska","latitude":"32.95N","longitude":"73.72E"}
{"date":"2010-12-01","average_temperature":"26.479","city":"Dawei","latitude":"13.66N","longitude":"98.26E"}
{"date":"2011-03-01","average_temperature":"25.89","city":"Dawei","latitude":"13.66N","longitude":"98.26E"}
{"date":"2013-01-01","average_temperature":"-1.591","city":"Debrecen","latitude":"47.42N","longitude":"22.50E"}
{"date":"2013-09-01","city":"Dehra Dun","latitude":"29.74N","longitude":"77.54E"}
{"date":"2012-02-01","average_temperature":"11.777999999999999","city":"Delicias","latitude":"28.13N","longitude":"106.36W"}
{"date":"2013-06-01","average_temperature":"24.016","city":"Denizli","latitude":"37.78N","longitude":"28.47E"}
{"date":"2010-03-01","average_temperature":"26.786","city":"Deoria","latitude":"26.52N","longitude":"84.18E"}
{"date":"2012-07-01","average_temperature":"35.389","city":"Dera Ismail Khan","latitude":"31.35N","longitude":"71.62E"}
{"date":"2012-04-01","average_temperature":"30.779","city":"Dewas","latitude":"23.31N","longitude":"76.02E"}
{"date":"2011-05-01","average_temperature":"15.692","city":"Deyang","latitude":"31.35N","longitude":"103.66E"}
{"date":"2012-07-01","average_temperature":"28.69","city":"Dharmavaram","latitude":"15.27N","longitude":"77.50E"}
{"date":"2013-07-01","average_temperature":"30.118000000000002","city":"Dhaulpur","latitude":"26.52N","longitude":"77.01E"}
{"date":"2010-07-01","average_temperature":"18.354","city":"Diadema","latitude":"23.31S","longitude":"46.31W"}
{"date":"2012-04-01","average_temperature":"5.907","city":"Didao","latitude":"45.81N","longitude":"130.38E"}
{"date":"2012-01-01","average_temperature":"15.323","city":"Dimapur","latitude":"26.52N","longitude":"93.13E"}
{"date":"2012-07-01","average_temperature":"25.514","city":"Djougou","latitude":"10.45N","longitude":"2.45E"}
{"date":"2010-05-01","average_temperature":"15.595999999999998","city":"Dongling","latitude":"40.99N","longitude":"123.55E"}
{"date":"2012-11-01","average_temperature":"5.196000000000001","city":"Dongying","latitude":"37.78N","longitude":"117.97E"}
{"date":"2010-05-01","average_temperature":"12.06","city":"Dresden","latitude":"50.63N","longitude":"13.94E"}
{"date":"2013-03-01","average_temperature":"3.3640000000000003","city":"Dublin","latitude":"53.84N","longitude":"6.82W"}
{"date":"2012-08-01","average_temperature":"13.408","city":"Dundee","latitude":"57.05N","longitude":"4.43W"}
{"date":"2011-02-01","average_temperature":"-3.318","city":"Dushanbe","latitude":"39.38N","longitude":"68.67E"}
{"date":"2013-06-01","average_temperature":"18.819000000000006","city":"Dzerzhinsk","latitude":"57.05N","longitude":"42.79E"}
{"date":"2012-01-01","average_temperature":"27.704","city":"Ejigbo","latitude":"7.23N","longitude":"4.05E"}
{"date":"2013-01-01","average_temperature":"14.187000000000001","city":"El Faiyûm","latitude":"29.74N","longitude":"31.38E"}
{"date":"2010-09-01","average_temperature":"22.973000000000006","city":"El Paso","latitude":"31.35N","longitude":"105.55W"}
{"date":"2011-02-01","average_temperature":"24.412","city":"Embu","latitude":"23.31S","longitude":"46.31W"}
{"date":"2010-11-01","average_temperature":"5.2810000000000015","city":"Emmen","latitude":"52.24N","longitude":"7.88E"}
{"date":"2011-06-01","average_temperature":"21.165000000000006","city":"Esenyurt","latitude":"40.99N","longitude":"27.69E"}
{"date":"2013-04-01","average_temperature":"21.706","city":"Esmeraldas","latitude":"20.09S","longitude":"44.36W"}
{"date":"2010-08-01","average_temperature":"17.727999999999994","city":"Eugene","latitude":"44.20N","longitude":"122.98W"}
{"date":"2011-11-01","average_temperature":"5.631","city":"Eugene","latitude":"44.20N","longitude":"122.98W"}
{"date":"2012-05-01","average_temperature":"11.43","city":"Eugene","latitude":"44.20N","longitude":"122.98W"}
{"date":"2010-11-01","average_temperature":"21.889","city":"Fatehpur","latitude":"26.52N","longitude":"80.60E"}
{"date":"2013-06-01","average_temperature":"31.236","city":"Fatehpur","latitude":"26.52N","longitude":"80.60E"}
{"date":"2011-07-01","average_temperature":"24.478","city":"Fengcheng","latitude":"40.99N","longitude":"123.55E"}
{"date":"2010-11-01","average_temperature":"24.386000000000006","city":"Fernando De La Mora","latitude":"24.92S","longitude":"56.75W"}
{"date":"2011-07-01","average_temperature":"26.145000000000003","city":"Floridablanca","latitude":"7.23N","longitude":"73.78W"}
{"date":"2012-09-01","average_temperature":"26.498","city":"Floridablanca","latitude":"7.23N","longitude":"73.78W"}
{"date":"2011-11-01","average_temperature":"24.665000000000006","city":"Formosa","latitude":"26.52S","longitude":"57.31W"}
{"date":"2012-01-01","average_temperature":"0.375","city":"Fort Collins","latitude":"40.99N","longitude":"104.38W"}
{"date":"2010-08-01","average_temperature":"28.238000000000003","city":"Fortaleza","latitude":"4.02S","longitude":"40.98W"}
{"date":"2010-02-01","average_temperature":"27.230999999999998","city":"Foz Do Iguaçu","latitude":"24.92S","longitude":"54.98W"}
{"date":"2011-01-01","average_temperature":"23.878","city":"Francisco Morato","latitude":"23.31S","longitude":"46.31W"}
{"date":"2011-08-01","average_temperature":"18.687","city":"Franco Da Rocha","latitude":"23.31S","longitude":"46.31W"}
{"date":"2011-02-01","average_temperature":"1.431","city":"Frankfurt","latitude":"50.63N","longitude":"8.87E"}
{"date":"2013-04-01","average_temperature":"8.514","city":"Frankfurt","latitude":"50.63N","longitude":"8.87E"}
{"date":"2013-06-01","average_temperature":"20.927","city":"Fujimi","latitude":"36.17N","longitude":"139.23E"}
{"date":"2013-05-01","average_temperature":"17.635","city":"Fullerton","latitude":"32.95N","longitude":"117.77W"}
{"date":"2011-06-01","average_temperature":"17.13","city":"Göttingen","latitude":"52.24N","longitude":"10.51E"}
{"date":"2013-09-01","city":"Gagnoa","latitude":"5.63N","longitude":"6.46W"}
{"date":"2010-08-01","average_temperature":"29.769000000000002","city":"Gaya","latitude":"24.92N","longitude":"85.12E"}
{"date":"2010-11-01","average_temperature":"15.411","city":"Gebze","latitude":"40.99N","longitude":"29.82E"}
{"date":"2012-07-01","average_temperature":"17.708000000000006","city":"Gent","latitude":"50.63N","longitude":"3.80E"}
{"date":"2010-07-01","average_temperature":"15.95","city":"George","latitude":"34.56S","longitude":"23.35E"}
{"date":"2013-09-01","city":"Getafe","latitude":"40.99N","longitude":"4.26W"}
{"date":"2011-10-01","average_temperature":"26.849","city":"Ghaziabad","latitude":"28.13N","longitude":"77.27E"}
{"date":"2010-01-01","average_temperature":"9.862","city":"Gijón","latitude":"44.20N","longitude":"6.71W"}
{"date":"2013-01-01","average_temperature":"4.833","city":"Gillingham","latitude":"50.63N","longitude":"1.27E"}
{"date":"2013-07-01","average_temperature":"26.885","city":"Girón","latitude":"7.23N","longitude":"73.78W"}
{"date":"2013-02-01","average_temperature":"-0.379","city":"Gliwice","latitude":"50.63N","longitude":"19.01E"}
{"date":"2011-04-01","average_temperature":"26.235","city":"Gojra","latitude":"31.35N","longitude":"73.51E"}
{"date":"2013-07-01","average_temperature":"27.998","city":"Gondal","latitude":"21.70N","longitude":"70.10E"}
{"date":"2011-06-01","average_temperature":"30.087","city":"Grand Prairie","latitude":"32.95N","longitude":"96.70W"}
{"date":"2011-12-01","average_temperature":"0.04899999999999993","city":"Graz","latitude":"47.42N","longitude":"15.39E"}
{"date":"2010-01-01","average_temperature":"-1.999","city":"Grenoble","latitude":"45.81N","longitude":"5.77E"}
{"date":"2012-12-01","average_temperature":"14.911","city":"Guangzhou","latitude":"23.31N","longitude":"112.72E"}
{"date":"2011-09-01","average_temperature":"28.441999999999997","city":"Gujranwala","latitude":"32.95N","longitude":"73.72E"}
{"date":"2013-03-01","average_temperature":"19.253","city":"Gujranwala","latitude":"32.95N","longitude":"73.72E"}
{"date":"2012-02-01","average_temperature":"27.062","city":"Gulbarga","latitude":"16.87N","longitude":"77.02E"}
{"date":"2010-02-01","average_temperature":"17.854","city":"Guwahati","latitude":"26.52N","longitude":"91.34E"}
{"date":"2012-09-01","average_temperature":"26.107","city":"Guwahati","latitude":"26.52N","longitude":"91.34E"}
{"date":"2012-05-01","average_temperature":"14.169","city":"Haarlem","latitude":"52.24N","longitude":"5.26E"}
{"date":"2012-05-01","average_temperature":"16.669999999999998","city":"Hadano","latitude":"36.17N","longitude":"139.23E"}
{"date":"2011-09-01","average_temperature":"8.602","city":"Hailar","latitude":"49.03N","longitude":"120.00E"}
{"date":"2013-06-01","average_temperature":"20.087","city":"Hailun","latitude":"47.42N","longitude":"126.71E"}
{"date":"2013-07-01","average_temperature":"17.848","city":"Halifax","latitude":"44.20N","longitude":"62.61W"}
{"date":"2011-03-01","average_temperature":"4.353","city":"Hamburg","latitude":"53.84N","longitude":"9.55E"}
{"date":"2013-01-01","average_temperature":"-1.5630000000000002","city":"Hamilton","latitude":"42.59N","longitude":"80.73W"}
{"date":"2011-11-01","average_temperature":"15.380999999999998","city":"Hamilton","latitude":"37.78S","longitude":"174.92E"}
{"date":"2011-05-01","average_temperature":"20.351","city":"Hampton","latitude":"36.17N","longitude":"75.58W"}
{"date":"2012-06-01","average_temperature":"22.674","city":"Hangu","latitude":"39.38N","longitude":"118.61E"}
{"date":"2012-10-01","average_temperature":"23.796","city":"Hanoi","latitude":"21.70N","longitude":"106.44E"}
{"date":"2010-12-01","average_temperature":"19.602999999999998","city":"Haora","latitude":"23.31N","longitude":"88.25E"}
{"date":"2010-01-01","average_temperature":"23.459","city":"Harare","latitude":"18.48S","longitude":"30.42E"}
{"date":"2012-05-01","average_temperature":"33.114000000000004","city":"Hazaribag","latitude":"23.31N","longitude":"84.76E"}
{"date":"2013-09-01","city":"Hegang","latitude":"47.42N","longitude":"131.45E"}
{"date":"2012-02-01","average_temperature":"1.686","city":"Herat","latitude":"34.56N","longitude":"62.27E"}
{"date":"2010-05-01","average_temperature":"24.24","city":"Hermosillo","latitude":"29.74N","longitude":"110.77W"}
{"date":"2011-09-01","average_temperature":"23.818","city":"Himeji","latitude":"34.56N","longitude":"134.27E"}
{"date":"2012-01-01","average_temperature":"4.089","city":"Himeji","latitude":"34.56N","longitude":"134.27E"}
{"date":"2012-10-01","average_temperature":"24.848000000000003","city":"Hindupur","latitude":"13.66N","longitude":"76.79E"}
{"date":"2012-02-01","average_temperature":"1.8419999999999999","city":"Hiratsuka","latitude":"36.17N","longitude":"139.23E"}
{"date":"2010-03-01","average_temperature":"25.329","city":"Holguín","latitude":"20.09N","longitude":"76.78W"}
{"date":"2011-10-01","average_temperature":"7.923999999999999","city":"Horlivka","latitude":"49.03N","longitude":"39.18E"}
{"date":"2012-02-01","average_temperature":"17.247999999999998","city":"Hsichih","latitude":"24.92N","longitude":"122.36E"}
{"date":"2010-08-01","average_temperature":"28.75","city":"Hsinchu","latitude":"24.92N","longitude":"120.59E"}
{"date":"2012-03-01","average_temperature":"8.116","city":"Huaibei","latitude":"34.56N","longitude":"116.76E"}
{"date":"2010-03-01","average_temperature":"11.14","city":"Huaihua","latitude":"28.13N","longitude":"110.00E"}
{"date":"2013-01-01","average_temperature":"1.5119999999999998","city":"Huaiyin","latitude":"32.95N","longitude":"119.68E"}
{"date":"2011-07-01","average_temperature":"28.351","city":"Huangyan","latitude":"28.13N","longitude":"120.91E"}
{"date":"2011-12-01","average_temperature":"9.696000000000002","city":"Huelva","latitude":"37.78N","longitude":"6.10W"}
{"date":"2011-02-01","average_temperature":"14.557","city":"Huixquilucan","latitude":"20.09N","longitude":"98.96W"}
{"date":"2013-03-01","average_temperature":"19.825","city":"Humen","latitude":"23.31N","longitude":"114.47E"}
{"date":"2011-02-01","average_temperature":"12.449000000000002","city":"Huntington Beach","latitude":"32.95N","longitude":"117.77W"}
{"date":"2013-03-01","average_temperature":"20.936999999999998","city":"Ibagué","latitude":"4.02N","longitude":"74.73W"}
{"date":"2012-04-01","average_temperature":"13.708","city":"Ichinomiya","latitude":"34.56N","longitude":"136.22E"}
{"date":"2012-10-01","average_temperature":"26.081","city":"Igboho","latitude":"8.84N","longitude":"4.05E"}
{"date":"2012-09-01","average_temperature":"22.783","city":"Iida","latitude":"36.17N","longitude":"137.24E"}
{"date":"2012-10-01","average_temperature":"26.206999999999997","city":"Ikire","latitude":"7.23N","longitude":"4.05E"}
{"date":"2013-01-01","average_temperature":"28.136","city":"Ikirun","latitude":"7.23N","longitude":"4.05E"}
{"date":"2011-01-01","average_temperature":"26.399","city":"Ila","latitude":"7.23N","longitude":"5.68E"}
{"date":"2011-01-01","average_temperature":"27.29","city":"Ilobu","latitude":"7.23N","longitude":"4.05E"}
{"date":"2012-04-01","average_temperature":"22.25","city":"Imphal","latitude":"24.92N","longitude":"93.99E"}
{"date":"2010-01-01","average_temperature":"24.112","city":"Indaiatuba","latitude":"23.31S","longitude":"48.06W"}
{"date":"2013-08-01","average_temperature":"18.652","city":"Indaiatuba","latitude":"23.31S","longitude":"48.06W"}
{"date":"2012-01-01","average_temperature":"16.639","city":"Indore","latitude":"23.31N","longitude":"76.02E"}
{"date":"2012-07-01","average_temperature":"23.851","city":"Inglewood","latitude":"34.56N","longitude":"118.70W"}
{"date":"2010-04-01","average_temperature":"17.531000000000002","city":"Iráklion","latitude":"34.56N","longitude":"25.30E"}
{"date":"2012-12-01","average_temperature":"15.073","city":"Iráklion","latitude":"34.56N","longitude":"25.30E"}
{"date":"2010-05-01","average_temperature":"22.985","city":"Iringa","latitude":"7.23S","longitude":"36.49E"}
{"date":"2012-09-01","average_temperature":"23.275","city":"Iruma","latitude":"36.17N","longitude":"139.23E"}
{"date":"2010-11-01","average_temperature":"9.515","city":"Isesaki","latitude":"36.17N","longitude":"139.23E"}
{"date":"2011-10-01","average_temperature":"24.382","city":"Itabuna","latitude":"15.27S","longitude":"39.17W"}
{"date":"2013-01-01","average_temperature":"23.456","city":"Itajaí","latitude":"26.52S","longitude":"48.36W"}
{"date":"2013-03-01","average_temperature":"22.48","city":"Itapevi","latitude":"23.31S","longitude":"46.31W"}
{"date":"2012-11-01","average_temperature":"-2.633","city":"Izhevsk","latitude":"57.05N","longitude":"54.59E"}
{"date":"2010-02-01","average_temperature":"9.667","city":"Jaén","latitude":"37.78N","longitude":"4.07W"}
{"date":"2011-02-01","average_temperature":"9.785","city":"Jaén","latitude":"37.78N","longitude":"4.07W"}
{"date":"2011-06-01","average_temperature":"29.677","city":"Jabalpur","latitude":"23.31N","longitude":"79.51E"}
{"date":"2011-02-01","average_temperature":"9.97","city":"Jackson","latitude":"32.95N","longitude":"90.96W"}
{"date":"2011-08-01","average_temperature":"28.734","city":"Jacksonville","latitude":"29.74N","longitude":"81.23W"}
{"date":"2012-07-01","average_temperature":"31.487","city":"Jaipur","latitude":"26.52N","longitude":"75.22E"}
{"date":"2012-10-01","average_temperature":"27.316999999999997","city":"Jakarta","latitude":"5.63S","longitude":"106.55E"}
{"date":"2011-07-01","average_temperature":"26.667","city":"Jalpaiguri","latitude":"26.52N","longitude":"89.55E"}
{"date":"2010-08-01","average_temperature":"29.090999999999998","city":"Jamshedpur","latitude":"23.31N","longitude":"86.50E"}
{"date":"2012-08-01","average_temperature":"28.523000000000003","city":"Jamshedpur","latitude":"23.31N","longitude":"86.50E"}
{"date":"2012-07-01","average_temperature":"28.525","city":"Jaramana","latitude":"32.95N","longitude":"35.43E"}
{"date":"2010-11-01","average_temperature":"27.274","city":"Jember","latitude":"8.84S","longitude":"114.32E"}
{"date":"2013-03-01","average_temperature":"27.94","city":"Jember","latitude":"8.84S","longitude":"114.32E"}
{"date":"2011-08-01","average_temperature":"21.856","city":"Jequié","latitude":"13.66S","longitude":"40.46W"}
{"date":"2012-10-01","average_temperature":"28.008000000000006","city":"Jetpur","latitude":"21.70N","longitude":"70.10E"}
{"date":"2010-03-01","average_temperature":"13.16","city":"Jiangyou","latitude":"31.35N","longitude":"105.55E"}
{"date":"2010-05-01","average_temperature":"21.219","city":"Jiaozuo","latitude":"34.56N","longitude":"112.86E"}
{"date":"2012-01-01","average_temperature":"23.106","city":"Jiddah","latitude":"21.70N","longitude":"38.94E"}
{"date":"2011-06-01","average_temperature":"18.86","city":"Jilin","latitude":"44.20N","longitude":"127.45E"}
{"date":"2011-02-01","average_temperature":"7.4220000000000015","city":"Jiujiang","latitude":"29.74N","longitude":"116.31E"}
{"date":"2010-02-01","average_temperature":"19.635","city":"Jiutepec","latitude":"18.48N","longitude":"99.72W"}
{"date":"2012-04-01","average_temperature":"30.426","city":"Jodhpur","latitude":"26.52N","longitude":"73.43E"}
{"date":"2013-02-01","average_temperature":"26.702","city":"Jolo","latitude":"5.63N","longitude":"119.46E"}
{"date":"2012-01-01","average_temperature":"22.636","city":"Jos","latitude":"10.45N","longitude":"9.00E"}
{"date":"2011-02-01","average_temperature":"25.546999999999997","city":"Juazeiro Do Norte","latitude":"7.23S","longitude":"39.73W"}
{"date":"2012-08-01","average_temperature":"24.89","city":"Juba","latitude":"4.02N","longitude":"31.34E"}
{"date":"2011-06-01","average_temperature":"18.269000000000002","city":"Kabwe","latitude":"13.66S","longitude":"28.90E"}
{"date":"2010-03-01","average_temperature":"29.145","city":"Kakinada","latitude":"16.87N","longitude":"82.05E"}
{"date":"2012-04-01","average_temperature":"9.831","city":"Kalisz","latitude":"52.24N","longitude":"18.39E"}
{"date":"2011-05-01","average_temperature":"16.147000000000002","city":"Kamagaya","latitude":"36.17N","longitude":"139.23E"}
{"date":"2012-03-01","average_temperature":"5.617000000000001","city":"Kamagaya","latitude":"36.17N","longitude":"139.23E"}
{"date":"2011-11-01","average_temperature":"21.799","city":"Kamalia","latitude":"31.35N","longitude":"73.51E"}
{"date":"2013-07-01","average_temperature":"33.279","city":"Kamalia","latitude":"31.35N","longitude":"73.51E"}
{"date":"2011-06-01","average_temperature":"23.521","city":"Kampala","latitude":"0.80N","longitude":"32.95E"}
{"date":"2011-04-01","average_temperature":"30.101999999999997","city":"Kanchipuram","latitude":"13.66N","longitude":"80.09E"}
{"date":"2010-04-01","average_temperature":"31.826","city":"Kandi","latitude":"10.45N","longitude":"2.45E"}
{"date":"2012-07-01","average_temperature":"30.179000000000002","city":"Kashan","latitude":"34.56N","longitude":"50.59E"}
{"date":"2011-10-01","average_temperature":"19.021","city":"Kashipur","latitude":"29.74N","longitude":"79.38E"}
{"date":"2010-11-01","average_temperature":"24.515","city":"Katihar","latitude":"24.92N","longitude":"86.90E"}
{"date":"2010-03-01","average_temperature":"27.768","city":"Kediri","latitude":"7.23S","longitude":"112.70E"}
{"date":"2010-08-01","average_temperature":"26.95","city":"Kedungwuni","latitude":"7.23S","longitude":"109.46E"}
{"date":"2012-11-01","average_temperature":"-0.6259999999999999","city":"Kelowna","latitude":"49.03N","longitude":"120.00W"}
{"date":"2013-04-01","average_temperature":"27.065","city":"Kemang","latitude":"7.23S","longitude":"106.22E"}
{"date":"2011-10-01","average_temperature":"5.659","city":"Kemerovo","latitude":"55.45N","longitude":"85.04E"}
{"date":"2012-07-01","average_temperature":"21.068","city":"Kemerovo","latitude":"55.45N","longitude":"85.04E"}
{"date":"2010-11-01","average_temperature":"-6.7940000000000005","city":"Khabarovsk","latitude":"49.03N","longitude":"134.69E"}
{"date":"2011-08-01","average_temperature":"26.475","city":"Khandwa","latitude":"21.70N","longitude":"77.02E"}
{"date":"2012-05-01","average_temperature":"30.202","city":"Khulna","latitude":"23.31N","longitude":"90.00E"}
{"date":"2013-01-01","average_temperature":"20.253","city":"Kigali","latitude":"2.41S","longitude":"29.73E"}
{"date":"2012-10-01","average_temperature":"23.554000000000002","city":"Kindu","latitude":"2.41S","longitude":"26.52E"}
{"date":"2012-04-01","average_temperature":"6.742000000000001","city":"Kingston Upon Hull","latitude":"53.84N","longitude":"1.36W"}
{"date":"2011-12-01","average_temperature":"24.776","city":"Kisangani","latitude":"0.80N","longitude":"24.91E"}
{"date":"2013-01-01","average_temperature":"25.404","city":"Kisaran","latitude":"2.41N","longitude":"98.84E"}
{"date":"2012-06-01","average_temperature":"20.69","city":"Kisarazu","latitude":"34.56N","longitude":"140.11E"}
{"date":"2010-02-01","average_temperature":"-1.5019999999999998","city":"Klaipeda","latitude":"55.45N","longitude":"19.84E"}
{"date":"2010-11-01","average_temperature":"6.84","city":"Klaipeda","latitude":"55.45N","longitude":"19.84E"}
{"date":"2012-10-01","average_temperature":"20.124000000000002","city":"Klerksdorp","latitude":"26.52S","longitude":"26.87E"}
{"date":"2011-11-01","average_temperature":"25.392","city":"Koidu","latitude":"8.84N","longitude":"10.54W"}
{"date":"2010-05-01","average_temperature":"30.769000000000002","city":"Kolar","latitude":"13.66N","longitude":"78.44E"}
{"date":"2011-02-01","average_temperature":"-12.824000000000002","city":"Kolomna","latitude":"55.45N","longitude":"39.69E"}
{"date":"2010-08-01","average_temperature":"28.454","city":"Komaki","latitude":"34.56N","longitude":"136.22E"}
{"date":"2012-01-01","average_temperature":"0.7150000000000001","city":"Koshigaya","latitude":"36.17N","longitude":"139.23E"}
{"date":"2012-02-01","average_temperature":"1.8419999999999999","city":"Koshigaya","latitude":"36.17N","longitude":"139.23E"}
{"date":"2010-12-01","average_temperature":"24.814","city":"Kotte","latitude":"7.23N","longitude":"80.27E"}
{"date":"2012-01-01","average_temperature":"-1.258","city":"Krasnodar","latitude":"45.81N","longitude":"38.08E"}
{"date":"2013-03-01","average_temperature":"4.213","city":"Krasnodar","latitude":"45.81N","longitude":"38.08E"}
{"date":"2013-06-01","average_temperature":"15.589","city":"Krefeld","latitude":"50.63N","longitude":"6.34E"}
{"date":"2011-08-01","average_temperature":"28.976","city":"Krishnanagar","latitude":"23.31N","longitude":"88.25E"}
{"date":"2010-12-01","average_temperature":"25.416","city":"Kuantan","latitude":"4.02N","longitude":"103.66E"}
{"date":"2011-10-01","average_temperature":"25.278","city":"Kumba","latitude":"4.02N","longitude":"8.84E"}
{"date":"2012-04-01","average_temperature":"10.213","city":"Kursk","latitude":"52.24N","longitude":"36.79E"}
{"date":"2011-02-01","average_temperature":"23.131","city":"La Plata","latitude":"34.56S","longitude":"58.38W"}
{"date":"2012-07-01","average_temperature":"8.375","city":"La Plata","latitude":"34.56S","longitude":"58.38W"}
{"date":"2013-08-01","average_temperature":"21.813000000000002","city":"Lakewood","latitude":"39.38N","longitude":"104.05W"}
{"date":"2012-02-01","average_temperature":"8.953","city":"Lalitpur","latitude":"28.13N","longitude":"84.55E"}
{"date":"2012-10-01","average_temperature":"14.025","city":"Langfang","latitude":"39.38N","longitude":"116.53E"}
{"date":"2010-10-01","average_temperature":"25.211","city":"Lashio","latitude":"23.31N","longitude":"96.99E"}
{"date":"2011-03-01","average_temperature":"23.842","city":"Lashio","latitude":"23.31N","longitude":"96.99E"}
{"date":"2010-05-01","average_temperature":"17.258000000000006","city":"Latina","latitude":"40.99N","longitude":"12.78E"}
{"date":"2013-09-01","average_temperature":"19.503","city":"León","latitude":"21.70N","longitude":"101.25W"}
{"date":"2012-12-01","average_temperature":"4.849","city":"Leicester","latitude":"52.24N","longitude":"0.00W"}
{"date":"2012-03-01","average_temperature":"6.667999999999998","city":"Leipzig","latitude":"50.63N","longitude":"11.41E"}
{"date":"2012-10-01","average_temperature":"8.031","city":"Leipzig","latitude":"50.63N","longitude":"11.41E"}
{"date":"2012-07-01","average_temperature":"24.96","city":"Lembang","latitude":"7.23S","longitude":"107.84E"}
{"date":"2010-08-01","average_temperature":"25.948","city":"Liaocheng","latitude":"36.17N","longitude":"115.36E"}
{"date":"2010-04-01","average_temperature":"23.301","city":"Lichinga","latitude":"13.66S","longitude":"35.50E"}
{"date":"2012-10-01","average_temperature":"10.67","city":"Lincoln","latitude":"40.99N","longitude":"95.86W"}
{"date":"2011-07-01","average_temperature":"23.511","city":"Linhares","latitude":"20.09S","longitude":"39.24W"}
{"date":"2010-04-01","average_temperature":"12.684000000000001","city":"Linqing","latitude":"36.17N","longitude":"115.36E"}
{"date":"2011-04-01","average_temperature":"6.247999999999999","city":"Lipetsk","latitude":"52.24N","longitude":"39.42E"}
{"date":"2012-11-01","average_temperature":"12.662","city":"Lisbon","latitude":"39.38N","longitude":"8.32W"}
{"date":"2010-01-01","average_temperature":"5.979","city":"Lleida","latitude":"40.99N","longitude":"0.00W"}
{"date":"2011-02-01","average_temperature":"9.292","city":"Lleida","latitude":"40.99N","longitude":"0.00W"}
{"date":"2011-09-01","average_temperature":"23.062","city":"Lleida","latitude":"40.99N","longitude":"0.00W"}
{"date":"2013-03-01","average_temperature":"28.085","city":"Lobito","latitude":"12.05S","longitude":"13.15E"}
{"date":"2012-12-01","average_temperature":"20.987","city":"Loja","latitude":"4.02S","longitude":"79.55W"}
{"date":"2010-10-01","average_temperature":"21.866999999999997","city":"Londrina","latitude":"23.31S","longitude":"51.55W"}
{"date":"2012-04-01","average_temperature":"6.9750000000000005","city":"Longjiang","latitude":"47.42N","longitude":"124.34E"}
{"date":"2012-06-01","average_temperature":"15.239","city":"Longjing","latitude":"42.59N","longitude":"128.73E"}
{"date":"2013-07-01","average_temperature":"23.971999999999998","city":"Louisville","latitude":"37.78N","longitude":"85.42W"}
{"date":"2013-08-01","average_temperature":"21.130000000000006","city":"Luanda","latitude":"8.84S","longitude":"13.78E"}
{"date":"2010-01-01","average_temperature":"22.394000000000002","city":"Lubumbashi","latitude":"12.05S","longitude":"27.95E"}
{"date":"2012-09-01","average_temperature":"14.093","city":"Münster","latitude":"52.24N","longitude":"7.88E"}
{"date":"2010-10-01","average_temperature":"9.193999999999999","city":"Maastricht","latitude":"50.63N","longitude":"6.34E"}
{"date":"2013-06-01","average_temperature":"20.927","city":"Machida","latitude":"36.17N","longitude":"139.23E"}
{"date":"2011-02-01","average_temperature":"24.619","city":"Madanapalle","latitude":"13.66N","longitude":"78.44E"}
{"date":"2010-02-01","average_temperature":"23.573","city":"Mahesana","latitude":"23.31N","longitude":"72.52E"}
{"date":"2013-03-01","average_temperature":"28.264","city":"Makati","latitude":"15.27N","longitude":"120.83E"}
{"date":"2012-02-01","average_temperature":"-4.4990000000000006","city":"Makhachkala","latitude":"42.59N","longitude":"48.00E"}
{"date":"2013-07-01","average_temperature":"23.674","city":"Makiyivka","latitude":"47.42N","longitude":"39.08E"}
{"date":"2013-01-01","average_temperature":"26.839000000000002","city":"Malabo","latitude":"4.02N","longitude":"8.84E"}
{"date":"2010-11-01","average_temperature":"14.085","city":"Malatya","latitude":"37.78N","longitude":"38.64E"}
{"date":"2011-06-01","average_temperature":"28.348000000000006","city":"Malegaon","latitude":"20.09N","longitude":"75.07E"}
{"date":"2011-08-01","average_temperature":"16.801000000000002","city":"Malmö","latitude":"55.45N","longitude":"14.17E"}
{"date":"2011-08-01","average_temperature":"29.320999999999998","city":"Mandi Bahauddin","latitude":"32.95N","longitude":"73.72E"}
{"date":"2012-04-01","average_temperature":"23.958000000000002","city":"Marília","latitude":"21.70S","longitude":"49.33W"}
{"date":"2010-09-01","average_temperature":"26.944000000000003","city":"Maracay","latitude":"10.45N","longitude":"67.91W"}
{"date":"2011-04-01","average_temperature":"9.703","city":"Marand","latitude":"39.38N","longitude":"45.78E"}
{"date":"2011-05-01","average_temperature":"27.048000000000002","city":"Marawi","latitude":"7.23N","longitude":"124.05E"}
{"date":"2011-04-01","average_temperature":"22.976000000000006","city":"Maringá","latitude":"23.31S","longitude":"51.55W"}
{"date":"2010-11-01","average_temperature":"9.797","city":"Marivan","latitude":"36.17N","longitude":"45.75E"}
{"date":"2013-02-01","average_temperature":"11.475","city":"Marrakesh","latitude":"31.35N","longitude":"7.54W"}
{"date":"2010-06-01","average_temperature":"27.296000000000006","city":"Marv Dasht","latitude":"29.74N","longitude":"53.54E"}
{"date":"2013-02-01","average_temperature":"16.093","city":"Masjed E Soleyman","latitude":"31.35N","longitude":"49.01E"}
{"date":"2011-07-01","average_temperature":"25.289","city":"Mataram","latitude":"8.84S","longitude":"115.95E"}
{"date":"2010-12-01","average_temperature":"5.7189999999999985","city":"Matsudo","latitude":"36.17N","longitude":"139.23E"}
{"date":"2011-04-01","average_temperature":"9.115","city":"Mazyr","latitude":"52.24N","longitude":"28.91E"}
{"date":"2013-09-01","city":"Mbour","latitude":"13.66N","longitude":"17.34W"}
{"date":"2010-08-01","average_temperature":"28.296","city":"Meilu","latitude":"21.70N","longitude":"109.90E"}
{"date":"2013-01-01","average_temperature":"27.274","city":"Melaka","latitude":"2.41N","longitude":"102.05E"}
{"date":"2010-07-01","average_temperature":"8.535","city":"Melbourne","latitude":"37.78S","longitude":"144.41E"}
{"date":"2011-07-01","average_temperature":"26.919","city":"Meycauayan","latitude":"15.27N","longitude":"120.83E"}
{"date":"2010-03-01","average_temperature":"6.489","city":"Milwaukee","latitude":"42.59N","longitude":"87.27W"}
{"date":"2011-04-01","average_temperature":"27.645","city":"Minatitlán","latitude":"18.48N","longitude":"94.65W"}
{"date":"2013-01-01","average_temperature":"-1.821","city":"Mingshui","latitude":"36.17N","longitude":"117.35E"}
{"date":"2010-05-01","average_temperature":"26.882","city":"Miramar","latitude":"26.52N","longitude":"80.60W"}
{"date":"2013-01-01","average_temperature":"20.774","city":"Miramar","latitude":"26.52N","longitude":"80.60W"}
{"date":"2011-10-01","average_temperature":"28.842","city":"Mirpur Khas","latitude":"24.92N","longitude":"69.16E"}
{"date":"2013-03-01","average_temperature":"25.219","city":"Mirzapur","latitude":"24.92N","longitude":"83.35E"}
{"date":"2013-05-01","average_temperature":"16.866","city":"Miskolc","latitude":"47.42N","longitude":"20.13E"}
{"date":"2010-09-01","average_temperature":"26.145","city":"Misratah","latitude":"32.95N","longitude":"14.36E"}
{"date":"2013-05-01","average_temperature":"20.582","city":"Miyakonojo","latitude":"31.35N","longitude":"131.94E"}
{"date":"2010-09-01","average_temperature":"26.293000000000003","city":"Mobile","latitude":"31.35N","longitude":"88.59W"}
{"date":"2013-06-01","average_temperature":"25.809","city":"Modakeke","latitude":"7.23N","longitude":"4.05E"}
{"date":"2011-07-01","average_temperature":"22.06","city":"Modena","latitude":"44.20N","longitude":"11.18E"}
{"date":"2010-05-01","average_temperature":"25.916999999999998","city":"Monclova","latitude":"26.52N","longitude":"102.09W"}
{"date":"2013-07-01","average_temperature":"26.636000000000006","city":"Monclova","latitude":"26.52N","longitude":"102.09W"}
{"date":"2011-09-01","average_temperature":"25.598000000000003","city":"Monrovia","latitude":"7.23N","longitude":"10.54W"}
{"date":"2011-05-01","average_temperature":"12.985","city":"Montreal","latitude":"45.81N","longitude":"72.69W"}
{"date":"2012-07-01","average_temperature":"30.039","city":"Morvi","latitude":"23.31N","longitude":"70.78E"}
{"date":"2012-07-01","average_temperature":"28.244","city":"Mostar","latitude":"42.59N","longitude":"17.45E"}
{"date":"2010-12-01","average_temperature":"25.147","city":"Moundou","latitude":"8.84N","longitude":"15.41E"}
{"date":"2012-06-01","average_temperature":"26.503","city":"Moundou","latitude":"8.84N","longitude":"15.41E"}
{"date":"2011-01-01","average_temperature":"0.8170000000000001","city":"Musashino","latitude":"36.17N","longitude":"139.23E"}
{"date":"2010-01-01","average_temperature":"28.696","city":"Nacala","latitude":"15.27S","longitude":"40.83E"}
{"date":"2013-05-01","average_temperature":"30.927","city":"Nakhon Pathom","latitude":"13.66N","longitude":"99.91E"}
{"date":"2012-01-01","average_temperature":"23.829","city":"Nalgonda","latitude":"16.87N","longitude":"78.70E"}
{"date":"2010-09-01","average_temperature":"17.641000000000005","city":"Namangan","latitude":"40.99N","longitude":"72.43E"}
{"date":"2013-05-01","average_temperature":"11.805","city":"Nancy","latitude":"49.03N","longitude":"7.35E"}
{"date":"2012-03-01","average_temperature":"27.144","city":"Nandurbar","latitude":"21.70N","longitude":"73.56E"}
{"date":"2011-01-01","average_temperature":"0.14400000000000013","city":"Nanjing","latitude":"31.35N","longitude":"118.74E"}
{"date":"2011-11-01","average_temperature":"20.685","city":"Nanning","latitude":"23.31N","longitude":"107.48E"}
{"date":"2013-08-01","average_temperature":"28.195","city":"Nanning","latitude":"23.31N","longitude":"107.48E"}
{"date":"2010-07-01","average_temperature":"25.106","city":"Nanpiao","latitude":"40.99N","longitude":"121.42E"}
{"date":"2013-07-01","average_temperature":"21.862","city":"Nantes","latitude":"47.42N","longitude":"1.18W"}
{"date":"2010-04-01","average_temperature":"30.517000000000003","city":"Narsingdi","latitude":"23.31N","longitude":"90.00E"}
{"date":"2011-03-01","average_temperature":"10.637","city":"Nashville","latitude":"36.17N","longitude":"87.51W"}
{"date":"2011-08-01","average_temperature":"29.371","city":"Nassau","latitude":"24.92N","longitude":"78.03W"}
{"date":"2011-11-01","average_temperature":"24.404","city":"Nassau","latitude":"24.92N","longitude":"78.03W"}
{"date":"2013-07-01","average_temperature":"25.051","city":"Natal","latitude":"5.63S","longitude":"35.52W"}
{"date":"2011-05-01","average_temperature":"16.934","city":"Nazran","latitude":"44.20N","longitude":"44.72E"}
{"date":"2012-02-01","average_temperature":"26.549","city":"Negombo","latitude":"7.23N","longitude":"80.27E"}
{"date":"2011-01-01","average_temperature":"21.099","city":"Neuquen","latitude":"39.38S","longitude":"68.67W"}
{"date":"2013-05-01","average_temperature":"11.463","city":"Neuss","latitude":"50.63N","longitude":"6.34E"}
{"date":"2011-09-01","average_temperature":"29.399","city":"New Delhi","latitude":"28.13N","longitude":"77.27E"}
{"date":"2011-11-01","average_temperature":"8.013","city":"New York","latitude":"40.99N","longitude":"74.56W"}
{"date":"2010-05-01","average_temperature":"10.035","city":"Newcastle Upon Tyne","latitude":"55.45N","longitude":"2.83W"}
{"date":"2010-07-01","average_temperature":"15.199000000000002","city":"Newcastle Upon Tyne","latitude":"55.45N","longitude":"2.83W"}
{"date":"2012-07-01","average_temperature":"13.807","city":"Newcastle Upon Tyne","latitude":"55.45N","longitude":"2.83W"}
{"date":"2012-05-01","average_temperature":"15.574000000000002","city":"Niigata","latitude":"37.78N","longitude":"138.31E"}
{"date":"2010-06-01","average_temperature":"21.521","city":"Niiza","latitude":"36.17N","longitude":"139.23E"}
{"date":"2013-01-01","average_temperature":"3.917","city":"Nishio","latitude":"34.56N","longitude":"136.22E"}
{"date":"2011-03-01","average_temperature":"25.967","city":"Niterói","latitude":"23.31S","longitude":"42.82W"}
{"date":"2010-06-01","average_temperature":"31.245","city":"Nizamabad","latitude":"18.48N","longitude":"77.75E"}
{"date":"2013-02-01","average_temperature":"-17.23","city":"Nizhnevartovsk","latitude":"60.27N","longitude":"77.84E"}
{"date":"2012-11-01","average_temperature":"10.41","city":"Nobeoka","latitude":"32.95N","longitude":"131.17E"}
{"date":"2012-12-01","average_temperature":"9.821000000000002","city":"Nogales","latitude":"31.35N","longitude":"111.20W"}
{"date":"2013-04-01","average_temperature":"-13.493","city":"Norilsk","latitude":"69.92N","longitude":"88.83E"}
{"date":"2012-09-01","average_temperature":"25.508000000000003","city":"Nossa Senhora Do Socorro","latitude":"10.45S","longitude":"36.82W"}
{"date":"2011-12-01","average_temperature":"23.05","city":"Nova Friburgo","latitude":"21.70S","longitude":"42.40W"}
{"date":"2010-01-01","average_temperature":"24.374000000000002","city":"Novo Hamburgo","latitude":"29.74S","longitude":"51.69W"}
{"date":"2012-08-01","average_temperature":"17.512","city":"Novo Hamburgo","latitude":"29.74S","longitude":"51.69W"}
{"date":"2011-10-01","average_temperature":"6.242999999999999","city":"Novotroitsk","latitude":"50.63N","longitude":"59.58E"}
{"date":"2012-06-01","average_temperature":"23.156","city":"Novotroitsk","latitude":"50.63N","longitude":"59.58E"}
{"date":"2011-01-01","average_temperature":"12.239","city":"Nuevo Laredo","latitude":"28.13N","longitude":"99.09W"}
{"date":"2013-07-01","average_temperature":"21.399","city":"Nyíregyháza","latitude":"47.42N","longitude":"22.50E"}
{"date":"2013-03-01","average_temperature":"1.8340000000000003","city":"Oberhausen","latitude":"50.63N","longitude":"6.34E"}
{"date":"2010-01-01","average_temperature":"17.218","city":"Obregon","latitude":"28.13N","longitude":"110.00W"}
{"date":"2013-07-01","average_temperature":"21.84","city":"Odesa","latitude":"45.81N","longitude":"31.15E"}
{"date":"2012-07-01","average_temperature":"25.531999999999996","city":"Ogbomosho","latitude":"8.84N","longitude":"4.05E"}
{"date":"2013-05-01","average_temperature":"12.267999999999999","city":"Oldenburg","latitude":"52.24N","longitude":"7.88E"}
{"date":"2013-02-01","average_temperature":"-0.6200000000000001","city":"Olomouc","latitude":"49.03N","longitude":"17.14E"}
{"date":"2010-09-01","average_temperature":"12.776","city":"Olsztyn","latitude":"53.84N","longitude":"20.45E"}
{"date":"2011-10-01","average_temperature":"13.415","city":"Omaha","latitude":"40.99N","longitude":"95.86W"}
{"date":"2012-12-01","average_temperature":"26.556","city":"Ongole","latitude":"15.27N","longitude":"80.83E"}
{"date":"2010-09-01","average_temperature":"14.371","city":"Oradea","latitude":"47.42N","longitude":"22.50E"}
{"date":"2010-05-01","average_temperature":"17.094","city":"Orekhovo Zuevo","latitude":"55.45N","longitude":"39.69E"}
{"date":"2012-08-01","average_temperature":"20.941000000000006","city":"Orléans","latitude":"47.42N","longitude":"1.18E"}
{"date":"2011-01-01","average_temperature":"26.789","city":"Oron","latitude":"5.63N","longitude":"8.07E"}
{"date":"2010-09-01","average_temperature":"25.383000000000003","city":"Owo","latitude":"7.23N","longitude":"5.68E"}
{"date":"2010-02-01","average_temperature":"25.845","city":"Pétionville","latitude":"18.48N","longitude":"72.68W"}
{"date":"2010-05-01","average_temperature":"25.98","city":"Pôrto Velho","latitude":"8.84S","longitude":"64.05W"}
{"date":"2012-10-01","average_temperature":"27.409000000000002","city":"Pali","latitude":"26.52N","longitude":"73.43E"}
{"date":"2012-11-01","average_temperature":"26.886999999999997","city":"Palo Negro","latitude":"10.45N","longitude":"67.91W"}
{"date":"2010-02-01","average_temperature":"22.959","city":"Panihati","latitude":"23.31N","longitude":"88.25E"}
{"date":"2012-09-01","average_temperature":"29.653000000000002","city":"Panihati","latitude":"23.31N","longitude":"88.25E"}
{"date":"2011-05-01","average_temperature":"28.173000000000002","city":"Parakou","latitude":"8.84N","longitude":"2.43E"}
{"date":"2010-02-01","average_temperature":"26.438000000000002","city":"Paranaguá","latitude":"24.92S","longitude":"47.88W"}
{"date":"2011-12-01","average_temperature":"25.669","city":"Paseh","latitude":"7.23S","longitude":"107.84E"}
{"date":"2011-09-01","average_temperature":"16.6","city":"Passo Fundo","latitude":"28.13S","longitude":"51.82W"}
{"date":"2011-12-01","average_temperature":"25.715999999999998","city":"Pathein","latitude":"16.87N","longitude":"95.44E"}
{"date":"2011-09-01","average_temperature":"15.88","city":"Pelotas","latitude":"31.35S","longitude":"52.77W"}
{"date":"2013-06-01","average_temperature":"19.308","city":"Penza","latitude":"53.84N","longitude":"45.00E"}
{"date":"2010-03-01","average_temperature":"23.112","city":"Perth","latitude":"31.35S","longitude":"114.97E"}
{"date":"2010-01-01","average_temperature":"8.397","city":"Pescara","latitude":"42.59N","longitude":"15.27E"}
{"date":"2011-10-01","average_temperature":"18.81","city":"Petapa","latitude":"15.27N","longitude":"90.83W"}
{"date":"2012-02-01","average_temperature":"25.495","city":"Phalaborwa","latitude":"23.31S","longitude":"30.58E"}
{"date":"2011-09-01","average_temperature":"27.522","city":"Phitsanulok","latitude":"16.87N","longitude":"100.47E"}
{"date":"2012-10-01","average_temperature":"14.553999999999998","city":"Pietermaritzburg","latitude":"29.74S","longitude":"29.54E"}
{"date":"2010-02-01","average_temperature":"19.005","city":"Pilibhit","latitude":"28.13N","longitude":"79.09E"}
{"date":"2012-04-01","average_temperature":"14.085999999999999","city":"Pitesti","latitude":"44.20N","longitude":"24.60E"}
{"date":"2012-02-01","average_temperature":"1.5269999999999997","city":"Pittsburgh","latitude":"40.99N","longitude":"80.95W"}
{"date":"2013-02-01","average_temperature":"0.532","city":"Ploiesti","latitude":"45.81N","longitude":"26.54E"}
{"date":"2012-03-01","average_temperature":"-3.467","city":"Podolsk","latitude":"55.45N","longitude":"36.85E"}
{"date":"2012-10-01","average_temperature":"15.158","city":"Pokhara","latitude":"28.13N","longitude":"84.55E"}
{"date":"2010-03-01","average_temperature":"21.014000000000006","city":"Ponta Grossa","latitude":"24.92S","longitude":"49.66W"}
{"date":"2010-01-01","average_temperature":"21.842","city":"Porbandar","latitude":"21.70N","longitude":"70.10E"}
{"date":"2010-02-01","average_temperature":"23.502","city":"Porbandar","latitude":"21.70N","longitude":"70.10E"}
{"date":"2010-05-01","average_temperature":"27.926","city":"Port Au Prince","latitude":"18.48N","longitude":"72.68W"}
{"date":"2013-07-01","average_temperature":"27.997","city":"Port Saint Lucie","latitude":"26.52N","longitude":"80.60W"}
{"date":"2010-11-01","average_temperature":"8.952","city":"Prato","latitude":"44.20N","longitude":"11.18E"}
{"date":"2011-12-01","average_temperature":"22.522","city":"Pretoria","latitude":"24.92S","longitude":"28.37E"}
{"date":"2012-08-01","average_temperature":"29.593000000000004","city":"Proddatur","latitude":"15.27N","longitude":"79.17E"}
{"date":"2010-01-01","average_temperature":"-4.579","city":"Providence","latitude":"42.59N","longitude":"72.00W"}
{"date":"2012-10-01","average_temperature":"27.078000000000003","city":"Pucallpa","latitude":"8.84S","longitude":"73.78W"}
{"date":"2010-07-01","average_temperature":"29.556","city":"Puqi","latitude":"29.74N","longitude":"114.46E"}
{"date":"2012-05-01","average_temperature":"33.048","city":"Puruliya","latitude":"23.31N","longitude":"86.50E"}
{"date":"2011-12-01","average_temperature":"25.669","city":"Purwakarta","latitude":"7.23S","longitude":"107.84E"}
{"date":"2011-04-01","average_temperature":"28.93","city":"Pyay","latitude":"18.48N","longitude":"94.65E"}
{"date":"2012-07-01","average_temperature":"32.097","city":"Qabis","latitude":"34.56N","longitude":"9.73E"}
{"date":"2012-10-01","average_temperature":"17.574","city":"Qarchak","latitude":"36.17N","longitude":"51.71E"}
{"date":"2011-10-01","average_temperature":"8.276","city":"Qianguo","latitude":"45.81N","longitude":"125.77E"}
{"date":"2011-08-01","average_temperature":"22.639","city":"Qiqihar","latitude":"47.42N","longitude":"124.34E"}
{"date":"2010-01-01","average_temperature":"12.9","city":"Querétaro","latitude":"20.09N","longitude":"100.66W"}
{"date":"2011-06-01","average_temperature":"21.122","city":"Querétaro","latitude":"20.09N","longitude":"100.66W"}
{"date":"2011-06-01","average_temperature":"22.495","city":"Qujing","latitude":"24.92N","longitude":"104.63E"}
{"date":"2010-01-01","average_temperature":"26.164","city":"Rabak","latitude":"13.66N","longitude":"32.20E"}
{"date":"2012-03-01","average_temperature":"4.868","city":"Radom","latitude":"50.63N","longitude":"21.55E"}
{"date":"2010-07-01","average_temperature":"30.013","city":"Rajshahi","latitude":"24.92N","longitude":"88.67E"}
{"date":"2011-01-01","average_temperature":"21.096999999999998","city":"Randfontein","latitude":"26.52S","longitude":"26.87E"}
{"date":"2012-04-01","average_temperature":"31.398000000000003","city":"Rangoon","latitude":"16.87N","longitude":"95.44E"}
{"date":"2012-05-01","average_temperature":"26.64","city":"Rawang","latitude":"4.02N","longitude":"102.05E"}
{"date":"2012-03-01","average_temperature":"8.755","city":"Reading","latitude":"50.63N","longitude":"1.27W"}
{"date":"2012-12-01","average_temperature":"-14.841","city":"Regina","latitude":"50.63N","longitude":"105.21W"}
{"date":"2011-02-01","average_temperature":"3.069","city":"Reno","latitude":"39.38N","longitude":"120.69W"}
{"date":"2012-11-01","average_temperature":"21.636","city":"Resende","latitude":"21.70S","longitude":"44.13W"}
{"date":"2011-07-01","average_temperature":"11.142999999999999","city":"Reykjavík","latitude":"65.09N","longitude":"21.06W"}
{"date":"2011-03-01","average_temperature":"22.939","city":"Reynosa","latitude":"26.52N","longitude":"98.51W"}
{"date":"2010-09-01","average_temperature":"22.191000000000006","city":"Ribeirão Das Neves","latitude":"20.09S","longitude":"44.36W"}
{"date":"2010-09-01","average_temperature":"22.956999999999997","city":"Richmond","latitude":"37.78N","longitude":"77.29W"}
{"date":"2011-05-01","average_temperature":"18.035999999999998","city":"Rimini","latitude":"44.20N","longitude":"13.42E"}
{"date":"2012-08-01","average_temperature":"19.107000000000006","city":"Rivne","latitude":"50.63N","longitude":"26.62E"}
{"date":"2013-01-01","average_temperature":"24.203000000000003","city":"Robertsonpet","latitude":"13.66N","longitude":"78.44E"}
{"date":"2011-04-01","average_temperature":"7.918000000000001","city":"Rockford","latitude":"42.59N","longitude":"89.45W"}
{"date":"2013-03-01","average_temperature":"26.358","city":"Rondonópolis","latitude":"16.87S","longitude":"55.26W"}
{"date":"2010-11-01","average_temperature":"8.443","city":"Rongcheng","latitude":"26.52N","longitude":"103.88E"}
{"date":"2013-04-01","average_temperature":"16.68","city":"Rustenburg","latitude":"26.52S","longitude":"26.87E"}
{"date":"2011-12-01","average_temperature":"22.244","city":"São Bernardo Do Campo","latitude":"23.31S","longitude":"46.31W"}
{"date":"2011-10-01","average_temperature":"23.319000000000003","city":"São Carlos","latitude":"21.70S","longitude":"47.60W"}
{"date":"2011-11-01","average_temperature":"27.773000000000003","city":"São Luís","latitude":"2.41S","longitude":"44.20W"}
{"date":"2010-01-01","average_temperature":"23.738000000000003","city":"São Vicente","latitude":"23.31S","longitude":"46.31W"}
{"date":"2013-04-01","average_temperature":"20.48","city":"São Vicente","latitude":"23.31S","longitude":"46.31W"}
{"date":"2011-11-01","average_temperature":"21.41","city":"Sabará","latitude":"20.09S","longitude":"44.36W"}
{"date":"2012-03-01","average_temperature":"14.635","city":"Sabratah","latitude":"32.95N","longitude":"12.45E"}
{"date":"2011-12-01","average_temperature":"15.223999999999998","city":"Safaqis","latitude":"34.56N","longitude":"11.68E"}
{"date":"2012-01-01","average_temperature":"12.306","city":"Saharanpur","latitude":"29.74N","longitude":"77.54E"}
{"date":"2010-10-01","average_temperature":"18.512999999999998","city":"Sakura","latitude":"36.17N","longitude":"141.22E"}
{"date":"2010-03-01","average_temperature":"17.913","city":"Salta","latitude":"24.92S","longitude":"65.62W"}
{"date":"2012-09-01","average_temperature":"26.349","city":"San Antonio","latitude":"29.74N","longitude":"97.85W"}
{"date":"2010-07-01","average_temperature":"19.191","city":"San Jose","latitude":"37.78N","longitude":"122.03W"}
{"date":"2010-08-01","average_temperature":"19.824","city":"San Luis Potosí","latitude":"21.70N","longitude":"101.25W"}
{"date":"2011-06-01","average_temperature":"21.524","city":"San Luis Potosí","latitude":"21.70N","longitude":"101.25W"}
{"date":"2011-07-01","average_temperature":"19.369","city":"San Luis Potosí","latitude":"21.70N","longitude":"101.25W"}
{"date":"2010-05-01","average_temperature":"27.086","city":"San Pedro Sula","latitude":"15.27N","longitude":"87.50W"}
{"date":"2013-05-01","average_temperature":"26.467","city":"Sancti Spíritus","latitude":"21.70N","longitude":"78.75W"}
{"date":"2012-09-01","average_temperature":"26.205","city":"Sanhsia","latitude":"24.92N","longitude":"120.59E"}
{"date":"2011-12-01","average_temperature":"25.841","city":"Santa Cruz","latitude":"13.66N","longitude":"121.38E"}
{"date":"2012-02-01","average_temperature":"25.581999999999997","city":"Santa Cruz Do Sul","latitude":"29.74S","longitude":"51.69W"}
{"date":"2012-05-01","average_temperature":"28.025","city":"Santa Marta","latitude":"10.45N","longitude":"74.45W"}
{"date":"2013-08-01","average_temperature":"25.168000000000003","city":"Santa Rita","latitude":"7.23S","longitude":"34.86W"}
{"date":"2011-08-01","average_temperature":"19.389","city":"Santa Rosa","latitude":"37.78N","longitude":"122.03W"}
{"date":"2011-11-01","average_temperature":"15.845999999999998","city":"Santander","latitude":"44.20N","longitude":"4.47W"}
{"date":"2013-07-01","average_temperature":"26.575","city":"Santarém","latitude":"2.41S","longitude":"55.45W"}
{"date":"2012-04-01","average_temperature":"10.054","city":"Sarajevo","latitude":"44.20N","longitude":"17.89E"}
{"date":"2013-07-01","average_temperature":"26.166","city":"Sarh","latitude":"8.84N","longitude":"18.65E"}
{"date":"2012-10-01","average_temperature":"18.989","city":"Sari","latitude":"36.17N","longitude":"53.70E"}
{"date":"2011-02-01","average_temperature":"13.709000000000001","city":"Savannah","latitude":"31.35N","longitude":"81.05W"}
{"date":"2012-12-01","average_temperature":"14.966","city":"Savannah","latitude":"31.35N","longitude":"81.05W"}
{"date":"2010-04-01","average_temperature":"6.206","city":"Seattle","latitude":"47.42N","longitude":"121.97W"}
{"date":"2012-06-01","average_temperature":"11.88","city":"Severodvinsk","latitude":"65.09N","longitude":"40.21E"}
{"date":"2013-07-01","average_temperature":"28.72","city":"Shahreza","latitude":"31.35N","longitude":"52.77E"}
{"date":"2013-05-01","average_temperature":"30.921","city":"Shantipur","latitude":"23.31N","longitude":"88.25E"}
{"date":"2013-05-01","average_temperature":"24.083","city":"Shaoguan","latitude":"24.92N","longitude":"113.50E"}
{"date":"2012-12-01","average_temperature":"-4.776","city":"Sherbrooke","latitude":"45.81N","longitude":"72.69W"}
{"date":"2010-11-01","average_temperature":"-3.031","city":"Shihezi","latitude":"44.20N","longitude":"84.97E"}
{"date":"2010-12-01","average_temperature":"-15.026","city":"Shihezi","latitude":"44.20N","longitude":"84.97E"}
{"date":"2013-01-01","average_temperature":"13.475","city":"Shiliguri","latitude":"26.52N","longitude":"87.76E"}
{"date":"2013-07-01","average_temperature":"22.449","city":"Shinyanga","latitude":"4.02S","longitude":"32.95E"}
{"date":"2011-02-01","average_temperature":"22.566","city":"Shrirampur","latitude":"23.31N","longitude":"88.25E"}
{"date":"2013-02-01","average_temperature":"14.559","city":"Sialkot","latitude":"32.95N","longitude":"73.72E"}
{"date":"2011-06-01","average_temperature":"16.817","city":"Siegen","latitude":"50.63N","longitude":"8.87E"}
{"date":"2012-12-01","average_temperature":"2.672","city":"Siirt","latitude":"37.78N","longitude":"42.71E"}
{"date":"2011-07-01","average_temperature":"27.406999999999996","city":"Sikasso","latitude":"10.45N","longitude":"5.73W"}
{"date":"2013-01-01","average_temperature":"12.729000000000001","city":"Sitapur","latitude":"28.13N","longitude":"80.91E"}
{"date":"2011-09-01","average_temperature":"26.125","city":"Sokodé","latitude":"8.84N","longitude":"0.81E"}
{"date":"2013-07-01","average_temperature":"29.193","city":"Sokoto","latitude":"13.66N","longitude":"5.78E"}
{"date":"2013-05-01","average_temperature":"18.933","city":"Sorocaba","latitude":"23.31S","longitude":"48.06W"}
{"date":"2013-03-01","average_temperature":"0.6160000000000001","city":"South Bend","latitude":"40.99N","longitude":"85.21W"}
{"date":"2010-10-01","average_temperature":"10.466","city":"Southend On Sea","latitude":"52.24N","longitude":"0.00W"}
{"date":"2010-04-01","average_temperature":"16.256","city":"Springfield","latitude":"39.38N","longitude":"89.48W"}
{"date":"2011-02-01","average_temperature":"-1.2440000000000002","city":"Stamford","latitude":"40.99N","longitude":"74.56W"}
{"date":"2013-04-01","average_temperature":"9.722999999999999","city":"Stamford","latitude":"40.99N","longitude":"74.56W"}
{"date":"2013-08-01","average_temperature":"20.372","city":"Staryy Oskol","latitude":"50.63N","longitude":"36.76E"}
{"date":"2011-08-01","average_temperature":"19.535999999999998","city":"Stavropol","latitude":"44.20N","longitude":"42.48E"}
{"date":"2013-08-01","average_temperature":"19.730999999999998","city":"Stockton","latitude":"37.78N","longitude":"122.03W"}
{"date":"2010-07-01","average_temperature":"8.376000000000001","city":"Sucre","latitude":"18.48S","longitude":"65.92W"}
{"date":"2010-05-01","average_temperature":"21.793000000000003","city":"Suining","latitude":"29.74N","longitude":"105.23E"}
{"date":"2011-03-01","average_temperature":"26.47","city":"Sukabumi","latitude":"7.23S","longitude":"106.22E"}
{"date":"2012-07-01","average_temperature":"22.331","city":"Sullana","latitude":"5.63S","longitude":"80.72W"}
{"date":"2012-02-01","average_temperature":"24.981","city":"Sumaré","latitude":"23.31S","longitude":"48.06W"}
{"date":"2010-11-01","average_temperature":"3.016","city":"Sunderland","latitude":"55.45N","longitude":"2.83W"}
{"date":"2011-02-01","average_temperature":"5.582999999999999","city":"Suzhou","latitude":"31.35N","longitude":"120.63E"}
{"date":"2012-04-01","average_temperature":"10.694","city":"Syzran","latitude":"53.84N","longitude":"47.73E"}
{"date":"2012-06-01","average_temperature":"18.113","city":"Taboão Da Serra","latitude":"23.31S","longitude":"46.31W"}
{"date":"2010-03-01","average_temperature":"6.103","city":"Tachikawa","latitude":"36.17N","longitude":"139.23E"}
{"date":"2010-09-01","average_temperature":"27.531","city":"Tacloban","latitude":"12.05N","longitude":"124.93E"}
{"date":"2010-02-01","average_temperature":"17.258","city":"Taicheng","latitude":"21.70N","longitude":"113.37E"}
{"date":"2010-11-01","average_temperature":"21.569000000000006","city":"Taipei","latitude":"24.92N","longitude":"122.36E"}
{"date":"2013-01-01","average_temperature":"17.020999999999994","city":"Taipei","latitude":"24.92N","longitude":"122.36E"}
{"date":"2010-12-01","average_temperature":"22.92","city":"Talara","latitude":"4.02S","longitude":"81.16W"}
{"date":"2010-12-01","average_temperature":"13.599","city":"Talcahuano","latitude":"36.17S","longitude":"73.59W"}
{"date":"2012-01-01","average_temperature":"26.448","city":"Taman","latitude":"7.23S","longitude":"109.46E"}
{"date":"2011-03-01","average_temperature":"27.241","city":"Tambun","latitude":"5.63S","longitude":"106.55E"}
{"date":"2011-12-01","average_temperature":"27.246","city":"Tambun","latitude":"5.63S","longitude":"106.55E"}
{"date":"2011-04-01","average_temperature":"27.289","city":"Tampico","latitude":"21.70N","longitude":"97.79W"}
{"date":"2013-09-01","average_temperature":"28.55","city":"Tampico","latitude":"21.70N","longitude":"97.79W"}
{"date":"2011-02-01","average_temperature":"26.61","city":"Tanete","latitude":"5.63S","longitude":"119.46E"}
{"date":"2012-06-01","average_temperature":"25.288","city":"Tanga","latitude":"5.63S","longitude":"38.74E"}
{"date":"2011-07-01","average_temperature":"25.784000000000002","city":"Tanggu","latitude":"39.38N","longitude":"118.61E"}
{"date":"2010-03-01","average_temperature":"14.865","city":"Tangier","latitude":"36.17N","longitude":"5.97W"}
{"date":"2011-04-01","average_temperature":"17.991","city":"Tangier","latitude":"36.17N","longitude":"5.97W"}
{"date":"2012-03-01","average_temperature":"5.832000000000001","city":"Tangshan","latitude":"37.78N","longitude":"113.90E"}
{"date":"2010-02-01","average_temperature":"-0.4750000000000001","city":"Targu Mures","latitude":"45.81N","longitude":"24.23E"}
{"date":"2011-09-01","average_temperature":"15.489","city":"Tarnow","latitude":"50.63N","longitude":"21.55E"}
{"date":"2011-09-01","average_temperature":"26.518","city":"Taytay","latitude":"15.27N","longitude":"120.83E"}
{"date":"2011-03-01","average_temperature":"2.9989999999999997","city":"Tbilisi","latitude":"40.99N","longitude":"44.73E"}
{"date":"2012-01-01","average_temperature":"18.293","city":"Temuco","latitude":"39.38S","longitude":"72.83W"}
{"date":"2013-08-01","average_temperature":"19.465999999999998","city":"Teresópolis","latitude":"21.70S","longitude":"42.40W"}
{"date":"2010-10-01","average_temperature":"27.204","city":"Ternate","latitude":"0.80N","longitude":"127.77E"}
{"date":"2012-06-01","average_temperature":"23.203000000000003","city":"Terrassa","latitude":"40.99N","longitude":"2.13E"}
{"date":"2011-12-01","average_temperature":"26.85","city":"Thana","latitude":"18.48N","longitude":"72.68E"}
{"date":"2013-07-01","average_temperature":"27.073","city":"Thaton","latitude":"16.87N","longitude":"97.12E"}
{"date":"2013-03-01","average_temperature":"9.648","city":"Thessaloníki","latitude":"40.99N","longitude":"23.43E"}
{"date":"2012-05-01","average_temperature":"24.753","city":"Thiès","latitude":"15.27N","longitude":"17.50W"}
{"date":"2012-07-01","average_temperature":"24.301","city":"Thornton","latitude":"39.38N","longitude":"104.05W"}
{"date":"2011-02-01","average_temperature":"27.254","city":"Thrissur","latitude":"10.45N","longitude":"76.09E"}
{"date":"2011-07-01","average_temperature":"22.325","city":"Tieli","latitude":"47.42N","longitude":"129.08E"}
{"date":"2011-03-01","average_temperature":"-0.831","city":"Tieling","latitude":"42.59N","longitude":"124.36E"}
{"date":"2013-03-01","average_temperature":"1.7719999999999998","city":"Tighina","latitude":"47.42N","longitude":"29.61E"}
{"date":"2010-03-01","average_temperature":"27.633000000000003","city":"Tiruppur","latitude":"10.45N","longitude":"77.73E"}
{"date":"2012-05-01","average_temperature":"28.595","city":"Tiruppur","latitude":"10.45N","longitude":"77.73E"}
{"date":"2011-08-01","average_temperature":"22.546","city":"Toliary","latitude":"23.31S","longitude":"42.82E"}
{"date":"2012-06-01","average_temperature":"14.219000000000001","city":"Tomakomai","latitude":"42.59N","longitude":"141.82E"}
{"date":"2013-06-01","average_temperature":"15.396","city":"Tomakomai","latitude":"42.59N","longitude":"141.82E"}
{"date":"2011-04-01","average_temperature":"14.876","city":"Tongchuan","latitude":"34.56N","longitude":"108.97E"}
{"date":"2010-02-01","average_temperature":"6.567","city":"Tongling","latitude":"31.35N","longitude":"118.74E"}
{"date":"2013-03-01","average_temperature":"14.463","city":"Torrance","latitude":"34.56N","longitude":"118.70W"}
{"date":"2012-10-01","average_temperature":"12.509","city":"Torrejón De Ardoz","latitude":"40.99N","longitude":"4.26W"}
{"date":"2013-01-01","average_temperature":"4.691","city":"Torrejón De Ardoz","latitude":"40.99N","longitude":"4.26W"}
{"date":"2010-10-01","average_temperature":"16.677","city":"Toulon","latitude":"42.59N","longitude":"6.55E"}
{"date":"2010-01-01","average_temperature":"7.197","city":"Toyohashi","latitude":"34.56N","longitude":"138.16E"}
{"date":"2011-11-01","average_temperature":"15.692","city":"Toyohashi","latitude":"34.56N","longitude":"138.16E"}
{"date":"2012-02-01","average_temperature":"4.3420000000000005","city":"Toyota","latitude":"34.56N","longitude":"136.22E"}
{"date":"2010-03-01","average_temperature":"0.363","city":"Trondheim","latitude":"63.49N","longitude":"9.00E"}
{"date":"2013-02-01","average_temperature":"-1.3030000000000002","city":"Trondheim","latitude":"63.49N","longitude":"9.00E"}
{"date":"2013-01-01","average_temperature":"1.288","city":"Tsukuba","latitude":"36.17N","longitude":"139.23E"}
{"date":"2010-03-01","average_temperature":"17.894000000000002","city":"Tucheng","latitude":"24.92N","longitude":"120.59E"}
{"date":"2013-07-01","average_temperature":"18.735","city":"Turin","latitude":"45.81N","longitude":"8.08E"}
{"date":"2011-08-01","average_temperature":"27.024","city":"Udon Thani","latitude":"16.87N","longitude":"102.14E"}
{"date":"2012-12-01","average_temperature":"25.231","city":"Udon Thani","latitude":"16.87N","longitude":"102.14E"}
{"date":"2012-06-01","average_temperature":"19.359","city":"Ueda","latitude":"36.17N","longitude":"139.23E"}
{"date":"2012-06-01","average_temperature":"15.68","city":"Uitenhage","latitude":"34.56S","longitude":"25.30E"}
{"date":"2010-05-01","average_temperature":"10.636","city":"Ukhta","latitude":"63.49N","longitude":"52.20E"}
{"date":"2011-06-01","average_temperature":"14.824000000000002","city":"Ukhta","latitude":"63.49N","longitude":"52.20E"}
{"date":"2011-03-01","average_temperature":"26.99","city":"Ulhasnagar","latitude":"18.48N","longitude":"72.68E"}
{"date":"2011-11-01","average_temperature":"29.04","city":"Ulhasnagar","latitude":"18.48N","longitude":"72.68E"}
{"date":"2011-01-01","average_temperature":"25.964","city":"Ungaran","latitude":"7.23S","longitude":"111.08E"}
{"date":"2010-03-01","average_temperature":"6.103","city":"Urayasu","latitude":"36.17N","longitude":"139.23E"}
{"date":"2013-05-01","average_temperature":"16.787","city":"Uruguaiana","latitude":"29.74S","longitude":"57.23W"}
{"date":"2012-02-01","average_temperature":"-7.587000000000001","city":"Uzhhorod","latitude":"49.03N","longitude":"22.04E"}
{"date":"2010-12-01","average_temperature":"14.347","city":"Valdivia","latitude":"39.38S","longitude":"72.83W"}
{"date":"2011-05-01","average_temperature":"9.357000000000001","city":"Valdivia","latitude":"39.38S","longitude":"72.83W"}
{"date":"2010-06-01","average_temperature":"20.663","city":"Vanadzor","latitude":"40.99N","longitude":"44.73E"}
{"date":"2012-03-01","average_temperature":"24.801","city":"Varanasi","latitude":"24.92N","longitude":"83.35E"}
{"date":"2010-07-01","average_temperature":"23.955","city":"Vicenza","latitude":"45.81N","longitude":"12.69E"}
{"date":"2013-04-01","average_temperature":"12.489999999999998","city":"Vicenza","latitude":"45.81N","longitude":"12.69E"}
{"date":"2010-04-01","average_temperature":"32.917","city":"Vidisha","latitude":"23.31N","longitude":"77.77E"}
{"date":"2011-09-01","average_temperature":"26.609","city":"Vidisha","latitude":"23.31N","longitude":"77.77E"}
{"date":"2012-05-01","average_temperature":"15.787","city":"Vienna","latitude":"49.03N","longitude":"17.14E"}
{"date":"2012-06-01","average_temperature":"20.918000000000003","city":"Vitória Da Conquista","latitude":"15.27S","longitude":"40.83W"}
{"date":"2012-11-01","average_temperature":"4.972","city":"Volgodonsk","latitude":"47.42N","longitude":"41.45E"}
{"date":"2012-09-01","average_temperature":"17.225","city":"Volzhskiy","latitude":"49.03N","longitude":"44.08E"}
{"date":"2012-08-01","average_temperature":"28.91","city":"Vung Tau","latitude":"10.45N","longitude":"107.18E"}
{"date":"2011-10-01","average_temperature":"9.488999999999999","city":"Würzburg","latitude":"49.03N","longitude":"9.80E"}
{"date":"2013-02-01","average_temperature":"25.305999999999997","city":"Wardha","latitude":"20.09N","longitude":"78.48E"}
{"date":"2011-08-01","average_temperature":"22.476999999999997","city":"Waterbury","latitude":"40.99N","longitude":"72.43W"}
{"date":"2013-02-01","average_temperature":"25.502","city":"Weru","latitude":"7.23S","longitude":"107.84E"}
{"date":"2011-08-01","average_temperature":"24.811","city":"West Jordan","latitude":"40.99N","longitude":"112.90W"}
{"date":"2011-07-01","average_temperature":"24.483","city":"West Valley City","latitude":"40.99N","longitude":"112.90W"}
{"date":"2011-04-01","average_temperature":"16.326999999999998","city":"Westonaria","latitude":"26.52S","longitude":"26.87E"}
{"date":"2011-03-01","average_temperature":"5.541","city":"Witten","latitude":"52.24N","longitude":"7.88E"}
{"date":"2011-01-01","average_temperature":"-0.7480000000000002","city":"Wloclawek","latitude":"52.24N","longitude":"18.39E"}
{"date":"2011-10-01","average_temperature":"9.603","city":"Wloclawek","latitude":"52.24N","longitude":"18.39E"}
{"date":"2013-09-01","city":"Wolfsburg","latitude":"52.24N","longitude":"10.51E"}
{"date":"2011-12-01","average_temperature":"5.8500000000000005","city":"Worcester","latitude":"52.24N","longitude":"2.63W"}
{"date":"2013-07-01","average_temperature":"25.441","city":"Wufeng","latitude":"28.13N","longitude":"104.55E"}
{"date":"2011-12-01","average_temperature":"3.031","city":"Xiangfan","latitude":"32.95N","longitude":"112.02E"}
{"date":"2013-02-01","average_temperature":"2.362","city":"Xianyang","latitude":"34.56N","longitude":"108.97E"}
{"date":"2011-03-01","average_temperature":"16.922","city":"Xico","latitude":"20.09N","longitude":"98.96W"}
{"date":"2011-11-01","average_temperature":"14.675","city":"Xico","latitude":"20.09N","longitude":"98.96W"}
{"date":"2010-12-01","average_temperature":"2.89","city":"Xinpu","latitude":"34.56N","longitude":"118.70E"}
{"date":"2012-07-01","average_temperature":"21.605","city":"Xuanhua","latitude":"40.99N","longitude":"115.03E"}
{"date":"2012-04-01","average_temperature":"17.233999999999998","city":"Xuchang","latitude":"34.56N","longitude":"112.86E"}
{"date":"2012-05-01","average_temperature":"19.715","city":"Yaan","latitude":"29.74N","longitude":"103.38E"}
{"date":"2010-01-01","average_temperature":"26.799","city":"Yamoussoukro","latitude":"7.23N","longitude":"5.68W"}
{"date":"2010-05-01","average_temperature":"26.535","city":"Yangjiang","latitude":"21.70N","longitude":"111.63E"}
{"date":"2010-01-01","average_temperature":"15.489","city":"Yangmei","latitude":"24.92N","longitude":"120.59E"}
{"date":"2012-03-01","average_temperature":"-4.544","city":"Yanji","latitude":"42.59N","longitude":"128.73E"}
{"date":"2010-10-01","average_temperature":"24.143","city":"Yaoundé","latitude":"4.02N","longitude":"12.05E"}
{"date":"2013-01-01","average_temperature":"-10.632","city":"Yaroslavl","latitude":"57.05N","longitude":"39.84E"}
{"date":"2012-01-01","average_temperature":"22.05","city":"Yavatmal","latitude":"20.09N","longitude":"78.48E"}
{"date":"2010-09-01","average_temperature":"24.074","city":"Yazd","latitude":"31.35N","longitude":"54.66E"}
{"date":"2012-04-01","average_temperature":"17.283","city":"Yibin","latitude":"28.13N","longitude":"104.55E"}
{"date":"2012-07-01","average_temperature":"24.269000000000002","city":"Yibin","latitude":"28.13N","longitude":"104.55E"}
{"date":"2013-05-01","average_temperature":"20.651","city":"Yichang","latitude":"31.35N","longitude":"111.20E"}
{"date":"2010-10-01","average_temperature":"17.654","city":"Yichun","latitude":"28.13N","longitude":"113.64E"}
{"date":"2012-08-01","average_temperature":"25.831","city":"Yidu","latitude":"36.17N","longitude":"119.34E"}
{"date":"2012-10-01","average_temperature":"21.177000000000003","city":"Yingcheng","latitude":"24.92N","longitude":"113.50E"}
{"date":"2011-02-01","average_temperature":"7.971999999999999","city":"Yiyang","latitude":"28.13N","longitude":"111.82E"}
{"date":"2012-01-01","average_temperature":"3.762","city":"Yonago","latitude":"36.17N","longitude":"133.26E"}
{"date":"2011-04-01","average_temperature":"18.977","city":"Yongan","latitude":"26.52N","longitude":"118.21E"}
{"date":"2013-04-01","average_temperature":"9.722999999999999","city":"Yonkers","latitude":"40.99N","longitude":"74.56W"}
{"date":"2011-06-01","average_temperature":"27.449","city":"Yungho","latitude":"24.92N","longitude":"122.36E"}
{"date":"2012-02-01","average_temperature":"17.61","city":"Yungkang","latitude":"23.31N","longitude":"121.46E"}
{"date":"2013-02-01","average_temperature":"19.273","city":"Yungkang","latitude":"23.31N","longitude":"121.46E"}
{"date":"2011-06-01","average_temperature":"18.493","city":"Zabrze","latitude":"50.63N","longitude":"19.01E"}
{"date":"2013-03-01","average_temperature":"3.505","city":"Zagreb","latitude":"45.81N","longitude":"15.00E"}
{"date":"2010-08-01","average_temperature":"17.820999999999998","city":"Zalantun","latitude":"47.42N","longitude":"121.97E"}
{"date":"2013-07-01","average_temperature":"19.95","city":"Zalantun","latitude":"47.42N","longitude":"121.97E"}
{"date":"2013-07-01","average_temperature":"20.99","city":"Zenica","latitude":"44.20N","longitude":"17.89E"}
{"date":"2013-07-01","average_temperature":"27.627","city":"Zhangdian","latitude":"36.17N","longitude":"117.35E"}
{"date":"2012-02-01","average_temperature":"12.318","city":"Zhangzhou","latitude":"24.92N","longitude":"117.04E"}
{"date":"2010-09-01","average_temperature":"21.01","city":"Zhaocheng","latitude":"37.78N","longitude":"120.00E"}
{"date":"2010-04-01","average_temperature":"11.782","city":"Zhaoyang","latitude":"32.95N","longitude":"119.68E"}
{"date":"2010-05-01","average_temperature":"21.249000000000002","city":"Zhoucun","latitude":"36.17N","longitude":"117.35E"}
{"date":"2011-11-01","average_temperature":"22.679","city":"Zhuhai","latitude":"21.70N","longitude":"113.37E"}
{"date":"2011-09-01","average_temperature":"18.644","city":"Zonguldak","latitude":"40.99N","longitude":"31.95E"}
