{"date":"2012-10-01","average_temperature":"14.466","city":"Çorum","latitude":"40.99N","longitude":"34.08E"}
{"date":"2010-08-01","average_temperature":"16.863999999999994","city":"Aachen","latitude":"50.63N","longitude":"6.34E"}
{"date":"2012-04-01","average_temperature":"28.683000000000003","city":"Aba","latitude":"5.63N","longitude":"8.07E"}
{"date":"2012-12-01","average_temperature":"-22.989","city":"Abakan","latitude":"53.84N","longitude":"91.36E"}
{"date":"2012-06-01","average_temperature":"11.606","city":"Abbotsford","latitude":"49.03N","longitude":"122.45W"}
{"date":"2010-11-01","average_temperature":"21.932","city":"Abha","latitude":"18.48N","longitude":"42.25E"}
{"date":"2013-06-01","average_temperature":"26.156999999999996","city":"Abidjan","latitude":"5.63N","longitude":"3.23W"}
{"date":"2012-12-01","average_temperature":"14.65","city":"Abohar","latitude":"29.74N","longitude":"73.85E"}
{"date":"2011-09-01","average_temperature":"26.794","city":"Achalpur","latitude":"21.70N","longitude":"77.02E"}
{"date":"2011-02-01","average_temperature":"10.845999999999998","city":"Acuña","latitude":"29.74N","longitude":"101.54W"}
{"date":"2011-03-01","average_temperature":"20.153","city":"Addis Abeba","latitude":"8.84N","longitude":"38.11E"}
{"date":"2013-09-01","city":"Ahmadabad","latitude":"23.31N","longitude":"72.52E"}
{"date":"2011-10-01","average_temperature":"13.763","city":"Aix En Provence","latitude":"44.20N","longitude":"4.47E"}
{"date":"2013-04-01","average_temperature":"10.687","city":"Aix En Provence","latitude":"44.20N","longitude":"4.47E"}
{"date":"2011-06-01","average_temperature":"33.295","city":"Ajmer","latitude":"26.52N","longitude":"75.22E"}
{"date":"2010-01-01","average_temperature":"22.488000000000003","city":"Akyab","latitude":"20.09N","longitude":"92.13E"}
{"date":"2013-02-01","average_temperature":"28.083","city":"Alagoinhas","latitude":"12.05S","longitude":"37.81W"}
{"date":"2012-08-01","average_temperature":"7.4","city":"Albury","latitude":"36.17S","longitude":"147.18E"}
{"date":"2012-03-01","average_temperature":"8.808","city":"Alcorcón","latitude":"40.99N","longitude":"4.26W"}
{"date":"2011-03-01","average_temperature":"26.089000000000002","city":"Allahabad","latitude":"24.92N","longitude":"81.58E"}
{"date":"2011-11-01","average_temperature":"-6.2410000000000005","city":"Altay","latitude":"47.42N","longitude":"88.82E"}
{"date":"2011-03-01","average_temperature":"26.99","city":"Ambarnath","latitude":"18.48N","longitude":"72.68E"}
{"date":"2013-08-01","average_temperature":"28.824","city":"Anbu","latitude":"23.31N","longitude":"116.21E"}
{"date":"2012-03-01","average_temperature":"-9.785","city":"Angarsk","latitude":"52.24N","longitude":"105.11E"}
{"date":"2010-04-01","average_temperature":"29.412","city":"Angeles","latitude":"15.27N","longitude":"120.83E"}
{"date":"2012-04-01","average_temperature":"29.293000000000003","city":"Angeles","latitude":"15.27N","longitude":"120.83E"}
{"date":"2011-11-01","average_temperature":"10.925999999999998","city":"Angers","latitude":"47.42N","longitude":"1.18W"}
{"date":"2012-08-01","average_temperature":"27.857000000000006","city":"Anqing","latitude":"31.35N","longitude":"116.86E"}
{"date":"2013-05-01","average_temperature":"22.256999999999998","city":"Anqing","latitude":"31.35N","longitude":"116.86E"}
{"date":"2010-07-01","average_temperature":"23.101","city":"Anshun","latitude":"26.52N","longitude":"105.67E"}
{"date":"2011-03-01","average_temperature":"11.886","city":"Antioch","latitude":"37.78N","longitude":"122.03W"}
{"date":"2012-04-01","average_temperature":"27.936","city":"Anyama","latitude":"5.63N","longitude":"4.84W"}
{"date":"2012-11-01","average_temperature":"2.988","city":"Anyang","latitude":"36.17N","longitude":"113.37E"}
{"date":"2010-05-01","average_temperature":"33.068000000000005","city":"Ara","latitude":"24.92N","longitude":"85.12E"}
{"date":"2011-03-01","average_temperature":"6.452000000000001","city":"Arlington","latitude":"39.38N","longitude":"76.99W"}
{"date":"2013-07-01","average_temperature":"14.998","city":"Arvada","latitude":"39.38N","longitude":"106.13W"}
{"date":"2012-01-01","average_temperature":"-9.283","city":"Arzamas","latitude":"55.45N","longitude":"42.52E"}
{"date":"2011-03-01","average_temperature":"-1.232","city":"Atyrau","latitude":"47.42N","longitude":"50.92E"}
{"date":"2011-05-01","average_temperature":"19.282","city":"Atyrau","latitude":"47.42N","longitude":"50.92E"}
{"date":"2013-01-01","average_temperature":"-6.922999999999999","city":"Atyrau","latitude":"47.42N","longitude":"50.92E"}
{"date":"2012-01-01","average_temperature":"19.705","city":"Aurangabad","latitude":"20.09N","longitude":"75.07E"}
{"date":"2011-07-01","average_temperature":"23.688000000000002","city":"Aurora","latitude":"39.38N","longitude":"104.05W"}
{"date":"2010-07-01","average_temperature":"25.2","city":"Aurora","latitude":"40.99N","longitude":"87.34W"}
{"date":"2011-07-01","average_temperature":"25.285999999999998","city":"Bénin","latitude":"7.23N","longitude":"5.68E"}
{"date":"2013-04-01","average_temperature":"27.658","city":"Bénin","latitude":"7.23N","longitude":"5.68E"}
{"date":"2010-10-01","average_temperature":"18.141","city":"Babol","latitude":"36.17N","longitude":"51.71E"}
{"date":"2012-04-01","average_temperature":"14.38","city":"Babol","latitude":"36.17N","longitude":"51.71E"}
{"date":"2012-08-01","average_temperature":"28.323","city":"Bacolod","latitude":"10.45N","longitude":"123.55E"}
{"date":"2011-04-01","average_temperature":"6.252000000000001","city":"Badaojiang","latitude":"42.59N","longitude":"126.55E"}
{"date":"2011-11-01","average_temperature":"24.007","city":"Bafoussam","latitude":"5.63N","longitude":"9.69E"}
{"date":"2010-03-01","average_temperature":"9.016","city":"Baglan","latitude":"36.17N","longitude":"69.61E"}
{"date":"2010-04-01","average_temperature":"32.318000000000005","city":"Baharampur","latitude":"23.31N","longitude":"88.25E"}
{"date":"2012-04-01","average_temperature":"30.299","city":"Baharampur","latitude":"23.31N","longitude":"88.25E"}
{"date":"2013-05-01","average_temperature":"30.921","city":"Baharampur","latitude":"23.31N","longitude":"88.25E"}
{"date":"2011-01-01","average_temperature":"-19.857","city":"Baicheng","latitude":"45.81N","longitude":"123.46E"}
{"date":"2010-06-01","average_temperature":"30.962","city":"Baleshwar","latitude":"21.70N","longitude":"87.40E"}
{"date":"2010-09-01","average_temperature":"25.793000000000003","city":"Bamako","latitude":"12.05N","longitude":"8.22W"}
{"date":"2013-08-01","average_temperature":"25.701","city":"Bamako","latitude":"12.05N","longitude":"8.22W"}
{"date":"2013-04-01","average_temperature":"28.129","city":"Banda Aceh","latitude":"5.63N","longitude":"95.25E"}
{"date":"2010-05-01","average_temperature":"28.586","city":"Bandar Maharani","latitude":"2.41N","longitude":"102.05E"}
{"date":"2011-10-01","average_temperature":"15.017000000000001","city":"Baneh","latitude":"36.17N","longitude":"45.75E"}
{"date":"2010-05-01","average_temperature":"28.441000000000006","city":"Bangalore","latitude":"12.05N","longitude":"77.26E"}
{"date":"2011-10-01","average_temperature":"6.897","city":"Baoshan","latitude":"47.42N","longitude":"131.45E"}
{"date":"2012-06-01","average_temperature":"19.912000000000006","city":"Baoshan","latitude":"47.42N","longitude":"131.45E"}
{"date":"2010-06-01","average_temperature":"31.075","city":"Barakpur","latitude":"23.31N","longitude":"88.25E"}
{"date":"2012-01-01","average_temperature":"18.815","city":"Barakpur","latitude":"23.31N","longitude":"88.25E"}
{"date":"2011-08-01","average_temperature":"28.976","city":"Barasat","latitude":"23.31N","longitude":"88.25E"}
{"date":"2013-06-01","average_temperature":"30.618000000000002","city":"Barddhaman","latitude":"23.31N","longitude":"88.25E"}
{"date":"2012-03-01","average_temperature":"24.534","city":"Barinas","latitude":"8.84N","longitude":"70.54W"}
{"date":"2011-10-01","average_temperature":"27.956999999999997","city":"Baripada","latitude":"21.70N","longitude":"87.40E"}
{"date":"2012-12-01","average_temperature":"23.592","city":"Barra Mansa","latitude":"21.70S","longitude":"44.13W"}
{"date":"2010-07-01","average_temperature":"21.194000000000003","city":"Barretos","latitude":"20.09S","longitude":"47.77W"}
{"date":"2011-07-01","average_temperature":"21.956","city":"Barrie","latitude":"44.20N","longitude":"80.50W"}
{"date":"2012-03-01","average_temperature":"22.706999999999997","city":"Barueri","latitude":"23.31S","longitude":"46.31W"}
{"date":"2013-09-01","city":"Basti","latitude":"26.52N","longitude":"82.39E"}
{"date":"2010-06-01","average_temperature":"28.593000000000004","city":"Batangas","latitude":"13.66N","longitude":"121.38E"}
{"date":"2011-09-01","average_temperature":"27.305999999999997","city":"Batangas","latitude":"13.66N","longitude":"121.38E"}
{"date":"2013-02-01","average_temperature":"25.549","city":"Baturaja","latitude":"4.02S","longitude":"103.66E"}
{"date":"2012-04-01","average_temperature":"32.625","city":"Bauchi","latitude":"10.45N","longitude":"10.64E"}
{"date":"2011-04-01","average_temperature":"23.816","city":"Bauru","latitude":"21.70S","longitude":"49.33W"}
{"date":"2013-05-01","average_temperature":"15.927999999999999","city":"Beian","latitude":"47.42N","longitude":"126.71E"}
{"date":"2012-02-01","average_temperature":"26.756","city":"Belawan","latitude":"4.02N","longitude":"98.84E"}
{"date":"2013-07-01","average_temperature":"20.191000000000006","city":"Belgorod","latitude":"50.63N","longitude":"36.76E"}
{"date":"2012-07-01","average_temperature":"28.69","city":"Bellary","latitude":"15.27N","longitude":"77.50E"}
{"date":"2011-07-01","average_temperature":"20.517","city":"Benguela","latitude":"12.05S","longitude":"13.15E"}
{"date":"2010-05-01","average_temperature":"26.286","city":"Beni Suef","latitude":"29.74N","longitude":"31.38E"}
{"date":"2013-03-01","average_temperature":"-0.14","city":"Benxi","latitude":"40.99N","longitude":"123.55E"}
{"date":"2013-06-01","average_temperature":"16.003999999999998","city":"Besançon","latitude":"47.42N","longitude":"5.92E"}
{"date":"2012-09-01","average_temperature":"14.770999999999999","city":"Bethal","latitude":"26.52S","longitude":"28.66E"}
{"date":"2013-08-01","average_temperature":"24.458000000000002","city":"Bhadravati","latitude":"13.66N","longitude":"75.14E"}
{"date":"2012-02-01","average_temperature":"22.408","city":"Bhadreswar","latitude":"23.31N","longitude":"88.25E"}
{"date":"2010-05-01","average_temperature":"31.846999999999998","city":"Bhagalpur","latitude":"24.92N","longitude":"86.90E"}
{"date":"2013-05-01","average_temperature":"34.289","city":"Bhilwara","latitude":"24.92N","longitude":"74.48E"}
{"date":"2011-12-01","average_temperature":"16.409000000000002","city":"Bihar","latitude":"24.92N","longitude":"85.12E"}
{"date":"2013-06-01","average_temperature":"26.761999999999997","city":"Bijapur","latitude":"16.87N","longitude":"75.35E"}
{"date":"2013-08-01","average_temperature":"28.166","city":"Binzhou","latitude":"37.78N","longitude":"117.97E"}
{"date":"2013-06-01","average_temperature":"26.977","city":"Biratnagar","latitude":"26.52N","longitude":"87.76E"}
{"date":"2011-12-01","average_temperature":"16.427000000000003","city":"Birganj","latitude":"26.52N","longitude":"84.18E"}
{"date":"2011-11-01","average_temperature":"20.598000000000006","city":"Blumenau","latitude":"26.52S","longitude":"48.36W"}
{"date":"2010-04-01","average_temperature":"30.82","city":"Bobo Dioulasso","latitude":"10.45N","longitude":"4.09W"}
{"date":"2013-02-01","average_temperature":"27.178","city":"Boma","latitude":"5.63S","longitude":"12.91E"}
{"date":"2010-01-01","average_temperature":"22.423","city":"Botad","latitude":"21.70N","longitude":"71.83E"}
{"date":"2011-03-01","average_temperature":"28.250999999999998","city":"Botad","latitude":"21.70N","longitude":"71.83E"}
{"date":"2010-12-01","average_temperature":"-3.3680000000000003","city":"Botosani","latitude":"47.42N","longitude":"27.24E"}
{"date":"2010-11-01","average_temperature":"26.355","city":"Bouaké","latitude":"7.23N","longitude":"5.68W"}
{"date":"2011-09-01","average_temperature":"15.985999999999999","city":"Bournemouth","latitude":"50.63N","longitude":"1.27W"}
{"date":"2012-06-01","average_temperature":"18.113","city":"Bragança Paulista","latitude":"23.31S","longitude":"46.31W"}
{"date":"2010-04-01","average_temperature":"18.633","city":"Brits","latitude":"24.92S","longitude":"28.37E"}
{"date":"2013-03-01","average_temperature":"18.908","city":"Brownsville","latitude":"26.52N","longitude":"96.72W"}
{"date":"2011-08-01","average_temperature":"17.703","city":"Brussels","latitude":"50.63N","longitude":"3.80E"}
{"date":"2012-12-01","average_temperature":"-1.095","city":"Budapest","latitude":"47.42N","longitude":"20.13E"}
{"date":"2011-09-01","average_temperature":"29.188000000000002","city":"Budaun","latitude":"28.13N","longitude":"79.09E"}
{"date":"2013-02-01","average_temperature":"17.964000000000002","city":"Budaun","latitude":"28.13N","longitude":"79.09E"}
{"date":"2011-02-01","average_temperature":"20.843000000000004","city":"Bukavu","latitude":"2.41S","longitude":"28.13E"}
{"date":"2011-01-01","average_temperature":"14.271","city":"Buraydah","latitude":"26.52N","longitude":"44.78E"}
{"date":"2013-07-01","average_temperature":"26.191999999999997","city":"Burhanpur","latitude":"21.70N","longitude":"77.02E"}
{"date":"2010-12-01","average_temperature":"11.197000000000001","city":"Bushehr","latitude":"29.74N","longitude":"51.69E"}
{"date":"2010-04-01","average_temperature":"8.145","city":"Bydgoszcz","latitude":"53.84N","longitude":"17.73E"}
{"date":"2011-09-01","average_temperature":"25.267","city":"Córdoba","latitude":"18.48N","longitude":"96.34W"}
{"date":"2012-06-01","average_temperature":"25.941","city":"Córdoba","latitude":"37.78N","longitude":"4.07W"}
{"date":"2010-12-01","average_temperature":"25.912000000000006","city":"Cabanatuan","latitude":"15.27N","longitude":"120.83E"}
{"date":"2011-11-01","average_temperature":"16.509","city":"Cagliari","latitude":"39.38N","longitude":"8.32E"}
{"date":"2013-01-01","average_temperature":"17.804000000000002","city":"Cajamarca","latitude":"7.23S","longitude":"78.65W"}
{"date":"2012-10-01","average_temperature":"26.946","city":"Calamba","latitude":"13.66N","longitude":"121.38E"}
{"date":"2011-09-01","average_temperature":"29.092","city":"Calcutta","latitude":"23.31N","longitude":"88.25E"}
{"date":"2011-02-01","average_temperature":"-11.776","city":"Calgary","latitude":"50.63N","longitude":"112.82W"}
{"date":"2012-07-01","average_temperature":"23.165","city":"Cali","latitude":"4.02N","longitude":"76.34W"}
{"date":"2013-01-01","average_temperature":"22.851000000000006","city":"Cam Ranh","latitude":"12.05N","longitude":"108.49E"}
{"date":"2012-05-01","average_temperature":"25.72","city":"Campina Grande","latitude":"7.23S","longitude":"36.49W"}
{"date":"2012-10-01","average_temperature":"22.419","city":"Campinas","latitude":"23.31S","longitude":"46.31W"}
{"date":"2010-04-01","average_temperature":"24.1","city":"Campo Grande","latitude":"20.09S","longitude":"54.60W"}
{"date":"2012-07-01","average_temperature":"24.054","city":"Campos","latitude":"21.70S","longitude":"40.67W"}
{"date":"2012-03-01","average_temperature":"22.444000000000003","city":"Cape Coral","latitude":"26.52N","longitude":"82.39W"}
{"date":"2012-12-01","average_temperature":"24.921","city":"Caracas","latitude":"10.45N","longitude":"66.27W"}
{"date":"2013-06-01","average_temperature":"27.691","city":"Carrollton","latitude":"32.95N","longitude":"96.70W"}
{"date":"2010-10-01","average_temperature":"18.63","city":"Casablanca","latitude":"32.95N","longitude":"6.70W"}
{"date":"2012-08-01","average_temperature":"26.985","city":"Catania","latitude":"37.78N","longitude":"14.24E"}
{"date":"2012-05-01","average_temperature":"26.382","city":"Catia La Mar","latitude":"10.45N","longitude":"66.27W"}
{"date":"2011-06-01","average_temperature":"27.416","city":"Cavite","latitude":"15.27N","longitude":"120.83E"}
{"date":"2011-04-01","average_temperature":"27.910999999999998","city":"Cebu","latitude":"10.45N","longitude":"123.55E"}
{"date":"2012-06-01","average_temperature":"35.631","city":"Chandausi","latitude":"28.13N","longitude":"79.09E"}
{"date":"2011-08-01","average_temperature":"27.466","city":"Chandrapur","latitude":"20.09N","longitude":"78.48E"}
{"date":"2013-03-01","average_temperature":"8.437999999999999","city":"Charlotte","latitude":"34.56N","longitude":"81.73W"}
{"date":"2010-01-01","average_temperature":"1.14","city":"Cheltenham","latitude":"52.24N","longitude":"2.63W"}
{"date":"2012-11-01","average_temperature":"0.19799999999999995","city":"Cherepovets","latitude":"58.66N","longitude":"36.92E"}
{"date":"2012-03-01","average_temperature":"23.943","city":"Chhapra","latitude":"26.52N","longitude":"84.18E"}
{"date":"2010-10-01","average_temperature":"14.582","city":"Chicago","latitude":"42.59N","longitude":"87.27W"}
{"date":"2011-09-01","average_temperature":"22.199","city":"Chigasaki","latitude":"36.17N","longitude":"139.23E"}
{"date":"2012-05-01","average_temperature":"28.558000000000003","city":"Chikmagalur","latitude":"13.66N","longitude":"75.14E"}
{"date":"2012-11-01","average_temperature":"14.009","city":"Chimalhuacán","latitude":"20.09N","longitude":"98.96W"}
{"date":"2011-08-01","average_temperature":"28.746","city":"Chongqing","latitude":"29.74N","longitude":"107.08E"}
{"date":"2011-03-01","average_temperature":"13.323","city":"Christchurch","latitude":"44.20S","longitude":"172.17E"}
{"date":"2012-08-01","average_temperature":"26.156","city":"Cibadak","latitude":"7.23S","longitude":"106.22E"}
{"date":"2011-12-01","average_temperature":"23.943","city":"Ciego De Ávila","latitude":"21.70N","longitude":"78.75W"}
{"date":"2010-07-01","average_temperature":"27.038","city":"Cikupa","latitude":"5.63S","longitude":"106.55E"}
{"date":"2012-05-01","average_temperature":"25.945","city":"Ciparay","latitude":"7.23S","longitude":"107.84E"}
{"date":"2010-05-01","average_temperature":"27.54","city":"Cisaat","latitude":"7.23S","longitude":"106.22E"}
{"date":"2011-07-01","average_temperature":"26.175","city":"Ciudad Guayana","latitude":"8.84N","longitude":"62.43W"}
{"date":"2011-10-01","average_temperature":"25.776999999999997","city":"Ciudad Guayana","latitude":"8.84N","longitude":"62.43W"}
{"date":"2010-09-01","average_temperature":"27.986","city":"Clearwater","latitude":"28.13N","longitude":"82.73W"}
{"date":"2011-06-01","average_temperature":"13.87","city":"Cochabamba","latitude":"16.87S","longitude":"66.98W"}
{"date":"2011-02-01","average_temperature":"18.868","city":"Colima","latitude":"20.09N","longitude":"104.08W"}
{"date":"2010-04-01","average_temperature":"9.319","city":"Cologne","latitude":"50.63N","longitude":"6.34E"}
{"date":"2010-02-01","average_temperature":"4.8180000000000005","city":"Columbus","latitude":"32.95N","longitude":"85.21W"}
{"date":"2013-06-01","average_temperature":"21.257","city":"Constanta","latitude":"44.20N","longitude":"29.07E"}
{"date":"2012-03-01","average_temperature":"23.113000000000003","city":"Coronel Fabriciano","latitude":"20.09S","longitude":"42.65W"}
{"date":"2013-06-01","average_temperature":"19.008","city":"Coronel Fabriciano","latitude":"20.09S","longitude":"42.65W"}
{"date":"2011-10-01","average_temperature":"26.781","city":"Cotabato","latitude":"7.23N","longitude":"124.05E"}
{"date":"2010-10-01","average_temperature":"17.575999999999997","city":"Criciúma","latitude":"28.13S","longitude":"50.00W"}
{"date":"2010-10-01","average_temperature":"27.838","city":"Culiacán","latitude":"24.92N","longitude":"108.18W"}
{"date":"2012-05-01","average_temperature":"28.129","city":"Curug","latitude":"5.63S","longitude":"106.55E"}
{"date":"2010-02-01","average_temperature":"1.158","city":"Düsseldorf","latitude":"50.63N","longitude":"6.34E"}
{"date":"2010-05-01","average_temperature":"10.625","city":"Düsseldorf","latitude":"50.63N","longitude":"6.34E"}
{"date":"2010-11-01","average_temperature":"14.118","city":"Daan","latitude":"29.74N","longitude":"105.23E"}
{"date":"2010-07-01","average_temperature":"34.395","city":"Dadu","latitude":"26.52N","longitude":"68.06E"}
{"date":"2010-09-01","average_temperature":"16.142","city":"Dali","latitude":"26.52N","longitude":"100.30E"}
{"date":"2011-09-01","average_temperature":"25.547","city":"Damascus","latitude":"32.95N","longitude":"35.43E"}
{"date":"2013-02-01","average_temperature":"27.119","city":"Damaturu","latitude":"12.05N","longitude":"11.51E"}
{"date":"2011-11-01","average_temperature":"26.554000000000002","city":"Davao","latitude":"7.23N","longitude":"125.68E"}
{"date":"2012-03-01","average_temperature":"2.318","city":"Dawukou","latitude":"39.38N","longitude":"106.13E"}
{"date":"2010-09-01","average_temperature":"23.779","city":"Daxian","latitude":"31.35N","longitude":"107.43E"}
{"date":"2013-07-01","average_temperature":"23.253","city":"Debre Zeyit","latitude":"8.84N","longitude":"39.73E"}
{"date":"2012-02-01","average_temperature":"19.42","city":"Dehri","latitude":"24.92N","longitude":"83.35E"}
{"date":"2013-04-01","average_temperature":"30.117","city":"Dehri","latitude":"24.92N","longitude":"83.35E"}
{"date":"2011-10-01","average_temperature":"26.849","city":"Delhi","latitude":"28.13N","longitude":"77.27E"}
{"date":"2011-03-01","average_temperature":"17.368","city":"Delicias","latitude":"28.13N","longitude":"106.36W"}
{"date":"2013-04-01","average_temperature":"18.811","city":"Delicias","latitude":"28.13N","longitude":"106.36W"}
{"date":"2013-05-01","average_temperature":"22.276","city":"Delicias","latitude":"28.13N","longitude":"106.36W"}
{"date":"2010-04-01","average_temperature":"26.752","city":"Delmas","latitude":"18.48N","longitude":"72.68W"}
{"date":"2013-01-01","average_temperature":"8.597999999999999","city":"Denton","latitude":"32.95N","longitude":"96.70W"}
{"date":"2011-07-01","average_temperature":"27.072","city":"Depok","latitude":"5.63S","longitude":"106.55E"}
{"date":"2013-02-01","average_temperature":"2.7560000000000002","city":"Derby","latitude":"53.84N","longitude":"1.36W"}
{"date":"2011-01-01","average_temperature":"21.55","city":"Dese","latitude":"10.45N","longitude":"40.09E"}
{"date":"2012-11-01","average_temperature":"20.342","city":"Dimapur","latitude":"26.52N","longitude":"93.13E"}
{"date":"2011-06-01","average_temperature":"27.97","city":"Djougou","latitude":"10.45N","longitude":"2.45E"}
{"date":"2011-04-01","average_temperature":"27.844","city":"Doha","latitude":"24.92N","longitude":"51.43E"}
{"date":"2011-02-01","average_temperature":"0.335","city":"Dongying","latitude":"37.78N","longitude":"117.97E"}
{"date":"2013-09-01","city":"Dongying","latitude":"37.78N","longitude":"117.97E"}
{"date":"2011-02-01","average_temperature":"4.21","city":"Dordrecht","latitude":"52.24N","longitude":"5.26E"}
{"date":"2011-06-01","average_temperature":"16.945999999999998","city":"Dortmund","latitude":"52.24N","longitude":"7.88E"}
{"date":"2012-11-01","average_temperature":"19.366","city":"Dos Quebradas","latitude":"5.63N","longitude":"75.87W"}
{"date":"2012-08-01","average_temperature":"19.714","city":"Dresden","latitude":"50.63N","longitude":"13.94E"}
{"date":"2013-02-01","average_temperature":"21.117","city":"Dubai","latitude":"24.92N","longitude":"54.98E"}
{"date":"2011-09-01","average_temperature":"14.777999999999999","city":"Dudley","latitude":"52.24N","longitude":"2.63W"}
{"date":"2010-08-01","average_temperature":"16.863999999999994","city":"Duisburg","latitude":"50.63N","longitude":"6.34E"}
{"date":"2011-02-01","average_temperature":"22.566","city":"Dum Dum","latitude":"23.31N","longitude":"88.25E"}
{"date":"2010-05-01","average_temperature":"5.031000000000001","city":"Dunedin","latitude":"45.81S","longitude":"169.62E"}
{"date":"2012-04-01","average_temperature":"14.005999999999998","city":"Durrës","latitude":"40.99N","longitude":"19.17E"}
{"date":"2010-05-01","average_temperature":"26.589000000000002","city":"Edéa","latitude":"4.02N","longitude":"10.45E"}
{"date":"2010-10-01","average_temperature":"24.628","city":"Edéa","latitude":"4.02N","longitude":"10.45E"}
{"date":"2011-07-01","average_temperature":"23.604","city":"Edéa","latitude":"4.02N","longitude":"10.45E"}
{"date":"2011-01-01","average_temperature":"2.9339999999999997","city":"Ede","latitude":"52.24N","longitude":"5.26E"}
{"date":"2013-07-01","average_temperature":"26.941","city":"El Limón","latitude":"10.45N","longitude":"67.91W"}
{"date":"2013-06-01","average_temperature":"25.917","city":"El Mahalla El Kubra","latitude":"31.35N","longitude":"32.04E"}
{"date":"2012-07-01","average_temperature":"23.851","city":"El Monte","latitude":"34.56N","longitude":"118.70W"}
{"date":"2011-07-01","average_temperature":"26.671","city":"El Tigre","latitude":"8.84N","longitude":"64.05W"}
{"date":"2012-01-01","average_temperature":"23.74","city":"Eluru","latitude":"16.87N","longitude":"80.37E"}
{"date":"2010-01-01","average_temperature":"14.587","city":"Ensenada","latitude":"31.35N","longitude":"116.86W"}
{"date":"2010-11-01","average_temperature":"27.461","city":"Enugu","latitude":"7.23N","longitude":"7.30E"}
{"date":"2012-08-01","average_temperature":"20.054000000000002","city":"Erlangen","latitude":"49.03N","longitude":"9.80E"}
{"date":"2010-03-01","average_temperature":"20.111","city":"Escuintla","latitude":"15.27N","longitude":"90.83W"}
{"date":"2013-06-01","average_temperature":"31.468000000000004","city":"Etah","latitude":"28.13N","longitude":"79.09E"}
{"date":"2011-12-01","average_temperature":"9.118","city":"Fairfield","latitude":"37.78N","longitude":"122.03W"}
{"date":"2012-06-01","average_temperature":"36.33900000000001","city":"Faridabad","latitude":"28.13N","longitude":"77.27E"}
{"date":"2012-08-01","average_temperature":"22.845","city":"Feira De Santana","latitude":"12.05S","longitude":"39.45W"}
{"date":"2013-04-01","average_temperature":"3.771","city":"Fort Collins","latitude":"40.99N","longitude":"104.38W"}
{"date":"2010-12-01","average_temperature":"8.554","city":"Fresno","latitude":"36.17N","longitude":"119.34W"}
{"date":"2012-10-01","average_temperature":"12.509","city":"Fuenlabrada","latitude":"40.99N","longitude":"4.26W"}
{"date":"2011-05-01","average_temperature":"18.337","city":"Fujinomiya","latitude":"34.56N","longitude":"138.16E"}
{"date":"2013-01-01","average_temperature":"1.288","city":"Fujisawa","latitude":"36.17N","longitude":"139.23E"}
{"date":"2010-03-01","average_temperature":"6.103","city":"Fukaya","latitude":"36.17N","longitude":"139.23E"}
{"date":"2010-03-01","average_temperature":"6.103","city":"Funabashi","latitude":"36.17N","longitude":"139.23E"}
{"date":"2010-03-01","average_temperature":"4.6610000000000005","city":"Göttingen","latitude":"52.24N","longitude":"10.51E"}
{"date":"2011-11-01","average_temperature":"26.883000000000003","city":"Gagnoa","latitude":"5.63N","longitude":"6.46W"}
{"date":"2012-03-01","average_temperature":"27.712","city":"Gagnoa","latitude":"5.63N","longitude":"6.46W"}
{"date":"2011-01-01","average_temperature":"2.3440000000000003","city":"Ganzhou","latitude":"26.52N","longitude":"114.63E"}
{"date":"2010-08-01","average_temperature":"21.412","city":"Garanhuns","latitude":"8.84S","longitude":"36.49W"}
{"date":"2010-12-01","average_temperature":"14.338","city":"Garden Grove","latitude":"32.95N","longitude":"117.77W"}
{"date":"2011-12-01","average_temperature":"27.258000000000003","city":"Gbongan","latitude":"7.23N","longitude":"4.05E"}
{"date":"2011-10-01","average_temperature":"9.055","city":"Gdynia","latitude":"53.84N","longitude":"17.73E"}
{"date":"2010-03-01","average_temperature":"3.7","city":"Gera","latitude":"50.63N","longitude":"11.41E"}
{"date":"2011-06-01","average_temperature":"22.348000000000003","city":"Giugliano In Campania","latitude":"40.99N","longitude":"14.91E"}
{"date":"2011-04-01","average_temperature":"11.614","city":"Gloucester","latitude":"52.24N","longitude":"2.63W"}
{"date":"2010-02-01","average_temperature":"24.726999999999997","city":"Goiânia","latitude":"16.87S","longitude":"48.56W"}
{"date":"2011-07-01","average_temperature":"19.997","city":"Goma","latitude":"2.41S","longitude":"29.73E"}
{"date":"2012-08-01","average_temperature":"20.561999999999998","city":"Goma","latitude":"2.41S","longitude":"29.73E"}
{"date":"2013-04-01","average_temperature":"18.84","city":"Goma","latitude":"2.41S","longitude":"29.73E"}
{"date":"2011-02-01","average_temperature":"19.381","city":"Gonda","latitude":"26.52N","longitude":"82.39E"}
{"date":"2011-05-01","average_temperature":"15.458","city":"Gongzhuling","latitude":"44.20N","longitude":"125.22E"}
{"date":"2010-06-01","average_temperature":"26.469","city":"Greensboro","latitude":"36.17N","longitude":"79.56W"}
{"date":"2012-01-01","average_temperature":"25.033","city":"Guacara","latitude":"10.45N","longitude":"67.91W"}
{"date":"2013-06-01","average_temperature":"28.03","city":"Guantánamo","latitude":"20.09N","longitude":"75.07W"}
{"date":"2010-04-01","average_temperature":"18.954","city":"Guarapuava","latitude":"24.92S","longitude":"51.43W"}
{"date":"2011-10-01","average_temperature":"19.618","city":"Guarapuava","latitude":"24.92S","longitude":"51.43W"}
{"date":"2013-05-01","average_temperature":"26.581","city":"Guarenas","latitude":"10.45N","longitude":"66.27W"}
{"date":"2012-12-01","average_temperature":"9.72","city":"Guilin","latitude":"24.92N","longitude":"109.95E"}
{"date":"2012-02-01","average_temperature":"17.087999999999994","city":"Gurgaon","latitude":"28.13N","longitude":"77.27E"}
{"date":"2013-03-01","average_temperature":"22.081999999999997","city":"Hòa Bình","latitude":"20.09N","longitude":"105.78E"}
{"date":"2010-08-01","average_temperature":"30.226","city":"Habra","latitude":"23.31N","longitude":"88.25E"}
{"date":"2011-02-01","average_temperature":"3.734","city":"Hachioji","latitude":"36.17N","longitude":"139.23E"}
{"date":"2013-09-01","city":"Hai Phong","latitude":"21.70N","longitude":"106.44E"}
{"date":"2012-02-01","average_temperature":"13.718","city":"Haicheng","latitude":"23.31N","longitude":"114.47E"}
{"date":"2010-09-01","average_temperature":"17.862000000000005","city":"Haicheng","latitude":"40.99N","longitude":"123.55E"}
{"date":"2011-03-01","average_temperature":"10.759","city":"Haikou","latitude":"24.92N","longitude":"102.86E"}
{"date":"2013-09-01","city":"Hailun","latitude":"47.42N","longitude":"126.71E"}
{"date":"2011-11-01","average_temperature":"22.078000000000003","city":"Hajipur","latitude":"24.92N","longitude":"85.12E"}
{"date":"2013-01-01","average_temperature":"-2.968","city":"Hakodate","latitude":"40.99N","longitude":"140.59E"}
{"date":"2011-04-01","average_temperature":"11.39","city":"Hamburg","latitude":"53.84N","longitude":"9.55E"}
{"date":"2013-05-01","average_temperature":"12.711","city":"Hamburg","latitude":"53.84N","longitude":"9.55E"}
{"date":"2012-07-01","average_temperature":"27.616999999999997","city":"Hanoi","latitude":"21.70N","longitude":"106.44E"}
{"date":"2012-03-01","average_temperature":"7.473","city":"Hanover","latitude":"52.24N","longitude":"10.51E"}
{"date":"2011-10-01","average_temperature":"28.097","city":"Haora","latitude":"23.31N","longitude":"88.25E"}
{"date":"2012-06-01","average_temperature":"28.576","city":"Hat Yai","latitude":"7.23N","longitude":"99.73E"}
{"date":"2012-06-01","average_temperature":"36.33900000000001","city":"Hathras","latitude":"28.13N","longitude":"77.27E"}
{"date":"2012-06-01","average_temperature":"23.441999999999997","city":"Hebi","latitude":"36.17N","longitude":"113.37E"}
{"date":"2010-07-01","average_temperature":"22.304000000000002","city":"Hengshan","latitude":"45.81N","longitude":"130.38E"}
{"date":"2013-09-01","city":"Hengshan","latitude":"45.81N","longitude":"130.38E"}
{"date":"2011-05-01","average_temperature":"24.281999999999996","city":"Herat","latitude":"34.56N","longitude":"62.27E"}
{"date":"2013-08-01","average_temperature":"18.430999999999997","city":"Herne","latitude":"52.24N","longitude":"7.88E"}
{"date":"2010-11-01","average_temperature":"11.601","city":"Hikone","latitude":"34.56N","longitude":"136.22E"}
{"date":"2011-12-01","average_temperature":"6.476","city":"Hikone","latitude":"34.56N","longitude":"136.22E"}
{"date":"2011-11-01","average_temperature":"25.933000000000003","city":"Holguín","latitude":"20.09N","longitude":"76.78W"}
{"date":"2012-04-01","average_temperature":"24.553","city":"Hong Gai","latitude":"21.70N","longitude":"106.44E"}
{"date":"2011-06-01","average_temperature":"16.362000000000002","city":"Hortolândia","latitude":"23.31S","longitude":"48.06W"}
{"date":"2010-06-01","average_temperature":"33.083","city":"Hoshiarpur","latitude":"31.35N","longitude":"75.39E"}
{"date":"2012-10-01","average_temperature":"25.295","city":"Hospet","latitude":"15.27N","longitude":"75.83E"}
{"date":"2010-05-01","average_temperature":"23.761000000000006","city":"Hsinchu","latitude":"24.92N","longitude":"120.59E"}
{"date":"2011-05-01","average_temperature":"28.77","city":"Hubli","latitude":"15.27N","longitude":"75.83E"}
{"date":"2013-03-01","average_temperature":"24.191000000000006","city":"Hue","latitude":"16.87N","longitude":"107.16E"}
{"date":"2011-12-01","average_temperature":"13.267000000000001","city":"Huixquilucan","latitude":"20.09N","longitude":"98.96W"}
{"date":"2012-11-01","average_temperature":"27.581999999999997","city":"Ife","latitude":"7.23N","longitude":"4.05E"}
{"date":"2011-06-01","average_temperature":"21.436","city":"Iida","latitude":"36.17N","longitude":"137.24E"}
{"date":"2010-05-01","average_temperature":"28.092","city":"Ikirun","latitude":"7.23N","longitude":"4.05E"}
{"date":"2011-10-01","average_temperature":"25.976000000000006","city":"Ikirun","latitude":"7.23N","longitude":"4.05E"}
{"date":"2013-02-01","average_temperature":"29.055","city":"Ikole","latitude":"7.23N","longitude":"5.68E"}
{"date":"2012-09-01","average_temperature":"24.467","city":"Ikoma","latitude":"34.56N","longitude":"136.22E"}
{"date":"2010-01-01","average_temperature":"28.597","city":"Ikorodu","latitude":"7.23N","longitude":"4.05E"}
{"date":"2013-03-01","average_temperature":"29.531","city":"Ikorodu","latitude":"7.23N","longitude":"4.05E"}
{"date":"2012-03-01","average_temperature":"30.630000000000006","city":"Ilorin","latitude":"8.84N","longitude":"4.05E"}
{"date":"2013-07-01","average_temperature":"25.785999999999998","city":"Ilorin","latitude":"8.84N","longitude":"4.05E"}
{"date":"2013-08-01","average_temperature":"24.264","city":"Ilorin","latitude":"8.84N","longitude":"4.05E"}
{"date":"2012-04-01","average_temperature":"13.708","city":"Inazawa","latitude":"34.56N","longitude":"136.22E"}
{"date":"2011-04-01","average_temperature":"8.118","city":"Innsbruck","latitude":"47.42N","longitude":"10.66E"}
{"date":"2011-11-01","average_temperature":"-8.985999999999997","city":"Irkutsk","latitude":"52.24N","longitude":"105.11E"}
{"date":"2010-10-01","average_temperature":"26.311999999999998","city":"Iseyin","latitude":"7.23N","longitude":"4.05E"}
{"date":"2010-02-01","average_temperature":"24.511999999999997","city":"Isiro","latitude":"2.41N","longitude":"28.13E"}
{"date":"2012-12-01","average_temperature":"12.854000000000001","city":"Islamabad","latitude":"32.95N","longitude":"73.72E"}
{"date":"2010-08-01","average_temperature":"29.535999999999998","city":"Ismailia","latitude":"31.35N","longitude":"32.04E"}
{"date":"2013-05-01","average_temperature":"24.194000000000003","city":"Ismailia","latitude":"31.35N","longitude":"32.04E"}
{"date":"2012-06-01","average_temperature":"18.095","city":"Itu","latitude":"23.31S","longitude":"48.06W"}
{"date":"2010-11-01","average_temperature":"9.515","city":"Iwatsuki","latitude":"36.17N","longitude":"139.23E"}
{"date":"2012-06-01","average_temperature":"21.401","city":"Izumi","latitude":"34.56N","longitude":"136.22E"}
{"date":"2012-04-01","average_temperature":"23.958000000000002","city":"Jaú","latitude":"21.70S","longitude":"49.33W"}
{"date":"2010-08-01","average_temperature":"32.928000000000004","city":"Jacobabad","latitude":"28.13N","longitude":"68.18E"}
{"date":"2011-12-01","average_temperature":"26.392000000000003","city":"Jaffna","latitude":"8.84N","longitude":"80.27E"}
{"date":"2011-03-01","average_temperature":"18.223","city":"Jahrom","latitude":"28.13N","longitude":"53.64E"}
{"date":"2012-06-01","average_temperature":"26.206999999999997","city":"Jalpaiguri","latitude":"26.52N","longitude":"89.55E"}
{"date":"2011-12-01","average_temperature":"14.259","city":"Jaranwala","latitude":"31.35N","longitude":"73.51E"}
{"date":"2013-09-01","city":"Jaranwala","latitude":"31.35N","longitude":"73.51E"}
{"date":"2012-05-01","average_temperature":"33.793","city":"Jaunpur","latitude":"26.52N","longitude":"82.39E"}
{"date":"2010-07-01","average_temperature":"28.934","city":"Jetpur","latitude":"21.70N","longitude":"70.10E"}
{"date":"2012-08-01","average_temperature":"33.476","city":"Jhang","latitude":"31.35N","longitude":"71.62E"}
{"date":"2011-09-01","average_temperature":"27.404","city":"Jhansi","latitude":"24.92N","longitude":"78.03E"}
{"date":"2013-07-01","average_temperature":"31.754","city":"Jhunjhunun","latitude":"28.13N","longitude":"75.45E"}
{"date":"2010-09-01","average_temperature":"14.245","city":"Jiaohe","latitude":"44.20N","longitude":"127.45E"}
{"date":"2012-04-01","average_temperature":"6.242999999999999","city":"Jiaohe","latitude":"44.20N","longitude":"127.45E"}
{"date":"2011-06-01","average_temperature":"24.785","city":"Jinhua","latitude":"29.74N","longitude":"120.00E"}
{"date":"2011-07-01","average_temperature":"22.793000000000003","city":"Jishu","latitude":"44.20N","longitude":"127.45E"}
{"date":"2010-06-01","average_temperature":"25.845","city":"João Pessoa","latitude":"7.23S","longitude":"34.86W"}
{"date":"2012-07-01","average_temperature":"32.731","city":"Jodhpur","latitude":"26.52N","longitude":"73.43E"}
{"date":"2011-05-01","average_temperature":"15.413","city":"Joetsu","latitude":"37.78N","longitude":"138.31E"}
{"date":"2013-04-01","average_temperature":"27.906999999999996","city":"Jolo","latitude":"5.63N","longitude":"119.46E"}
{"date":"2010-01-01","average_temperature":"26.861","city":"Jombang","latitude":"7.23S","longitude":"112.70E"}
{"date":"2010-05-01","average_temperature":"27.474","city":"Juàzeiro","latitude":"8.84S","longitude":"39.73W"}
{"date":"2011-08-01","average_temperature":"26.026","city":"Juazeiro Do Norte","latitude":"7.23S","longitude":"39.73W"}
{"date":"2012-12-01","average_temperature":"19.613","city":"Jujuy","latitude":"24.92S","longitude":"65.62W"}
{"date":"2011-06-01","average_temperature":"2.738","city":"Juliaca","latitude":"15.27S","longitude":"70.83W"}
{"date":"2012-10-01","average_temperature":"23.726999999999997","city":"Kabwe","latitude":"13.66S","longitude":"28.90E"}
{"date":"2012-01-01","average_temperature":"25.362","city":"Kaduna","latitude":"10.45N","longitude":"7.36E"}
{"date":"2010-10-01","average_temperature":"26.846999999999998","city":"Kaithal","latitude":"29.74N","longitude":"75.69E"}
{"date":"2010-11-01","average_temperature":"20.348","city":"Kaithal","latitude":"29.74N","longitude":"75.69E"}
{"date":"2011-05-01","average_temperature":"20.38","city":"Kaiyuan","latitude":"23.31N","longitude":"103.98E"}
{"date":"2013-02-01","average_temperature":"14.704","city":"Kaiyuan","latitude":"23.31N","longitude":"103.98E"}
{"date":"2011-02-01","average_temperature":"-3.7889999999999997","city":"Kalisz","latitude":"52.24N","longitude":"18.39E"}
{"date":"2013-05-01","average_temperature":"15.282","city":"Kalisz","latitude":"52.24N","longitude":"18.39E"}
{"date":"2013-01-01","average_temperature":"-8.682","city":"Kaluga","latitude":"53.84N","longitude":"36.82E"}
{"date":"2010-07-01","average_temperature":"26.286","city":"Kamakura","latitude":"34.56N","longitude":"140.11E"}
{"date":"2012-12-01","average_temperature":"10.035","city":"Kamakura","latitude":"34.56N","longitude":"140.11E"}
{"date":"2012-04-01","average_temperature":"1.4980000000000002","city":"Kansk","latitude":"55.45N","longitude":"96.38E"}
{"date":"2013-08-01","average_temperature":"28.828000000000003","city":"Kaohsiung","latitude":"23.31N","longitude":"119.71E"}
{"date":"2011-12-01","average_temperature":"26.749000000000002","city":"Karang Tengah","latitude":"7.23S","longitude":"106.22E"}
{"date":"2012-04-01","average_temperature":"27.609","city":"Karawang","latitude":"5.63S","longitude":"106.55E"}
{"date":"2010-09-01","average_temperature":"29.459","city":"Kassala","latitude":"15.27N","longitude":"35.83E"}
{"date":"2010-11-01","average_temperature":"10.803","city":"Kasuga","latitude":"32.95N","longitude":"131.17E"}
{"date":"2012-09-01","average_temperature":"24.467","city":"Kasugai","latitude":"34.56N","longitude":"136.22E"}
{"date":"2013-02-01","average_temperature":"4.9110000000000005","city":"Kasugai","latitude":"34.56N","longitude":"136.22E"}
{"date":"2010-10-01","average_temperature":"16.673000000000002","city":"Kathmandu","latitude":"28.13N","longitude":"84.55E"}
{"date":"2010-05-01","average_temperature":"16.337","city":"Kawasaki","latitude":"36.17N","longitude":"139.23E"}
{"date":"2012-05-01","average_temperature":"16.669999999999998","city":"Kawasaki","latitude":"36.17N","longitude":"139.23E"}
{"date":"2012-02-01","average_temperature":"-4.238","city":"Kecskemét","latitude":"47.42N","longitude":"20.13E"}
{"date":"2012-08-01","average_temperature":"16.118","city":"Kemerovo","latitude":"55.45N","longitude":"85.04E"}
{"date":"2012-09-01","average_temperature":"28.993","city":"Khammam","latitude":"16.87N","longitude":"80.37E"}
{"date":"2012-10-01","average_temperature":"27.491000000000003","city":"Khammam","latitude":"16.87N","longitude":"80.37E"}
{"date":"2010-11-01","average_temperature":"24.624","city":"Khon Kaen","latitude":"16.87N","longitude":"102.14E"}
{"date":"2010-07-01","average_temperature":"31.465","city":"Khurja","latitude":"28.13N","longitude":"77.27E"}
{"date":"2010-06-01","average_temperature":"32.821","city":"Khushab","latitude":"32.95N","longitude":"71.81E"}
{"date":"2010-08-01","average_temperature":"17.253","city":"Kiel","latitude":"53.84N","longitude":"9.55E"}
{"date":"2012-07-01","average_temperature":"19.692999999999998","city":"Kigali","latitude":"2.41S","longitude":"29.73E"}
{"date":"2012-01-01","average_temperature":"23.849","city":"Kindu","latitude":"2.41S","longitude":"26.52E"}
{"date":"2011-10-01","average_temperature":"10.217","city":"Kingston","latitude":"44.20N","longitude":"76.02W"}
{"date":"2011-11-01","average_temperature":"17.025","city":"Kisarazu","latitude":"34.56N","longitude":"140.11E"}
{"date":"2011-03-01","average_temperature":"1.669","city":"Klaipeda","latitude":"55.45N","longitude":"19.84E"}
{"date":"2011-05-01","average_temperature":"9.732000000000001","city":"Klaipeda","latitude":"55.45N","longitude":"19.84E"}
{"date":"2012-06-01","average_temperature":"10.449000000000002","city":"Klerksdorp","latitude":"26.52S","longitude":"26.87E"}
{"date":"2010-12-01","average_temperature":"7.022","city":"Kobe","latitude":"34.56N","longitude":"134.27E"}
{"date":"2011-07-01","average_temperature":"15.847000000000001","city":"Koblenz","latitude":"50.63N","longitude":"6.34E"}
{"date":"2010-11-01","average_temperature":"25.581999999999997","city":"Koidu","latitude":"8.84N","longitude":"10.54W"}
{"date":"2011-11-01","average_temperature":"24.205","city":"Kolar","latitude":"13.66N","longitude":"78.44E"}
{"date":"2011-12-01","average_temperature":"2.647","city":"Kolpino","latitude":"60.27N","longitude":"29.19E"}
{"date":"2012-07-01","average_temperature":"18.286","city":"Komsomolsk Na Amure","latitude":"50.63N","longitude":"138.17E"}
{"date":"2011-01-01","average_temperature":"18.962","city":"Korba","latitude":"21.70N","longitude":"82.21E"}
{"date":"2012-11-01","average_temperature":"1.025","city":"Korla","latitude":"40.99N","longitude":"85.21E"}
{"date":"2010-01-01","average_temperature":"-5.55","city":"Koszalin","latitude":"53.84N","longitude":"15.00E"}
{"date":"2010-04-01","average_temperature":"26.825","city":"Kota Kinabalu","latitude":"5.63N","longitude":"116.23E"}
{"date":"2013-01-01","average_temperature":"25.463","city":"Kota Kinabalu","latitude":"5.63N","longitude":"116.23E"}
{"date":"2013-06-01","average_temperature":"31.22","city":"Kousséri","latitude":"12.05N","longitude":"14.79E"}
{"date":"2011-06-01","average_temperature":"19.8","city":"Kragujevac","latitude":"44.20N","longitude":"20.12E"}
{"date":"2011-06-01","average_temperature":"20.163","city":"Kuytun","latitude":"44.20N","longitude":"84.97E"}
{"date":"2013-01-01","average_temperature":"23.276","city":"La Vega","latitude":"18.48N","longitude":"70.99W"}
{"date":"2012-01-01","average_temperature":"25.327","city":"Lafia","latitude":"8.84N","longitude":"8.92E"}
{"date":"2010-04-01","average_temperature":"11.903","city":"Laiwu","latitude":"36.17N","longitude":"117.35E"}
{"date":"2013-05-01","average_temperature":"31.328000000000007","city":"Lakhimpur","latitude":"28.13N","longitude":"80.91E"}
{"date":"2011-03-01","average_temperature":"25.967","city":"Lambaré","latitude":"24.92S","longitude":"58.52W"}
{"date":"2012-08-01","average_temperature":"20.952","city":"Lansing","latitude":"42.59N","longitude":"85.09W"}
{"date":"2010-04-01","average_temperature":"27.725","city":"Laoag","latitude":"18.48N","longitude":"120.00E"}
{"date":"2011-07-01","average_temperature":"29.683000000000003","city":"Las Vegas","latitude":"36.17N","longitude":"115.36W"}
{"date":"2013-07-01","average_temperature":"31.698","city":"Las Vegas","latitude":"36.17N","longitude":"115.36W"}
{"date":"2011-02-01","average_temperature":"27.874000000000002","city":"León","latitude":"12.05N","longitude":"87.12W"}
{"date":"2011-04-01","average_temperature":"16.330000000000002","city":"Lianran","latitude":"24.92N","longitude":"102.86E"}
{"date":"2011-01-01","average_temperature":"-13.738","city":"Liaoyang","latitude":"40.99N","longitude":"123.55E"}
{"date":"2011-06-01","average_temperature":"20.243","city":"Liaoyang","latitude":"40.99N","longitude":"123.55E"}
{"date":"2011-10-01","average_temperature":"23.949","city":"Likasi","latitude":"10.45S","longitude":"27.00E"}
{"date":"2012-03-01","average_temperature":"22.333000000000002","city":"Likasi","latitude":"10.45S","longitude":"27.00E"}
{"date":"2013-07-01","average_temperature":"28.638","city":"Linhai","latitude":"28.13N","longitude":"120.91E"}
{"date":"2013-03-01","average_temperature":"27.174","city":"Linhares","latitude":"20.09S","longitude":"39.24W"}
{"date":"2011-02-01","average_temperature":"25.444000000000006","city":"Lipa","latitude":"13.66N","longitude":"121.38E"}
{"date":"2010-09-01","average_temperature":"21.772","city":"Lisbon","latitude":"39.38N","longitude":"8.32W"}
{"date":"2012-06-01","average_temperature":"23.789","city":"Lleida","latitude":"40.99N","longitude":"0.00W"}
{"date":"2013-06-01","average_temperature":"27.853","city":"Loa Janan","latitude":"0.80S","longitude":"116.52E"}
{"date":"2012-02-01","average_temperature":"0.08399999999999963","city":"London","latitude":"42.59N","longitude":"80.73W"}
{"date":"2012-06-01","average_temperature":"26.107","city":"Longyan","latitude":"24.92N","longitude":"117.04E"}
{"date":"2012-06-01","average_temperature":"36.33900000000001","city":"Loni","latitude":"28.13N","longitude":"77.27E"}
{"date":"2010-10-01","average_temperature":"16.91","city":"Los Angeles","latitude":"34.56N","longitude":"118.70W"}
{"date":"2011-07-01","average_temperature":"17.445999999999998","city":"Los Reyes","latitude":"20.09N","longitude":"98.96W"}
{"date":"2011-09-01","average_temperature":"26.318","city":"Los Teques","latitude":"10.45N","longitude":"66.27W"}
{"date":"2012-05-01","average_temperature":"21.581000000000003","city":"Loudi","latitude":"28.13N","longitude":"111.82E"}
{"date":"2011-03-01","average_temperature":"21.504","city":"Lubumbashi","latitude":"12.05S","longitude":"27.95E"}
{"date":"2011-09-01","average_temperature":"16.644000000000002","city":"Ludwigshafen","latitude":"49.03N","longitude":"7.35E"}
{"date":"2010-02-01","average_temperature":"15.86","city":"Luoyang","latitude":"23.31N","longitude":"114.47E"}
{"date":"2012-06-01","average_temperature":"22.880000000000006","city":"Málaga","latitude":"36.17N","longitude":"3.98W"}
{"date":"2011-07-01","average_temperature":"21.49","city":"Móstoles","latitude":"40.99N","longitude":"4.26W"}
{"date":"2012-08-01","average_temperature":"28.03","city":"Maanshan","latitude":"31.35N","longitude":"118.74E"}
{"date":"2012-11-01","average_temperature":"5.905","city":"Maastricht","latitude":"50.63N","longitude":"6.34E"}
{"date":"2011-04-01","average_temperature":"20.430999999999997","city":"Maba","latitude":"24.92N","longitude":"113.50E"}
{"date":"2010-01-01","average_temperature":"26.322","city":"Macaé","latitude":"21.70S","longitude":"42.40W"}
{"date":"2011-04-01","average_temperature":"29.276","city":"Madanapalle","latitude":"13.66N","longitude":"78.44E"}
{"date":"2011-09-01","average_temperature":"15.736999999999998","city":"Madison","latitude":"42.59N","longitude":"89.45W"}
{"date":"2012-09-01","average_temperature":"14.137","city":"Magdeburg","latitude":"52.24N","longitude":"10.51E"}
{"date":"2011-08-01","average_temperature":"25.978","city":"Magelang","latitude":"7.23S","longitude":"109.46E"}
{"date":"2012-05-01","average_temperature":"28.025","city":"Malambo","latitude":"10.45N","longitude":"74.45W"}
{"date":"2013-02-01","average_temperature":"26.392","city":"Manaus","latitude":"2.41S","longitude":"60.27W"}
{"date":"2011-12-01","average_temperature":"8.881","city":"Manisa","latitude":"39.38N","longitude":"27.05E"}
{"date":"2012-12-01","average_temperature":"19.289","city":"Manizales","latitude":"5.63N","longitude":"75.87W"}
{"date":"2010-07-01","average_temperature":"20.837","city":"Mannheim","latitude":"49.03N","longitude":"7.35E"}
{"date":"2010-03-01","average_temperature":"27.147","city":"Manta","latitude":"0.80S","longitude":"81.16W"}
{"date":"2011-08-01","average_temperature":"17.519000000000002","city":"Maputo","latitude":"26.52S","longitude":"32.24E"}
{"date":"2012-01-01","average_temperature":"21.455","city":"Mar Del Plata","latitude":"37.78S","longitude":"56.95W"}
{"date":"2010-12-01","average_temperature":"26.014","city":"Maracay","latitude":"10.45N","longitude":"67.91W"}
{"date":"2010-03-01","average_temperature":"13.68","city":"Marv Dasht","latitude":"29.74N","longitude":"53.54E"}
{"date":"2013-01-01","average_temperature":"26.245","city":"Masaya","latitude":"12.05N","longitude":"85.48W"}
{"date":"2011-11-01","average_temperature":"25.072","city":"Matanzas","latitude":"23.31N","longitude":"81.26W"}
{"date":"2013-01-01","average_temperature":"27.377","city":"Mataram","latitude":"8.84S","longitude":"115.95E"}
{"date":"2010-11-01","average_temperature":"21.508000000000003","city":"Mauá","latitude":"23.31S","longitude":"46.31W"}
{"date":"2012-03-01","average_temperature":"22.706999999999997","city":"Mauá","latitude":"23.31S","longitude":"46.31W"}
{"date":"2010-09-01","average_temperature":"31.680999999999997","city":"Mecca","latitude":"21.70N","longitude":"40.67E"}
{"date":"2010-09-01","average_temperature":"27.201999999999998","city":"Melaka","latitude":"2.41N","longitude":"102.05E"}
{"date":"2012-02-01","average_temperature":"8.741","city":"Mersin","latitude":"36.17N","longitude":"33.81E"}
{"date":"2010-07-01","average_temperature":"29.32","city":"Metairie","latitude":"29.74N","longitude":"90.46W"}
{"date":"2011-08-01","average_temperature":"22.452","city":"Metepec","latitude":"18.48N","longitude":"99.72W"}
{"date":"2010-03-01","average_temperature":"28.226","city":"Meycauayan","latitude":"15.27N","longitude":"120.83E"}
{"date":"2013-09-01","city":"Mingaora","latitude":"34.56N","longitude":"72.00E"}
{"date":"2012-07-01","average_temperature":"24.03","city":"Minneapolis","latitude":"45.81N","longitude":"93.46W"}
{"date":"2010-03-01","average_temperature":"6.103","city":"Misato","latitude":"36.17N","longitude":"139.23E"}
{"date":"2011-04-01","average_temperature":"11.175","city":"Misato","latitude":"36.17N","longitude":"139.23E"}
{"date":"2012-05-01","average_temperature":"28.655","city":"Montería","latitude":"8.84N","longitude":"75.41W"}
{"date":"2010-02-01","average_temperature":"23.788","city":"Montevideo","latitude":"34.56S","longitude":"56.43W"}
{"date":"2012-02-01","average_temperature":"24.647","city":"Montevideo","latitude":"34.56S","longitude":"56.43W"}
{"date":"2010-04-01","average_temperature":"29.965","city":"Monywa","latitude":"21.70N","longitude":"94.33E"}
{"date":"2011-07-01","average_temperature":"27.353","city":"Mossoró","latitude":"5.63S","longitude":"37.13W"}
{"date":"2011-11-01","average_temperature":"-3.3480000000000003","city":"Murmansk","latitude":"68.31N","longitude":"34.70E"}
{"date":"2010-11-01","average_temperature":"19.866","city":"Muzaffarnagar","latitude":"29.74N","longitude":"77.54E"}
{"date":"2011-04-01","average_temperature":"26.561","city":"Muzaffarnagar","latitude":"29.74N","longitude":"77.54E"}
{"date":"2011-01-01","average_temperature":"23.263","city":"Mwene Ditu","latitude":"7.23S","longitude":"23.51E"}
{"date":"2011-01-01","average_temperature":"18.337","city":"Nagpur","latitude":"21.70N","longitude":"78.75E"}
{"date":"2010-01-01","average_temperature":"17.476","city":"Nairobi","latitude":"0.80S","longitude":"36.16E"}
{"date":"2010-09-01","average_temperature":"28.399","city":"Nakhon Pathom","latitude":"13.66N","longitude":"99.91E"}
{"date":"2010-02-01","average_temperature":"26.945","city":"Nampula","latitude":"15.27S","longitude":"39.17E"}
{"date":"2013-07-01","average_temperature":"20.933000000000003","city":"Nancy","latitude":"49.03N","longitude":"7.35E"}
{"date":"2010-04-01","average_temperature":"13.122","city":"Nanjing","latitude":"31.35N","longitude":"118.74E"}
{"date":"2012-03-01","average_temperature":"27.298","city":"Narsingdi","latitude":"23.31N","longitude":"90.00E"}
{"date":"2011-04-01","average_temperature":"16.737000000000002","city":"Nashville","latitude":"36.17N","longitude":"87.51W"}
{"date":"2010-12-01","average_temperature":"18.087","city":"Nassau","latitude":"24.92N","longitude":"78.03W"}
{"date":"2010-09-01","average_temperature":"21.354","city":"Navoi","latitude":"39.38N","longitude":"64.51E"}
{"date":"2013-01-01","average_temperature":"16.151","city":"Nawabganj","latitude":"24.92N","longitude":"88.67E"}
{"date":"2013-04-01","average_temperature":"14.854000000000001","city":"Nazilli","latitude":"37.78N","longitude":"28.47E"}
{"date":"2010-03-01","average_temperature":"14.335999999999999","city":"Neijiang","latitude":"29.74N","longitude":"105.23E"}
{"date":"2010-07-01","average_temperature":"12.120999999999999","city":"Nelspruit","latitude":"24.92S","longitude":"30.15E"}
{"date":"2013-04-01","average_temperature":"29.304000000000002","city":"New Delhi","latitude":"28.13N","longitude":"77.27E"}
{"date":"2010-01-01","average_temperature":"25.235","city":"Neyveli","latitude":"12.05N","longitude":"78.90E"}
{"date":"2013-04-01","average_temperature":"33.785000000000004","city":"Niamey","latitude":"13.66N","longitude":"2.48E"}
{"date":"2013-02-01","average_temperature":"15.979000000000001","city":"Nicolás Romero","latitude":"20.09N","longitude":"98.96W"}
{"date":"2011-03-01","average_temperature":"4.674","city":"Niiza","latitude":"36.17N","longitude":"139.23E"}
{"date":"2011-06-01","average_temperature":"16.273","city":"Nijmegen","latitude":"52.24N","longitude":"5.26E"}
{"date":"2010-07-01","average_temperature":"24.229","city":"Niterói","latitude":"23.31S","longitude":"42.82W"}
{"date":"2011-01-01","average_temperature":"27.229","city":"Niterói","latitude":"23.31S","longitude":"42.82W"}
{"date":"2013-01-01","average_temperature":"26.009","city":"Niterói","latitude":"23.31S","longitude":"42.82W"}
{"date":"2010-05-01","average_temperature":"16.555999999999997","city":"Nizhnekamsk","latitude":"55.45N","longitude":"51.02E"}
{"date":"2011-01-01","average_temperature":"22.98","city":"Nkongsamba","latitude":"5.63N","longitude":"9.69E"}
{"date":"2013-05-01","average_temperature":"23.840000000000003","city":"Nkongsamba","latitude":"5.63N","longitude":"9.69E"}
{"date":"2012-09-01","average_temperature":"25.838","city":"Nnewi","latitude":"5.63N","longitude":"6.46E"}
{"date":"2012-01-01","average_temperature":"3.369","city":"Nobeoka","latitude":"32.95N","longitude":"131.17E"}
{"date":"2010-11-01","average_temperature":"9.515","city":"Noda","latitude":"36.17N","longitude":"139.23E"}
{"date":"2011-05-01","average_temperature":"14.724","city":"Noginsk","latitude":"55.45N","longitude":"39.69E"}
{"date":"2013-04-01","average_temperature":"14.462999999999996","city":"Norman","latitude":"34.56N","longitude":"97.30W"}
{"date":"2012-01-01","average_temperature":"5.3130000000000015","city":"Northampton","latitude":"52.24N","longitude":"0.00W"}
{"date":"2011-11-01","average_temperature":"26.355999999999998","city":"Nouakchott","latitude":"18.48N","longitude":"15.21W"}
{"date":"2011-11-01","average_temperature":"2.399","city":"Novi Sad","latitude":"45.81N","longitude":"19.62E"}
{"date":"2010-01-01","average_temperature":"-19.978","city":"Novotroitsk","latitude":"50.63N","longitude":"59.58E"}
{"date":"2010-06-01","average_temperature":"26.935","city":"Nsukka","latitude":"7.23N","longitude":"7.30E"}
{"date":"2011-05-01","average_temperature":"26.853","city":"Nzérékoré","latitude":"7.23N","longitude":"8.92W"}
{"date":"2011-12-01","average_temperature":"24.56","city":"Ocumare Del Tuy","latitude":"10.45N","longitude":"66.27W"}
{"date":"2011-12-01","average_temperature":"3.8930000000000002","city":"Odense","latitude":"55.45N","longitude":"11.34E"}
{"date":"2011-11-01","average_temperature":"-0.3440000000000001","city":"Odintsovo","latitude":"55.45N","longitude":"36.85E"}
{"date":"2010-01-01","average_temperature":"28.237","city":"Offa","latitude":"8.84N","longitude":"4.05E"}
{"date":"2010-03-01","average_temperature":"30.910999999999998","city":"Ogbomosho","latitude":"8.84N","longitude":"4.05E"}
{"date":"2011-06-01","average_temperature":"27.008000000000006","city":"Ogbomosho","latitude":"8.84N","longitude":"4.05E"}
{"date":"2011-06-01","average_temperature":"29.466","city":"Oklahoma City","latitude":"36.17N","longitude":"97.46W"}
{"date":"2012-04-01","average_temperature":"11.855","city":"Oktyabrskiy","latitude":"53.84N","longitude":"53.18E"}
{"date":"2012-10-01","average_temperature":"26.353","city":"Olinda","latitude":"7.23S","longitude":"34.86W"}
{"date":"2011-02-01","average_temperature":"7.77","city":"Ontario","latitude":"34.56N","longitude":"116.76W"}
{"date":"2012-11-01","average_temperature":"13.706","city":"Ontario","latitude":"34.56N","longitude":"116.76W"}
{"date":"2013-04-01","average_temperature":"9.016","city":"Opole","latitude":"50.63N","longitude":"19.01E"}
{"date":"2012-11-01","average_temperature":"21.316999999999997","city":"Orizaba","latitude":"18.48N","longitude":"96.34W"}
{"date":"2012-11-01","average_temperature":"27.122","city":"Oron","latitude":"5.63N","longitude":"8.07E"}
{"date":"2010-07-01","average_temperature":"18.354","city":"Osasco","latitude":"23.31S","longitude":"46.31W"}
{"date":"2010-05-01","average_temperature":"29.03","city":"Otukpo","latitude":"7.23N","longitude":"8.92E"}
{"date":"2010-09-01","average_temperature":"26.441","city":"Otukpo","latitude":"7.23N","longitude":"8.92E"}
{"date":"2012-06-01","average_temperature":"26.566999999999997","city":"Owerri","latitude":"5.63N","longitude":"6.46E"}
{"date":"2010-06-01","average_temperature":"22.802","city":"Pátrai","latitude":"37.78N","longitude":"22.37E"}
{"date":"2012-07-01","average_temperature":"27.467","city":"Pátrai","latitude":"37.78N","longitude":"22.37E"}
{"date":"2011-10-01","average_temperature":"22.708000000000002","city":"Pôrto Seguro","latitude":"16.87S","longitude":"38.51W"}
{"date":"2010-12-01","average_temperature":"26.267000000000003","city":"Pôrto Velho","latitude":"8.84S","longitude":"64.05W"}
{"date":"2012-10-01","average_temperature":"14.787","city":"Paarl","latitude":"34.56S","longitude":"19.46E"}
{"date":"2011-04-01","average_temperature":"28.055999999999997","city":"Pabna","latitude":"23.31N","longitude":"90.00E"}
{"date":"2010-12-01","average_temperature":"24.951","city":"Pacet","latitude":"7.23S","longitude":"107.84E"}
{"date":"2012-04-01","average_temperature":"25.644","city":"Pacet","latitude":"7.23S","longitude":"107.84E"}
{"date":"2013-04-01","average_temperature":"8.291","city":"Paderborn","latitude":"52.24N","longitude":"7.88E"}
{"date":"2011-01-01","average_temperature":"26.935","city":"Palakkad","latitude":"10.45N","longitude":"76.09E"}
{"date":"2010-05-01","average_temperature":"28.631","city":"Palembang","latitude":"2.41S","longitude":"105.27E"}
{"date":"2012-03-01","average_temperature":"25.44","city":"Pali","latitude":"26.52N","longitude":"73.43E"}
{"date":"2012-12-01","average_temperature":"16.566","city":"Palwal","latitude":"28.13N","longitude":"77.27E"}
{"date":"2011-08-01","average_temperature":"28.623","city":"Panipat","latitude":"29.74N","longitude":"77.54E"}
{"date":"2011-06-01","average_temperature":"28.394","city":"Panvel","latitude":"18.48N","longitude":"72.68E"}
{"date":"2012-04-01","average_temperature":"28.223000000000006","city":"Panvel","latitude":"18.48N","longitude":"72.68E"}
{"date":"2013-02-01","average_temperature":"13.311","city":"Panzhihua","latitude":"26.52N","longitude":"102.09E"}
{"date":"2013-02-01","average_temperature":"8.004999999999999","city":"Paradise","latitude":"36.17N","longitude":"115.36W"}
{"date":"2013-04-01","average_temperature":"28.219","city":"Parakou","latitude":"8.84N","longitude":"2.43E"}
{"date":"2012-11-01","average_temperature":"22.671","city":"Paranaguá","latitude":"24.92S","longitude":"47.88W"}
{"date":"2013-02-01","average_temperature":"27.578000000000003","city":"Parnamirim","latitude":"5.63S","longitude":"35.52W"}
{"date":"2011-03-01","average_temperature":"27.241","city":"Parung","latitude":"5.63S","longitude":"106.55E"}
{"date":"2010-04-01","average_temperature":"12.283","city":"Pasadena","latitude":"34.56N","longitude":"118.70W"}
{"date":"2012-01-01","average_temperature":"-0.040999999999999925","city":"Paterson","latitude":"40.99N","longitude":"74.56W"}
{"date":"2012-02-01","average_temperature":"27.153000000000002","city":"Pathein","latitude":"16.87N","longitude":"95.44E"}
{"date":"2010-05-01","average_temperature":"27.156","city":"Paulista","latitude":"7.23S","longitude":"34.86W"}
{"date":"2012-06-01","average_temperature":"21.766","city":"Pavlodar","latitude":"52.24N","longitude":"76.20E"}
{"date":"2010-07-01","average_temperature":"29.344","city":"Pembroke Pines","latitude":"26.52N","longitude":"80.60W"}
{"date":"2012-12-01","average_temperature":"19.82","city":"Pembroke Pines","latitude":"26.52N","longitude":"80.60W"}
{"date":"2010-03-01","average_temperature":"27.904","city":"Perbaungan","latitude":"4.02N","longitude":"98.84E"}
{"date":"2010-03-01","average_temperature":"13.682","city":"Peristérion","latitude":"37.78N","longitude":"24.41E"}
{"date":"2012-11-01","average_temperature":"-4.225999999999999","city":"Pervouralsk","latitude":"57.05N","longitude":"60.49E"}
{"date":"2013-09-01","city":"Peterborough","latitude":"52.24N","longitude":"0.00W"}
{"date":"2012-11-01","average_temperature":"19.733","city":"Phagwara","latitude":"31.35N","longitude":"75.39E"}
{"date":"2011-10-01","average_temperature":"22.230999999999998","city":"Phalaborwa","latitude":"23.31S","longitude":"30.58E"}
{"date":"2013-05-01","average_temperature":"25.926","city":"Phoenix","latitude":"32.95N","longitude":"112.02W"}
{"date":"2011-06-01","average_temperature":"31.148000000000003","city":"Piedras Negras","latitude":"28.13N","longitude":"100.91W"}
{"date":"2010-08-01","average_temperature":"10.021","city":"Pietermaritzburg","latitude":"29.74S","longitude":"29.54E"}
{"date":"2013-05-01","average_temperature":"21.826999999999998","city":"Pingdingshan","latitude":"34.56N","longitude":"112.86E"}
{"date":"2010-09-01","average_temperature":"22.498","city":"Poços De Caldas","latitude":"21.70S","longitude":"45.87W"}
{"date":"2011-09-01","average_temperature":"11.812000000000001","city":"Podolsk","latitude":"55.45N","longitude":"36.85E"}
{"date":"2013-08-01","average_temperature":"17.485","city":"Podolsk","latitude":"55.45N","longitude":"36.85E"}
{"date":"2012-01-01","average_temperature":"26.895","city":"Pontianak","latitude":"0.80S","longitude":"110.09E"}
{"date":"2010-01-01","average_temperature":"3.2140000000000004","city":"Poole","latitude":"50.63N","longitude":"1.27W"}
{"date":"2010-02-01","average_temperature":"27.984","city":"Port Blair","latitude":"12.05N","longitude":"92.05E"}
{"date":"2010-05-01","average_temperature":"30.274","city":"Port Blair","latitude":"12.05N","longitude":"92.05E"}
{"date":"2013-05-01","average_temperature":"27.426","city":"Port Harcourt","latitude":"4.02N","longitude":"7.23E"}
{"date":"2010-05-01","average_temperature":"25.143","city":"Port Louis","latitude":"20.09S","longitude":"58.01E"}
{"date":"2012-04-01","average_temperature":"25.705","city":"Port Louis","latitude":"20.09S","longitude":"58.01E"}
{"date":"2011-08-01","average_temperature":"23.647","city":"Port Moresby","latitude":"8.84S","longitude":"146.76E"}
{"date":"2013-08-01","average_temperature":"14.604000000000001","city":"Posadas","latitude":"28.13S","longitude":"55.45W"}
{"date":"2012-01-01","average_temperature":"0.6910000000000003","city":"Poznan","latitude":"52.24N","longitude":"15.77E"}
{"date":"2011-06-01","average_temperature":"26.921999999999997","city":"Pringsewu","latitude":"5.63S","longitude":"104.93E"}
{"date":"2012-03-01","average_temperature":"9.4","city":"Pueblo","latitude":"37.78N","longitude":"103.73W"}
{"date":"2012-02-01","average_temperature":"27.386","city":"Puerto Princesa","latitude":"10.45N","longitude":"118.64E"}
{"date":"2011-11-01","average_temperature":"15.259","city":"Puqi","latitude":"29.74N","longitude":"114.46E"}
{"date":"2012-10-01","average_temperature":"25.908","city":"Puruliya","latitude":"23.31N","longitude":"86.50E"}
{"date":"2010-08-01","average_temperature":"27.421999999999997","city":"Purwodadi","latitude":"7.23S","longitude":"111.08E"}
{"date":"2012-01-01","average_temperature":"26.233","city":"Purwodadi","latitude":"7.23S","longitude":"111.08E"}
{"date":"2011-01-01","average_temperature":"9.207999999999998","city":"Qingyuan","latitude":"23.31N","longitude":"112.72E"}
{"date":"2011-11-01","average_temperature":"6.1850000000000005","city":"Qinhuangdao","latitude":"39.38N","longitude":"118.61E"}
{"date":"2012-12-01","average_temperature":"9.468","city":"Qujing","latitude":"24.92N","longitude":"104.63E"}
{"date":"2011-10-01","average_temperature":"30.425","city":"Rabak","latitude":"13.66N","longitude":"32.20E"}
{"date":"2010-07-01","average_temperature":"28.385","city":"Raigarh","latitude":"21.70N","longitude":"83.94E"}
{"date":"2011-11-01","average_temperature":"25.775","city":"Rancaekek","latitude":"7.23S","longitude":"107.84E"}
{"date":"2010-03-01","average_temperature":"3.77","city":"Ratisbon","latitude":"49.03N","longitude":"12.24E"}
{"date":"2011-04-01","average_temperature":"13.313","city":"Reims","latitude":"49.03N","longitude":"4.90E"}
{"date":"2010-02-01","average_temperature":"5.496","city":"Reno","latitude":"39.38N","longitude":"120.69W"}
{"date":"2013-06-01","average_temperature":"15.774","city":"Resistencia","latitude":"28.13S","longitude":"59.09W"}
{"date":"2011-01-01","average_temperature":"-2.418","city":"Reykjavík","latitude":"65.09N","longitude":"21.06W"}
{"date":"2012-11-01","average_temperature":"-3.175","city":"Reykjavík","latitude":"65.09N","longitude":"21.06W"}
{"date":"2013-01-01","average_temperature":"-1.457","city":"Reykjavík","latitude":"65.09N","longitude":"21.06W"}
{"date":"2012-12-01","average_temperature":"17.762999999999998","city":"Reynosa","latitude":"26.52N","longitude":"98.51W"}
{"date":"2012-11-01","average_temperature":"21.871","city":"Richards Bay","latitude":"28.13S","longitude":"31.82E"}
{"date":"2012-02-01","average_temperature":"25.514","city":"Rio Claro","latitude":"21.70S","longitude":"47.60W"}
{"date":"2013-02-01","average_temperature":"18.387","city":"Riyadh","latitude":"24.92N","longitude":"46.11E"}
{"date":"2010-03-01","average_temperature":"6.085","city":"Rotterdam","latitude":"52.24N","longitude":"5.26E"}
{"date":"2010-02-01","average_temperature":"3.905","city":"Rouen","latitude":"49.03N","longitude":"0.00W"}
{"date":"2012-12-01","average_temperature":"-2.334","city":"Ruda Slaska","latitude":"50.63N","longitude":"19.01E"}
{"date":"2012-05-01","average_temperature":"21.146","city":"Ruian","latitude":"28.13N","longitude":"120.91E"}
{"date":"2011-12-01","average_temperature":"24.19","city":"São Carlos","latitude":"21.70S","longitude":"47.60W"}
{"date":"2012-05-01","average_temperature":"16.555","city":"Sacramento","latitude":"37.78N","longitude":"122.03W"}
{"date":"2010-01-01","average_temperature":"16.331","city":"Sagar","latitude":"23.31N","longitude":"79.51E"}
{"date":"2013-05-01","average_temperature":"16.756999999999998","city":"Saitama","latitude":"36.17N","longitude":"139.23E"}
{"date":"2012-11-01","average_temperature":"27.919","city":"Salatiga","latitude":"7.23S","longitude":"111.08E"}
{"date":"2011-09-01","average_temperature":"21.061999999999998","city":"Salinas","latitude":"36.17N","longitude":"121.33W"}
{"date":"2013-01-01","average_temperature":"8.914","city":"Salinas","latitude":"36.17N","longitude":"121.33W"}
{"date":"2013-02-01","average_temperature":"-4.859","city":"Salzburg","latitude":"47.42N","longitude":"13.03E"}
{"date":"2010-04-01","average_temperature":"8.847000000000001","city":"Salzgitter","latitude":"52.24N","longitude":"10.51E"}
{"date":"2012-02-01","average_temperature":"0.6339999999999995","city":"Samsun","latitude":"40.99N","longitude":"36.21E"}
{"date":"2013-06-01","average_temperature":"28.651999999999997","city":"San Antonio","latitude":"29.74N","longitude":"97.85W"}
{"date":"2010-10-01","average_temperature":"17.713","city":"San Bernardino","latitude":"34.56N","longitude":"116.76W"}
{"date":"2010-09-01","average_temperature":"27.36","city":"San Fernando","latitude":"15.27N","longitude":"120.83E"}
{"date":"2011-03-01","average_temperature":"11.886","city":"San Francisco","latitude":"37.78N","longitude":"122.03W"}
{"date":"2010-05-01","average_temperature":"14.555","city":"San Jose","latitude":"37.78N","longitude":"122.03W"}
{"date":"2012-09-01","average_temperature":"31.07","city":"San Luis Río Colorado","latitude":"32.95N","longitude":"113.94W"}
{"date":"2012-09-01","average_temperature":"16.233","city":"San Martin","latitude":"32.95S","longitude":"67.98W"}
{"date":"2012-11-01","average_temperature":"26.704","city":"San Miguelito","latitude":"8.84N","longitude":"80.27W"}
{"date":"2012-12-01","average_temperature":"26.752","city":"San Pablo","latitude":"13.66N","longitude":"121.38E"}
{"date":"2012-06-01","average_temperature":"27.994","city":"Sanbu","latitude":"21.70N","longitude":"113.37E"}
{"date":"2011-04-01","average_temperature":"26.551","city":"Sancti Spíritus","latitude":"21.70N","longitude":"78.75W"}
{"date":"2010-01-01","average_temperature":"24.901","city":"Santa Ana","latitude":"13.66N","longitude":"90.00W"}
{"date":"2012-07-01","average_temperature":"29.66","city":"Santa Catarina","latitude":"26.52N","longitude":"100.30W"}
{"date":"2013-09-01","average_temperature":"29.031","city":"Santiago","latitude":"20.09N","longitude":"69.95W"}
{"date":"2010-06-01","average_temperature":"28.765","city":"Santiago De Cuba","latitude":"20.09N","longitude":"75.07W"}
{"date":"2013-08-01","average_temperature":"28.462","city":"Santiago De Cuba","latitude":"20.09N","longitude":"75.07W"}
{"date":"2012-12-01","average_temperature":"28.087","city":"Santiago Del Estero","latitude":"28.13S","longitude":"64.55W"}
{"date":"2010-10-01","average_temperature":"27.409000000000002","city":"Santo Domingo","latitude":"18.48N","longitude":"69.30W"}
{"date":"2010-05-01","average_temperature":"14.15","city":"Sarajevo","latitude":"44.20N","longitude":"17.89E"}
{"date":"2011-11-01","average_temperature":"-3.794000000000001","city":"Saransk","latitude":"53.84N","longitude":"45.00E"}
{"date":"2011-10-01","average_temperature":"26.933000000000003","city":"Sawai Madhopur","latitude":"26.52N","longitude":"77.01E"}
{"date":"2012-12-01","average_temperature":"27.011","city":"Sawangan","latitude":"5.63S","longitude":"106.55E"}
{"date":"2013-06-01","average_temperature":"27.879","city":"Sawangan","latitude":"5.63S","longitude":"106.55E"}
{"date":"2010-11-01","average_temperature":"27.001","city":"Sekondi","latitude":"5.63N","longitude":"1.61W"}
{"date":"2011-06-01","average_temperature":"30.006","city":"Seoni","latitude":"21.70N","longitude":"78.75E"}
{"date":"2010-04-01","average_temperature":"22.267","city":"Sete Lagoas","latitude":"20.09S","longitude":"44.36W"}
{"date":"2012-06-01","average_temperature":"20.701","city":"Seversk","latitude":"57.05N","longitude":"84.10E"}
{"date":"2013-07-01","average_temperature":"27.584","city":"Shah Alam","latitude":"2.41N","longitude":"102.05E"}
{"date":"2012-11-01","average_temperature":"11.585999999999999","city":"Shahrud","latitude":"36.17N","longitude":"55.69E"}
{"date":"2011-06-01","average_temperature":"27.008000000000006","city":"Shaki","latitude":"8.84N","longitude":"4.05E"}
{"date":"2013-01-01","average_temperature":"5.9270000000000005","city":"Shaowu","latitude":"28.13N","longitude":"117.27E"}
{"date":"2011-11-01","average_temperature":"25.613000000000003","city":"Shimoga","latitude":"13.66N","longitude":"75.14E"}
{"date":"2010-11-01","average_temperature":"25.059","city":"Shinyanga","latitude":"4.02S","longitude":"32.95E"}
{"date":"2013-09-01","city":"Shiraz","latitude":"29.74N","longitude":"51.69E"}
{"date":"2012-04-01","average_temperature":"7.409000000000002","city":"Siauliai","latitude":"55.45N","longitude":"22.68E"}
{"date":"2011-07-01","average_temperature":"18.433","city":"Sibiu","latitude":"45.81N","longitude":"24.23E"}
{"date":"2012-12-01","average_temperature":"1.839","city":"Siegen","latitude":"50.63N","longitude":"8.87E"}
{"date":"2013-04-01","average_temperature":"25.467","city":"Silchar","latitude":"24.92N","longitude":"92.22E"}
{"date":"2010-01-01","average_temperature":"29.29","city":"Sincelejo","latitude":"8.84N","longitude":"75.41W"}
{"date":"2010-04-01","average_temperature":"28.022","city":"Sirajganj","latitude":"24.92N","longitude":"90.44E"}
{"date":"2010-07-01","average_temperature":"29.017","city":"Sirajganj","latitude":"24.92N","longitude":"90.44E"}
{"date":"2011-09-01","average_temperature":"28.005000000000006","city":"Sitapur","latitude":"28.13N","longitude":"80.91E"}
{"date":"2012-08-01","average_temperature":"30.831999999999997","city":"Siverek","latitude":"37.78N","longitude":"38.64E"}
{"date":"2013-07-01","average_temperature":"30.089000000000002","city":"Siverek","latitude":"37.78N","longitude":"38.64E"}
{"date":"2010-08-01","average_temperature":"22.443","city":"Skopje","latitude":"42.59N","longitude":"21.82E"}
{"date":"2012-01-01","average_temperature":"-1.179","city":"Sochi","latitude":"44.20N","longitude":"40.25E"}
{"date":"2011-02-01","average_temperature":"29.784000000000002","city":"Sokodé","latitude":"8.84N","longitude":"0.81E"}
{"date":"2010-04-01","average_temperature":"9.319","city":"Solingen","latitude":"50.63N","longitude":"6.34E"}
{"date":"2013-06-01","average_temperature":"27.714","city":"Sorong","latitude":"0.80S","longitude":"130.98E"}
{"date":"2012-02-01","average_temperature":"-5.932","city":"Sosnowiec","latitude":"50.63N","longitude":"19.01E"}
{"date":"2013-05-01","average_temperature":"12.154000000000002","city":"Soweto","latitude":"26.52S","longitude":"28.66E"}
{"date":"2012-07-01","average_temperature":"25.375","city":"Soyapango","latitude":"13.66N","longitude":"88.35W"}
{"date":"2011-07-01","average_temperature":"22.676","city":"Springfield","latitude":"42.59N","longitude":"72.00W"}
{"date":"2010-01-01","average_temperature":"1.146","city":"Srinagar","latitude":"34.56N","longitude":"73.95E"}
{"date":"2012-08-01","average_temperature":"20.77","city":"Staryy Oskol","latitude":"50.63N","longitude":"36.76E"}
{"date":"2010-05-01","average_temperature":"15.864","city":"Sterlitamak","latitude":"53.84N","longitude":"55.91E"}
{"date":"2012-06-01","average_temperature":"24.051","city":"Suining","latitude":"29.74N","longitude":"105.23E"}
{"date":"2010-08-01","average_temperature":"29.879","city":"Sultanpur","latitude":"26.52N","longitude":"82.39E"}
{"date":"2012-06-01","average_temperature":"25.409000000000002","city":"Sumedang","latitude":"7.23S","longitude":"107.84E"}
{"date":"2013-04-01","average_temperature":"18.119","city":"Sunrise Manor","latitude":"36.17N","longitude":"115.36W"}
{"date":"2012-05-01","average_temperature":"21.965000000000003","city":"Sur","latitude":"32.95N","longitude":"35.43E"}
{"date":"2012-01-01","average_temperature":"-20.533","city":"Surgut","latitude":"61.88N","longitude":"73.02E"}
{"date":"2013-04-01","average_temperature":"13.069","city":"Suzuka","latitude":"34.56N","longitude":"136.22E"}
{"date":"2012-02-01","average_temperature":"4.16","city":"Swindon","latitude":"52.24N","longitude":"2.63W"}
{"date":"2010-09-01","average_temperature":"15.963","city":"Sydney","latitude":"34.56S","longitude":"151.78E"}
{"date":"2013-03-01","average_temperature":"20.483","city":"Sydney","latitude":"34.56S","longitude":"151.78E"}
{"date":"2012-04-01","average_temperature":"14.77","city":"Syracuse","latitude":"37.78N","longitude":"16.27E"}
{"date":"2012-01-01","average_temperature":"1.5720000000000005","city":"Székesfehérvár","latitude":"47.42N","longitude":"17.76E"}
{"date":"2010-02-01","average_temperature":"-0.972","city":"Szczecin","latitude":"53.84N","longitude":"15.00E"}
{"date":"2011-06-01","average_temperature":"23.433000000000003","city":"Tétouan","latitude":"36.17N","longitude":"5.97W"}
{"date":"2012-04-01","average_temperature":"22.742","city":"Tabora","latitude":"5.63S","longitude":"32.29E"}
{"date":"2010-03-01","average_temperature":"27.89","city":"Tacloban","latitude":"12.05N","longitude":"124.93E"}
{"date":"2012-08-01","average_temperature":"28.096999999999998","city":"Tacloban","latitude":"12.05N","longitude":"124.93E"}
{"date":"2011-12-01","average_temperature":"19.521","city":"Tacna","latitude":"18.48S","longitude":"70.99W"}
{"date":"2010-04-01","average_temperature":"22.066999999999997","city":"Tainan","latitude":"23.31N","longitude":"119.71E"}
{"date":"2011-01-01","average_temperature":"15.0","city":"Taitung","latitude":"23.31N","longitude":"121.46E"}
{"date":"2011-04-01","average_temperature":"20.651999999999997","city":"Taitung","latitude":"23.31N","longitude":"121.46E"}
{"date":"2010-10-01","average_temperature":"8.887","city":"Taiyuan","latitude":"37.78N","longitude":"111.86E"}
{"date":"2010-04-01","average_temperature":"9.167","city":"Takaoka","latitude":"36.17N","longitude":"137.24E"}
{"date":"2011-10-01","average_temperature":"26.203000000000003","city":"Takoradi","latitude":"5.63N","longitude":"1.61W"}
{"date":"2012-05-01","average_temperature":"26.863000000000003","city":"Takoradi","latitude":"5.63N","longitude":"1.61W"}
{"date":"2012-12-01","average_temperature":"16.13","city":"Tali","latitude":"24.92N","longitude":"120.59E"}
{"date":"2011-08-01","average_temperature":"19.845","city":"Tambov","latitude":"52.24N","longitude":"42.04E"}
{"date":"2012-12-01","average_temperature":"-8.613999999999999","city":"Taraz","latitude":"42.59N","longitude":"72.00E"}
{"date":"2011-04-01","average_temperature":"18.331","city":"Tarhunah","latitude":"32.95N","longitude":"14.36E"}
{"date":"2011-06-01","average_temperature":"27.367","city":"Tawau","latitude":"4.02N","longitude":"118.13E"}
{"date":"2010-09-01","average_temperature":"27.36","city":"Taytay","latitude":"15.27N","longitude":"120.83E"}
{"date":"2012-07-01","average_temperature":"26.959","city":"Taytay","latitude":"15.27N","longitude":"120.83E"}
{"date":"2012-06-01","average_temperature":"21.991","city":"Teófilo Otoni","latitude":"18.48S","longitude":"42.25W"}
{"date":"2010-07-01","average_temperature":"24.444000000000003","city":"Tekirdag","latitude":"40.99N","longitude":"27.69E"}
{"date":"2010-08-01","average_temperature":"27.54","city":"Tengzhou","latitude":"34.56N","longitude":"116.76E"}
{"date":"2013-03-01","average_temperature":"10.084","city":"Tengzhou","latitude":"34.56N","longitude":"116.76E"}
{"date":"2011-12-01","average_temperature":"27.914","city":"Teresina","latitude":"5.63S","longitude":"43.59W"}
{"date":"2012-04-01","average_temperature":"14.415999999999999","city":"Terrassa","latitude":"40.99N","longitude":"2.13E"}
{"date":"2012-09-01","average_temperature":"22.738000000000003","city":"Terrassa","latitude":"40.99N","longitude":"2.13E"}
{"date":"2012-05-01","average_temperature":"28.353","city":"Thaton","latitude":"16.87N","longitude":"97.12E"}
{"date":"2012-07-01","average_temperature":"26.674","city":"Thaton","latitude":"16.87N","longitude":"97.12E"}
{"date":"2011-06-01","average_temperature":"26.035","city":"Tianjin","latitude":"39.38N","longitude":"116.53E"}
{"date":"2011-07-01","average_temperature":"27.074","city":"Tianjin","latitude":"39.38N","longitude":"116.53E"}
{"date":"2013-05-01","average_temperature":"18.967","city":"Tighina","latitude":"47.42N","longitude":"29.61E"}
{"date":"2010-10-01","average_temperature":"10.279000000000002","city":"Tilburg","latitude":"52.24N","longitude":"5.26E"}
{"date":"2011-05-01","average_temperature":"22.382","city":"Toamasina","latitude":"18.48S","longitude":"49.01E"}
{"date":"2012-04-01","average_temperature":"11.355","city":"Tokorozawa","latitude":"36.17N","longitude":"139.23E"}
{"date":"2012-03-01","average_temperature":"-1.035","city":"Tomakomai","latitude":"42.59N","longitude":"141.82E"}
{"date":"2013-05-01","average_temperature":"35.003","city":"Tonk","latitude":"26.52N","longitude":"75.22E"}
{"date":"2011-10-01","average_temperature":"18.244","city":"Torrance","latitude":"34.56N","longitude":"118.70W"}
{"date":"2013-05-01","average_temperature":"11.629000000000001","city":"Torrejón De Ardoz","latitude":"40.99N","longitude":"4.26W"}
{"date":"2010-09-01","average_temperature":"27.467","city":"Toungoo","latitude":"18.48N","longitude":"96.34E"}
{"date":"2011-04-01","average_temperature":"12.548","city":"Toyota","latitude":"34.56N","longitude":"136.22E"}
{"date":"2011-03-01","average_temperature":"8.065","city":"Trieste","latitude":"45.81N","longitude":"12.69E"}
{"date":"2011-01-01","average_temperature":"0.8170000000000001","city":"Tsuchiura","latitude":"36.17N","longitude":"139.23E"}
{"date":"2012-01-01","average_temperature":"11.140999999999998","city":"Tucson","latitude":"31.35N","longitude":"111.20W"}
{"date":"2012-05-01","average_temperature":"22.541","city":"Tucson","latitude":"31.35N","longitude":"111.20W"}
{"date":"2011-04-01","average_temperature":"28.028000000000002","city":"Tumkur","latitude":"13.66N","longitude":"76.79E"}
{"date":"2012-03-01","average_temperature":"27.298","city":"Tungi","latitude":"23.31N","longitude":"90.00E"}
{"date":"2011-05-01","average_temperature":"20.924","city":"Tunis","latitude":"36.17N","longitude":"9.94E"}
{"date":"2010-08-01","average_temperature":"28.46","city":"Turgutlu","latitude":"37.78N","longitude":"28.47E"}
{"date":"2013-03-01","average_temperature":"26.851999999999997","city":"Turmero","latitude":"10.45N","longitude":"67.91W"}
{"date":"2012-02-01","average_temperature":"4.932","city":"Ube","latitude":"34.56N","longitude":"130.38E"}
{"date":"2010-03-01","average_temperature":"24.325","city":"Uberaba","latitude":"20.09S","longitude":"47.77W"}
{"date":"2012-07-01","average_temperature":"21.14","city":"Uberlândia","latitude":"18.48S","longitude":"49.01W"}
{"date":"2011-02-01","average_temperature":"28.436","city":"Ugep","latitude":"5.63N","longitude":"8.07E"}
{"date":"2013-06-01","average_temperature":"14.342","city":"Ukhta","latitude":"63.49N","longitude":"52.20E"}
{"date":"2011-03-01","average_temperature":"29.572000000000006","city":"Uromi","latitude":"7.23N","longitude":"5.68E"}
{"date":"2011-08-01","average_temperature":"20.842","city":"Uruapan","latitude":"20.09N","longitude":"102.37W"}
{"date":"2012-05-01","average_temperature":"18.606","city":"Uruguaiana","latitude":"29.74S","longitude":"57.23W"}
{"date":"2010-03-01","average_temperature":"-14.511","city":"Ust Ilimsk","latitude":"58.66N","longitude":"101.54E"}
{"date":"2011-01-01","average_temperature":"-28.239","city":"Ust Ilimsk","latitude":"58.66N","longitude":"101.54E"}
{"date":"2010-08-01","average_temperature":"15.191","city":"Västerås","latitude":"60.27N","longitude":"16.22E"}
{"date":"2013-07-01","average_temperature":"7.66","city":"Valdivia","latitude":"39.38S","longitude":"72.83W"}
{"date":"2010-02-01","average_temperature":"4.738","city":"Van","latitude":"37.78N","longitude":"42.71E"}
{"date":"2011-09-01","average_temperature":"21.142","city":"Varna","latitude":"42.59N","longitude":"28.36E"}
{"date":"2013-08-01","average_temperature":"22.831","city":"Venice","latitude":"45.81N","longitude":"12.69E"}
{"date":"2013-09-01","city":"Verona","latitude":"45.81N","longitude":"10.38E"}
{"date":"2010-06-01","average_temperature":"9.0","city":"Verwoerdburg","latitude":"26.52S","longitude":"28.66E"}
{"date":"2011-10-01","average_temperature":"25.086","city":"Villavicencio","latitude":"4.02N","longitude":"73.13W"}
{"date":"2012-01-01","average_temperature":"-4.492","city":"Vinnitsa","latitude":"49.03N","longitude":"29.39E"}
{"date":"2010-04-01","average_temperature":"30.669","city":"Visakhapatnam","latitude":"18.48N","longitude":"82.82E"}
{"date":"2011-08-01","average_temperature":"26.62","city":"Visakhapatnam","latitude":"18.48N","longitude":"82.82E"}
{"date":"2012-04-01","average_temperature":"9.427999999999999","city":"Vitoria","latitude":"42.59N","longitude":"2.18W"}
{"date":"2013-06-01","average_temperature":"28.059","city":"Vizianagaram","latitude":"18.48N","longitude":"82.82E"}
{"date":"2012-08-01","average_temperature":"15.807","city":"Vologda","latitude":"58.66N","longitude":"40.00E"}
{"date":"2012-11-01","average_temperature":"15.584000000000001","city":"Waco","latitude":"31.35N","longitude":"98.01W"}
{"date":"2011-04-01","average_temperature":"18.676","city":"Wah","latitude":"34.56N","longitude":"72.00E"}
{"date":"2011-05-01","average_temperature":"20.58","city":"Wahran","latitude":"36.17N","longitude":"0.00W"}
{"date":"2012-02-01","average_temperature":"9.38","city":"Wahran","latitude":"36.17N","longitude":"0.00W"}
{"date":"2011-10-01","average_temperature":"15.005","city":"Waitakere","latitude":"36.17S","longitude":"175.03E"}
{"date":"2011-02-01","average_temperature":"26.805999999999997","city":"Waru","latitude":"7.23S","longitude":"112.70E"}
{"date":"2010-11-01","average_temperature":"7.518","city":"Washington","latitude":"39.38N","longitude":"76.99W"}
{"date":"2010-05-01","average_temperature":"19.19","city":"Weifang","latitude":"36.17N","longitude":"119.34E"}
{"date":"2010-03-01","average_temperature":"11.472000000000001","city":"Wenzhou","latitude":"28.13N","longitude":"120.91E"}
{"date":"2011-05-01","average_temperature":"11.07","city":"West Valley City","latitude":"40.99N","longitude":"112.90W"}
{"date":"2013-04-01","average_temperature":"16.68","city":"Westonaria","latitude":"26.52S","longitude":"26.87E"}
{"date":"2012-03-01","average_temperature":"15.835","city":"Wichita Falls","latitude":"34.56N","longitude":"99.24W"}
{"date":"2011-12-01","average_temperature":"1.086","city":"Windsor","latitude":"42.59N","longitude":"82.91W"}
{"date":"2012-08-01","average_temperature":"12.859000000000002","city":"Witbank","latitude":"26.52S","longitude":"28.66E"}
{"date":"2011-04-01","average_temperature":"12.511","city":"Witten","latitude":"52.24N","longitude":"7.88E"}
{"date":"2013-01-01","average_temperature":"21.16","city":"Wollongong","latitude":"34.56S","longitude":"151.78E"}
{"date":"2011-12-01","average_temperature":"-8.187000000000001","city":"Wuda","latitude":"39.38N","longitude":"106.13E"}
{"date":"2011-02-01","average_temperature":"7.702000000000001","city":"Wuhan","latitude":"29.74N","longitude":"114.46E"}
{"date":"2013-01-01","average_temperature":"4.138","city":"Wuxue","latitude":"29.74N","longitude":"116.31E"}
{"date":"2012-01-01","average_temperature":"17.188","city":"Xalapa","latitude":"20.09N","longitude":"97.25W"}
{"date":"2013-06-01","average_temperature":"23.82","city":"Xalapa","latitude":"20.09N","longitude":"97.25W"}
{"date":"2011-07-01","average_temperature":"27.568","city":"Xiamen","latitude":"24.92N","longitude":"118.82E"}
{"date":"2012-06-01","average_temperature":"25.956999999999997","city":"Xiangdong","latitude":"28.13N","longitude":"113.64E"}
{"date":"2010-05-01","average_temperature":"22.504","city":"Xingyi","latitude":"24.92N","longitude":"104.63E"}
{"date":"2010-09-01","average_temperature":"25.233","city":"Yaizu","latitude":"34.56N","longitude":"138.16E"}
{"date":"2013-08-01","average_temperature":"21.723000000000003","city":"Yanan","latitude":"36.17N","longitude":"109.39E"}
{"date":"2010-03-01","average_temperature":"4.481000000000001","city":"Yidu","latitude":"36.17N","longitude":"119.34E"}
{"date":"2013-04-01","average_temperature":"17.352999999999998","city":"Yongan","latitude":"26.52N","longitude":"118.21E"}
{"date":"2010-11-01","average_temperature":"20.134","city":"Yulin","latitude":"21.70N","longitude":"109.90E"}
{"date":"2011-12-01","average_temperature":"17.944000000000006","city":"Yungho","latitude":"24.92N","longitude":"122.36E"}
{"date":"2013-02-01","average_temperature":"27.27","city":"Zamboanga","latitude":"7.23N","longitude":"122.43E"}
{"date":"2013-07-01","average_temperature":"30.296000000000006","city":"Zaoyang","latitude":"31.35N","longitude":"113.09E"}
{"date":"2011-01-01","average_temperature":"-1.869","city":"Zaozhuang","latitude":"34.56N","longitude":"116.76E"}
{"date":"2011-01-01","average_temperature":"17.143","city":"Zapopan","latitude":"20.09N","longitude":"104.08W"}
{"date":"2010-09-01","average_temperature":"17.343","city":"Zaporizhzhya","latitude":"47.42N","longitude":"34.34E"}
{"date":"2011-04-01","average_temperature":"5.729","city":"Zelenograd","latitude":"55.45N","longitude":"36.85E"}
{"date":"2012-03-01","average_temperature":"10.414","city":"Zhaotong","latitude":"26.52N","longitude":"103.88E"}
{"date":"2010-03-01","average_temperature":"19.378","city":"Zhongshan","latitude":"21.70N","longitude":"113.37E"}
{"date":"2012-07-01","average_temperature":"27.57","city":"Zhoucun","latitude":"36.17N","longitude":"117.35E"}
{"date":"2012-04-01","average_temperature":"17.637","city":"Zhoukou","latitude":"32.95N","longitude":"113.94E"}
{"date":"2012-08-01","average_temperature":"27.87","city":"Zhuji","latitude":"29.74N","longitude":"120.00E"}
{"date":"2011-06-01","average_temperature":"18.365","city":"Zonguldak","latitude":"40.99N","longitude":"31.95E"}
