{"date":"2012-12-01","average_temperature":"26.776999999999997","city":"Abidjan","latitude":"5.63N","longitude":"3.23W"}
{"date":"2010-06-01","average_temperature":"32.852","city":"Adilabad","latitude":"20.09N","longitude":"78.48E"}
{"date":"2012-11-01","average_temperature":"16.82","city":"Agadir","latitude":"29.74N","longitude":"9.23W"}
{"date":"2010-12-01","average_temperature":"20.183","city":"Ahmadabad","latitude":"23.31N","longitude":"72.52E"}
{"date":"2011-04-01","average_temperature":"27.75","city":"Ahmadpur East","latitude":"29.74N","longitude":"72.00E"}
{"date":"2013-05-01","average_temperature":"12.811","city":"Aix En Provence","latitude":"44.20N","longitude":"4.47E"}
{"date":"2011-10-01","average_temperature":"21.147","city":"Ajdabiya","latitude":"31.35N","longitude":"20.73E"}
{"date":"2010-05-01","average_temperature":"16.573","city":"Aksaray","latitude":"37.78N","longitude":"34.58E"}
{"date":"2010-06-01","average_temperature":"28.237","city":"Akyab","latitude":"20.09N","longitude":"92.13E"}
{"date":"2013-04-01","average_temperature":"32.124","city":"Alandur","latitude":"13.66N","longitude":"80.09E"}
{"date":"2012-05-01","average_temperature":"19.906","city":"Alanya","latitude":"36.17N","longitude":"31.82E"}
{"date":"2013-05-01","average_temperature":"16.29","city":"Albuquerque","latitude":"34.56N","longitude":"107.03W"}
{"date":"2011-04-01","average_temperature":"13.627","city":"Alexandria","latitude":"39.38N","longitude":"76.99W"}
{"date":"2011-06-01","average_temperature":"21.031999999999996","city":"Allentown","latitude":"40.99N","longitude":"74.56W"}
{"date":"2010-12-01","average_temperature":"26.659000000000002","city":"Alor Setar","latitude":"5.63N","longitude":"100.09E"}
{"date":"2013-01-01","average_temperature":"27.945999999999998","city":"Alor Setar","latitude":"5.63N","longitude":"100.09E"}
{"date":"2011-11-01","average_temperature":"29.04","city":"Ambarnath","latitude":"18.48N","longitude":"72.68E"}
{"date":"2012-11-01","average_temperature":"6.4689999999999985","city":"Amersfoort","latitude":"52.24N","longitude":"5.26E"}
{"date":"2011-09-01","average_temperature":"19.904","city":"Anaheim","latitude":"32.95N","longitude":"117.77W"}
{"date":"2010-11-01","average_temperature":"28.061","city":"Ananindeua","latitude":"0.80S","longitude":"49.02W"}
{"date":"2012-05-01","average_temperature":"29.139","city":"Angeles","latitude":"15.27N","longitude":"120.83E"}
{"date":"2013-07-01","average_temperature":"21.862","city":"Angers","latitude":"47.42N","longitude":"1.18W"}
{"date":"2010-12-01","average_temperature":"6.597","city":"Anshun","latitude":"26.52N","longitude":"105.67E"}
{"date":"2012-09-01","average_temperature":"14.993","city":"Antofagasta","latitude":"23.31S","longitude":"70.78W"}
{"date":"2011-09-01","average_temperature":"21.9","city":"Araruama","latitude":"23.31S","longitude":"42.82W"}
{"date":"2012-05-01","average_temperature":"20.116","city":"Arlington","latitude":"39.38N","longitude":"76.99W"}
{"date":"2010-09-01","average_temperature":"28.349","city":"Asansol","latitude":"23.31N","longitude":"86.50E"}
{"date":"2011-03-01","average_temperature":"-8.285","city":"Astana","latitude":"50.63N","longitude":"72.25E"}
{"date":"2013-04-01","average_temperature":"7.077999999999999","city":"Astana","latitude":"50.63N","longitude":"72.25E"}
{"date":"2013-08-01","average_temperature":"16.948","city":"Asunción","latitude":"24.92S","longitude":"58.52W"}
{"date":"2010-04-01","average_temperature":"16.542","city":"Athens","latitude":"37.78N","longitude":"24.41E"}
{"date":"2011-08-01","average_temperature":"25.866","city":"Atlanta","latitude":"34.56N","longitude":"83.68W"}
{"date":"2013-03-01","average_temperature":"15.944","city":"Austin","latitude":"29.74N","longitude":"97.85W"}
{"date":"2011-04-01","average_temperature":"29.406","city":"Azamgarh","latitude":"26.52N","longitude":"82.39E"}
{"date":"2011-03-01","average_temperature":"25.11","city":"Babakan","latitude":"7.23S","longitude":"107.84E"}
{"date":"2013-08-01","average_temperature":"25.459000000000003","city":"Babakan","latitude":"7.23S","longitude":"107.84E"}
{"date":"2011-03-01","average_temperature":"12.811","city":"Badalona","latitude":"40.99N","longitude":"2.13E"}
{"date":"2012-01-01","average_temperature":"23.844","city":"Badlapur","latitude":"18.48N","longitude":"72.68E"}
{"date":"2010-10-01","average_temperature":"28.071","city":"Baharampur","latitude":"23.31N","longitude":"88.25E"}
{"date":"2011-10-01","average_temperature":"28.097","city":"Baharampur","latitude":"23.31N","longitude":"88.25E"}
{"date":"2011-05-01","average_temperature":"12.380999999999998","city":"Bahia Blanca","latitude":"39.38S","longitude":"62.43W"}
{"date":"2011-10-01","average_temperature":"8.822000000000001","city":"Baia Mare","latitude":"47.42N","longitude":"22.50E"}
{"date":"2010-05-01","average_temperature":"31.308000000000003","city":"Baidyabati","latitude":"23.31N","longitude":"88.25E"}
{"date":"2013-06-01","average_temperature":"31.765","city":"Bama","latitude":"12.05N","longitude":"13.15E"}
{"date":"2012-06-01","average_temperature":"28.252","city":"Bandar Maharani","latitude":"2.41N","longitude":"102.05E"}
{"date":"2012-06-01","average_temperature":"24.763","city":"Baneh","latitude":"36.17N","longitude":"45.75E"}
{"date":"2010-05-01","average_temperature":"14.15","city":"Banja Luka","latitude":"44.20N","longitude":"17.89E"}
{"date":"2013-03-01","average_temperature":"27.701999999999998","city":"Baranagar","latitude":"23.31N","longitude":"88.25E"}
{"date":"2011-01-01","average_temperature":"13.636","city":"Bareli","latitude":"28.13N","longitude":"79.09E"}
{"date":"2011-07-01","average_temperature":"25.233","city":"Bari","latitude":"40.99N","longitude":"17.04E"}
{"date":"2012-12-01","average_temperature":"20.772","city":"Baripada","latitude":"21.70N","longitude":"87.40E"}
{"date":"2010-02-01","average_temperature":"-23.914","city":"Barnaul","latitude":"53.84N","longitude":"83.18E"}
{"date":"2010-08-01","average_temperature":"15.535","city":"Basel","latitude":"47.42N","longitude":"8.29E"}
{"date":"2011-07-01","average_temperature":"15.992","city":"Basildon","latitude":"52.24N","longitude":"0.00W"}
{"date":"2010-03-01","average_temperature":"18.335","city":"Bat Yam","latitude":"31.35N","longitude":"33.93E"}
{"date":"2010-08-01","average_temperature":"26.383000000000003","city":"Bauchi","latitude":"10.45N","longitude":"10.64E"}
{"date":"2013-07-01","average_temperature":"20.473","city":"Beira","latitude":"20.09S","longitude":"34.12E"}
{"date":"2010-01-01","average_temperature":"-12.137","city":"Belgorod","latitude":"50.63N","longitude":"36.76E"}
{"date":"2012-09-01","average_temperature":"22.325","city":"Bengbu","latitude":"32.95N","longitude":"117.77E"}
{"date":"2012-01-01","average_temperature":"20.482000000000006","city":"Benoni","latitude":"26.52S","longitude":"28.66E"}
{"date":"2013-05-01","average_temperature":"6.916","city":"Bergen","latitude":"60.27N","longitude":"6.49E"}
{"date":"2010-06-01","average_temperature":"18.235","city":"Betim","latitude":"20.09S","longitude":"44.36W"}
{"date":"2010-08-01","average_temperature":"27.768","city":"Bhilai","latitude":"21.70N","longitude":"82.21E"}
{"date":"2010-02-01","average_temperature":"25.798","city":"Bhubaneswar","latitude":"20.09N","longitude":"85.31E"}
{"date":"2011-11-01","average_temperature":"24.631","city":"Bhubaneswar","latitude":"20.09N","longitude":"85.31E"}
{"date":"2013-05-01","average_temperature":"32.044000000000004","city":"Bhuj","latitude":"23.31N","longitude":"69.03E"}
{"date":"2013-02-01","average_temperature":"30.583","city":"Bida","latitude":"8.84N","longitude":"5.68E"}
{"date":"2010-12-01","average_temperature":"-4.183","city":"Bila Tserkva","latitude":"49.03N","longitude":"29.39E"}
{"date":"2010-08-01","average_temperature":"27.627","city":"Binangonan","latitude":"13.66N","longitude":"121.38E"}
{"date":"2013-03-01","average_temperature":"27.924","city":"Binjai","latitude":"4.02N","longitude":"98.84E"}
{"date":"2013-08-01","average_temperature":"26.16","city":"Bogor","latitude":"7.23S","longitude":"106.22E"}
{"date":"2012-01-01","average_temperature":"28.444000000000003","city":"Bohicon","latitude":"7.23N","longitude":"2.43E"}
{"date":"2011-10-01","average_temperature":"14.09","city":"Bojnurd","latitude":"37.78N","longitude":"56.95E"}
{"date":"2011-11-01","average_temperature":"29.04","city":"Bombay","latitude":"18.48N","longitude":"72.68E"}
{"date":"2012-07-01","average_temperature":"27.941","city":"Bombay","latitude":"18.48N","longitude":"72.68E"}
{"date":"2012-10-01","average_temperature":"13.977","city":"Bordeaux","latitude":"44.20N","longitude":"0.00W"}
{"date":"2013-09-01","city":"Borujerd","latitude":"34.56N","longitude":"48.65E"}
{"date":"2012-08-01","average_temperature":"19.069000000000006","city":"Bragança Paulista","latitude":"23.31S","longitude":"46.31W"}
{"date":"2011-12-01","average_temperature":"2.668","city":"Bratislava","latitude":"47.42N","longitude":"17.76E"}
{"date":"2012-05-01","average_temperature":"24.955","city":"Brazzaville","latitude":"4.02S","longitude":"15.27E"}
{"date":"2013-03-01","average_temperature":"2.253","city":"Breda","latitude":"52.24N","longitude":"5.26E"}
{"date":"2011-03-01","average_temperature":"4.353","city":"Bremen","latitude":"53.84N","longitude":"9.55E"}
{"date":"2011-04-01","average_temperature":"11.39","city":"Bremerhaven","latitude":"53.84N","longitude":"9.55E"}
{"date":"2012-12-01","average_temperature":"-4.711","city":"Brest","latitude":"52.24N","longitude":"23.65E"}
{"date":"2010-02-01","average_temperature":"6.997999999999999","city":"Brest","latitude":"49.03N","longitude":"4.90W"}
{"date":"2011-04-01","average_temperature":"9.226","city":"Bridgeport","latitude":"40.99N","longitude":"72.43W"}
{"date":"2011-05-01","average_temperature":"14.880999999999998","city":"Bridgeport","latitude":"40.99N","longitude":"72.43W"}
{"date":"2011-10-01","average_temperature":"13.757","city":"Bridgeport","latitude":"40.99N","longitude":"72.43W"}
{"date":"2010-08-01","average_temperature":"16.335","city":"Brighton","latitude":"50.63N","longitude":"1.27W"}
{"date":"2011-08-01","average_temperature":"17.703","city":"Brugge","latitude":"50.63N","longitude":"3.80E"}
{"date":"2010-12-01","average_temperature":"-3.8960000000000004","city":"Brunswick","latitude":"52.24N","longitude":"10.51E"}
{"date":"2011-01-01","average_temperature":"1.942","city":"Brunswick","latitude":"52.24N","longitude":"10.51E"}
{"date":"2011-06-01","average_temperature":"18.652","city":"Bryansk","latitude":"53.84N","longitude":"34.09E"}
{"date":"2010-11-01","average_temperature":"21.048","city":"Buga","latitude":"4.02N","longitude":"76.34W"}
{"date":"2012-04-01","average_temperature":"20.518","city":"Bukavu","latitude":"2.41S","longitude":"28.13E"}
{"date":"2013-05-01","average_temperature":"17.607000000000006","city":"Bulawayo","latitude":"20.09S","longitude":"29.00E"}
{"date":"2010-01-01","average_temperature":"13.365","city":"Burewala","latitude":"29.74N","longitude":"72.00E"}
{"date":"2013-02-01","average_temperature":"6.593999999999999","city":"Burgas","latitude":"42.59N","longitude":"28.36E"}
{"date":"2010-11-01","average_temperature":"12.21","city":"Bursa","latitude":"39.38N","longitude":"29.13E"}
{"date":"2011-12-01","average_temperature":"3.87","city":"Bursa","latitude":"39.38N","longitude":"29.13E"}
{"date":"2011-03-01","average_temperature":"2.549","city":"Buzau","latitude":"45.81N","longitude":"26.54E"}
{"date":"2010-05-01","average_temperature":"27.111","city":"Cúa","latitude":"10.45N","longitude":"66.27W"}
{"date":"2012-10-01","average_temperature":"27.487","city":"Cadiz","latitude":"10.45N","longitude":"123.55E"}
{"date":"2012-07-01","average_temperature":"26.99","city":"Cagua","latitude":"10.45N","longitude":"67.91W"}
{"date":"2011-01-01","average_temperature":"24.963","city":"Cainta","latitude":"15.27N","longitude":"120.83E"}
{"date":"2013-01-01","average_temperature":"27.997","city":"Calabozo","latitude":"8.84N","longitude":"67.30W"}
{"date":"2013-09-01","average_temperature":"27.785999999999998","city":"Cape Coral","latitude":"26.52N","longitude":"82.39W"}
{"date":"2013-01-01","average_temperature":"26.068","city":"Carúpano","latitude":"10.45N","longitude":"63.00W"}
{"date":"2012-10-01","average_temperature":"22.419","city":"Carapicuíba","latitude":"23.31S","longitude":"46.31W"}
{"date":"2010-12-01","average_temperature":"8.548","city":"Carrollton","latitude":"32.95N","longitude":"96.70W"}
{"date":"2010-03-01","average_temperature":"28.541999999999998","city":"Caucaia","latitude":"4.02S","longitude":"39.38W"}
{"date":"2010-10-01","average_temperature":"26.883000000000006","city":"Cavite","latitude":"15.27N","longitude":"120.83E"}
{"date":"2010-06-01","average_temperature":"19.589","city":"Chalco","latitude":"20.09N","longitude":"98.96W"}
{"date":"2011-11-01","average_temperature":"-0.2370000000000001","city":"Changji","latitude":"44.20N","longitude":"87.20E"}
{"date":"2010-12-01","average_temperature":"14.654000000000002","city":"Chaozhou","latitude":"23.31N","longitude":"116.21E"}
{"date":"2010-11-01","average_temperature":"23.98","city":"Chas","latitude":"23.31N","longitude":"86.50E"}
{"date":"2012-07-01","average_temperature":"16.487000000000002","city":"Chelmsford","latitude":"52.24N","longitude":"0.00W"}
{"date":"2010-11-01","average_temperature":"6.9510000000000005","city":"Chengdu","latitude":"31.35N","longitude":"103.66E"}
{"date":"2013-09-01","city":"Chenzhou","latitude":"26.52N","longitude":"112.84E"}
{"date":"2011-06-01","average_temperature":"19.708","city":"Chernihiv","latitude":"52.24N","longitude":"31.53E"}
{"date":"2011-11-01","average_temperature":"22.106","city":"Chhapra","latitude":"26.52N","longitude":"84.18E"}
{"date":"2013-05-01","average_temperature":"35.555","city":"Chhatarpur","latitude":"24.92N","longitude":"79.80E"}
{"date":"2011-06-01","average_temperature":"25.644","city":"Chitradurga","latitude":"13.66N","longitude":"76.79E"}
{"date":"2013-05-01","average_temperature":"9.501","city":"Christchurch","latitude":"44.20S","longitude":"172.17E"}
{"date":"2013-07-01","average_temperature":"28.026","city":"Chuncheng","latitude":"21.70N","longitude":"111.63E"}
{"date":"2010-09-01","average_temperature":"25.936","city":"Cibadak","latitude":"7.23S","longitude":"106.22E"}
{"date":"2013-07-01","average_temperature":"24.891","city":"Cicalengka","latitude":"7.23S","longitude":"107.84E"}
{"date":"2013-07-01","average_temperature":"26.858","city":"Cikarang","latitude":"5.63S","longitude":"106.55E"}
{"date":"2013-02-01","average_temperature":"27.34","city":"Cikupa","latitude":"5.63S","longitude":"106.55E"}
{"date":"2012-10-01","average_temperature":"27.316999999999997","city":"Ciputat","latitude":"5.63S","longitude":"106.55E"}
{"date":"2012-05-01","average_temperature":"25.945","city":"Cirebon","latitude":"7.23S","longitude":"107.84E"}
{"date":"2013-02-01","average_temperature":"26.706999999999997","city":"Ciudad Bolívar","latitude":"8.84N","longitude":"64.05W"}
{"date":"2010-06-01","average_temperature":"21.936","city":"Cleveland","latitude":"40.99N","longitude":"80.95W"}
{"date":"2010-12-01","average_temperature":"-2.423","city":"Cologne","latitude":"50.63N","longitude":"6.34E"}
{"date":"2011-05-01","average_temperature":"14.637","city":"Cologne","latitude":"50.63N","longitude":"6.34E"}
{"date":"2012-04-01","average_temperature":"18.718","city":"Colombo","latitude":"24.92S","longitude":"49.66W"}
{"date":"2011-12-01","average_temperature":"-3.0610000000000004","city":"Colorado Springs","latitude":"39.38N","longitude":"104.05W"}
{"date":"2012-03-01","average_temperature":"15.935","city":"Comodoro Rivadavia","latitude":"45.81S","longitude":"68.08W"}
{"date":"2010-09-01","average_temperature":"16.465","city":"Concordia","latitude":"31.35S","longitude":"58.43W"}
{"date":"2012-04-01","average_temperature":"12.129000000000001","city":"Constanta","latitude":"44.20N","longitude":"29.07E"}
{"date":"2011-11-01","average_temperature":"13.125","city":"Copiapo","latitude":"28.13S","longitude":"70.00W"}
{"date":"2010-12-01","average_temperature":"26.979000000000006","city":"Coro","latitude":"12.05N","longitude":"69.04W"}
{"date":"2012-05-01","average_temperature":"18.903","city":"Coronel Fabriciano","latitude":"20.09S","longitude":"42.65W"}
{"date":"2011-10-01","average_temperature":"23.465","city":"Corpus Christi","latitude":"28.13N","longitude":"97.27W"}
{"date":"2012-01-01","average_temperature":"5.2139999999999995","city":"Coventry","latitude":"52.24N","longitude":"2.63W"}
{"date":"2012-04-01","average_temperature":"7.875999999999999","city":"Crawley","latitude":"50.63N","longitude":"1.27W"}
{"date":"2010-06-01","average_temperature":"16.759999999999998","city":"Cubatão","latitude":"23.31S","longitude":"46.31W"}
{"date":"2011-12-01","average_temperature":"19.735","city":"Culiacán","latitude":"24.92N","longitude":"108.18W"}
{"date":"2011-10-01","average_temperature":"13.146","city":"Curico","latitude":"34.56S","longitude":"72.00W"}
{"date":"2012-04-01","average_temperature":"27.334","city":"Da Nang","latitude":"15.27N","longitude":"107.50E"}
{"date":"2010-01-01","average_temperature":"14.136","city":"Daliang","latitude":"23.31N","longitude":"112.72E"}
{"date":"2012-09-01","average_temperature":"26.316999999999997","city":"Davao","latitude":"7.23N","longitude":"125.68E"}
{"date":"2010-12-01","average_temperature":"18.435","city":"Debre Zeyit","latitude":"8.84N","longitude":"39.73E"}
{"date":"2010-08-01","average_temperature":"22.173000000000002","city":"Dehui","latitude":"44.20N","longitude":"125.22E"}
{"date":"2010-05-01","average_temperature":"27.476999999999997","city":"Denpasar","latitude":"8.84S","longitude":"115.95E"}
{"date":"2011-12-01","average_temperature":"7.796999999999999","city":"Denton","latitude":"32.95N","longitude":"96.70W"}
{"date":"2012-08-01","average_temperature":"29.728","city":"Deoria","latitude":"26.52N","longitude":"84.18E"}
{"date":"2013-05-01","average_temperature":"32.308","city":"Dera Ghazi Khan","latitude":"29.74N","longitude":"70.15E"}
{"date":"2011-08-01","average_temperature":"22.964000000000002","city":"Derbent","latitude":"42.59N","longitude":"48.00E"}
{"date":"2011-11-01","average_temperature":"7.112","city":"Detroit","latitude":"42.59N","longitude":"82.91W"}
{"date":"2011-04-01","average_temperature":"29.999","city":"Dewas","latitude":"23.31N","longitude":"76.02E"}
{"date":"2012-12-01","average_temperature":"2.506","city":"Deyang","latitude":"31.35N","longitude":"103.66E"}
{"date":"2013-09-01","city":"Dhanbad","latitude":"23.31N","longitude":"86.50E"}
{"date":"2013-02-01","average_temperature":"-16.042","city":"Didao","latitude":"45.81N","longitude":"130.38E"}
{"date":"2010-12-01","average_temperature":"26.21","city":"Digos","latitude":"7.23N","longitude":"125.68E"}
{"date":"2012-10-01","average_temperature":"26.499","city":"Digos","latitude":"7.23N","longitude":"125.68E"}
{"date":"2013-07-01","average_temperature":"20.506999999999998","city":"Dos Quebradas","latitude":"5.63N","longitude":"75.87W"}
{"date":"2013-02-01","average_temperature":"-0.6839999999999999","city":"Dresden","latitude":"50.63N","longitude":"13.94E"}
{"date":"2013-01-01","average_temperature":"1.8030000000000002","city":"Dundee","latitude":"57.05N","longitude":"4.43W"}
{"date":"2012-08-01","average_temperature":"19.598","city":"Dunhua","latitude":"42.59N","longitude":"128.73E"}
{"date":"2011-11-01","average_temperature":"22.294","city":"Duque De Caxias","latitude":"23.31S","longitude":"42.82W"}
{"date":"2011-08-01","average_temperature":"22.13","city":"Edison","latitude":"40.99N","longitude":"74.56W"}
{"date":"2010-05-01","average_temperature":"27.086","city":"El Progreso","latitude":"15.27N","longitude":"87.50W"}
{"date":"2013-03-01","average_temperature":"27.787","city":"El Tigre","latitude":"8.84N","longitude":"64.05W"}
{"date":"2011-03-01","average_temperature":"22.693","city":"Eldoret","latitude":"0.80N","longitude":"34.55E"}
{"date":"2012-03-01","average_temperature":"30.886","city":"Enugu","latitude":"7.23N","longitude":"7.30E"}
{"date":"2010-01-01","average_temperature":"-4.851","city":"Erfurt","latitude":"50.63N","longitude":"11.41E"}
{"date":"2013-09-01","city":"Erfurt","latitude":"50.63N","longitude":"11.41E"}
{"date":"2010-11-01","average_temperature":"15.889000000000001","city":"Escondido","latitude":"32.95N","longitude":"117.77W"}
{"date":"2010-01-01","average_temperature":"6.0440000000000005","city":"Eslamshahr","latitude":"36.17N","longitude":"51.71E"}
{"date":"2011-06-01","average_temperature":"18.677","city":"Esmeraldas","latitude":"20.09S","longitude":"44.36W"}
{"date":"2013-05-01","average_temperature":"11.735","city":"Exeter","latitude":"50.63N","longitude":"3.80W"}
{"date":"2013-01-01","average_temperature":"8.32","city":"Fairfield","latitude":"37.78N","longitude":"122.03W"}
{"date":"2012-02-01","average_temperature":"14.18","city":"Faisalabad","latitude":"31.35N","longitude":"73.51E"}
{"date":"2011-08-01","average_temperature":"28.479","city":"Faridpur","latitude":"23.31N","longitude":"90.00E"}
{"date":"2013-02-01","average_temperature":"7.279","city":"Fayetteville","latitude":"34.56N","longitude":"79.78W"}
{"date":"2010-09-01","average_temperature":"28.031999999999996","city":"Fengshan","latitude":"23.31N","longitude":"119.71E"}
{"date":"2010-09-01","average_temperature":"21.7","city":"Fernando De La Mora","latitude":"24.92S","longitude":"56.75W"}
{"date":"2010-08-01","average_temperature":"21.898000000000003","city":"Ferrara","latitude":"44.20N","longitude":"11.18E"}
{"date":"2011-12-01","average_temperature":"11.017000000000001","city":"Fez","latitude":"34.56N","longitude":"5.84W"}
{"date":"2010-06-01","average_temperature":"24.930999999999997","city":"Fontana","latitude":"34.56N","longitude":"116.76W"}
{"date":"2011-11-01","average_temperature":"28.584","city":"Fortaleza","latitude":"4.02S","longitude":"40.98W"}
{"date":"2010-10-01","average_temperature":"21.386","city":"Foz Do Iguaçu","latitude":"24.92S","longitude":"54.98W"}
{"date":"2012-09-01","average_temperature":"20.464000000000002","city":"Francisco Morato","latitude":"23.31S","longitude":"46.31W"}
{"date":"2011-03-01","average_temperature":"5.8889999999999985","city":"Frankfurt","latitude":"50.63N","longitude":"8.87E"}
{"date":"2013-08-01","average_temperature":"19.730999999999998","city":"Fremont","latitude":"37.78N","longitude":"122.03W"}
{"date":"2010-03-01","average_temperature":"6.6720000000000015","city":"Fuenlabrada","latitude":"40.99N","longitude":"4.26W"}
{"date":"2012-12-01","average_temperature":"2.9609999999999994","city":"Fukaya","latitude":"36.17N","longitude":"139.23E"}
{"date":"2012-05-01","average_temperature":"21.504","city":"Fuling","latitude":"29.74N","longitude":"107.08E"}
{"date":"2011-11-01","average_temperature":"19.733","city":"Fuzhou","latitude":"26.52N","longitude":"120.00E"}
{"date":"2013-02-01","average_temperature":"25.399","city":"Gaborone","latitude":"24.92S","longitude":"26.60E"}
{"date":"2013-06-01","average_temperature":"13.213","city":"Gaborone","latitude":"24.92S","longitude":"26.60E"}
{"date":"2011-10-01","average_temperature":"25.778000000000002","city":"Gagnoa","latitude":"5.63N","longitude":"6.46W"}
{"date":"2012-01-01","average_temperature":"23.717","city":"Gandajika","latitude":"7.23S","longitude":"23.51E"}
{"date":"2012-11-01","average_temperature":"21.598000000000003","city":"Gangapur","latitude":"26.52N","longitude":"77.01E"}
{"date":"2011-02-01","average_temperature":"7.0360000000000005","city":"Gardez","latitude":"32.95N","longitude":"69.89E"}
{"date":"2011-05-01","average_temperature":"28.217","city":"Garza García","latitude":"26.52N","longitude":"100.30W"}
{"date":"2013-04-01","average_temperature":"25.481","city":"Gemena","latitude":"4.02N","longitude":"20.09E"}
{"date":"2011-09-01","average_temperature":"16.726","city":"Gent","latitude":"50.63N","longitude":"3.80E"}
{"date":"2010-10-01","average_temperature":"26.581","city":"Ghazipur","latitude":"24.92N","longitude":"83.35E"}
{"date":"2012-11-01","average_temperature":"20.615","city":"Ghazipur","latitude":"24.92N","longitude":"83.35E"}
{"date":"2013-03-01","average_temperature":"20.936999999999998","city":"Girardot","latitude":"4.02N","longitude":"74.73W"}
{"date":"2011-12-01","average_temperature":"14.591","city":"Gizeh","latitude":"29.74N","longitude":"31.38E"}
{"date":"2011-03-01","average_temperature":"4.12","city":"Gliwice","latitude":"50.63N","longitude":"19.01E"}
{"date":"2010-05-01","average_temperature":"11.279000000000002","city":"Gloucester","latitude":"52.24N","longitude":"2.63W"}
{"date":"2010-04-01","average_temperature":"33.094","city":"Gombe","latitude":"10.45N","longitude":"10.64E"}
{"date":"2013-05-01","average_temperature":"21.645","city":"Gorgan","latitude":"36.17N","longitude":"53.70E"}
{"date":"2013-02-01","average_temperature":"9.005","city":"Granada","latitude":"37.78N","longitude":"4.07W"}
{"date":"2010-02-01","average_temperature":"4.924","city":"Grand Prairie","latitude":"32.95N","longitude":"96.70W"}
{"date":"2012-09-01","average_temperature":"15.665","city":"Green Bay","latitude":"44.20N","longitude":"87.20W"}
{"date":"2010-03-01","average_temperature":"4.498","city":"Grenoble","latitude":"45.81N","longitude":"5.77E"}
{"date":"2011-06-01","average_temperature":"26.343000000000004","city":"Grogol","latitude":"7.23S","longitude":"111.08E"}
{"date":"2013-02-01","average_temperature":"23.564","city":"Guarujá","latitude":"23.31S","longitude":"46.31W"}
{"date":"2010-09-01","average_temperature":"29.781","city":"Gudalur","latitude":"12.05N","longitude":"80.55E"}
{"date":"2013-04-01","average_temperature":"30.154","city":"Gudalur","latitude":"12.05N","longitude":"80.55E"}
{"date":"2013-04-01","average_temperature":"18.582","city":"Guilin","latitude":"24.92N","longitude":"109.95E"}
{"date":"2013-07-01","average_temperature":"23.980999999999998","city":"Gulu","latitude":"2.41N","longitude":"32.95E"}
{"date":"2010-10-01","average_temperature":"27.519","city":"Guntur","latitude":"16.87N","longitude":"80.37E"}
{"date":"2013-08-01","average_temperature":"22.355","city":"Gyor","latitude":"47.42N","longitude":"17.76E"}
{"date":"2011-10-01","average_temperature":"21.729","city":"Ha Noi","latitude":"21.70N","longitude":"106.44E"}
{"date":"2013-07-01","average_temperature":"27.325","city":"Ha Noi","latitude":"21.70N","longitude":"106.44E"}
{"date":"2010-12-01","average_temperature":"2.222","city":"Hachinohe","latitude":"40.99N","longitude":"140.59E"}
{"date":"2012-09-01","average_temperature":"27.357","city":"Hadejia","latitude":"12.05N","longitude":"9.86E"}
{"date":"2010-06-01","average_temperature":"25.56","city":"Haifa","latitude":"32.95N","longitude":"35.43E"}
{"date":"2010-02-01","average_temperature":"-19.685","city":"Hailun","latitude":"47.42N","longitude":"126.71E"}
{"date":"2011-11-01","average_temperature":"7.5950000000000015","city":"Hakodate","latitude":"40.99N","longitude":"140.59E"}
{"date":"2013-04-01","average_temperature":"10.941","city":"Hamadan","latitude":"34.56N","longitude":"48.65E"}
{"date":"2010-12-01","average_temperature":"-3.241","city":"Hamilton","latitude":"42.59N","longitude":"80.73W"}
{"date":"2012-01-01","average_temperature":"4.188","city":"Handa","latitude":"34.56N","longitude":"136.22E"}
{"date":"2010-07-01","average_temperature":"31.465","city":"Hapur","latitude":"28.13N","longitude":"77.27E"}
{"date":"2012-03-01","average_temperature":"21.565","city":"Haridwar","latitude":"29.74N","longitude":"77.54E"}
{"date":"2010-04-01","average_temperature":"9.806","city":"Hebi","latitude":"36.17N","longitude":"113.37E"}
{"date":"2012-02-01","average_temperature":"-2.055","city":"Hebi","latitude":"36.17N","longitude":"113.37E"}
{"date":"2013-03-01","average_temperature":"11.646","city":"Hefei","latitude":"31.35N","longitude":"116.86E"}
{"date":"2010-10-01","average_temperature":"5.5520000000000005","city":"Helsinki","latitude":"60.27N","longitude":"25.95E"}
{"date":"2011-08-01","average_temperature":"30.63","city":"Henderson","latitude":"36.17N","longitude":"115.36W"}
{"date":"2013-08-01","average_temperature":"28.831","city":"Henderson","latitude":"36.17N","longitude":"115.36W"}
{"date":"2010-05-01","average_temperature":"22.074","city":"Heze","latitude":"34.56N","longitude":"114.81E"}
{"date":"2012-05-01","average_temperature":"18.076","city":"Himeji","latitude":"34.56N","longitude":"134.27E"}
{"date":"2013-08-01","average_temperature":"28.529","city":"Himeji","latitude":"34.56N","longitude":"134.27E"}
{"date":"2012-04-01","average_temperature":"13.708","city":"Hirakata","latitude":"34.56N","longitude":"136.22E"}
{"date":"2012-10-01","average_temperature":"25.57","city":"Hisar","latitude":"29.74N","longitude":"75.69E"}
{"date":"2012-04-01","average_temperature":"12.305","city":"Hitachi","latitude":"36.17N","longitude":"141.22E"}
{"date":"2012-07-01","average_temperature":"29.977","city":"Honghu","latitude":"29.74N","longitude":"112.62E"}
{"date":"2010-06-01","average_temperature":"23.72","city":"Houma","latitude":"36.17N","longitude":"111.38E"}
{"date":"2012-03-01","average_temperature":"19.328","city":"Hsintien","latitude":"24.92N","longitude":"122.36E"}
{"date":"2013-02-01","average_temperature":"-14.780999999999999","city":"Huadian","latitude":"42.59N","longitude":"126.55E"}
{"date":"2010-01-01","average_temperature":"0.8590000000000001","city":"Huddersfield","latitude":"53.84N","longitude":"1.36W"}
{"date":"2010-11-01","average_temperature":"23.15","city":"Hue","latitude":"16.87N","longitude":"107.16E"}
{"date":"2011-07-01","average_temperature":"26.869","city":"Huelva","latitude":"37.78N","longitude":"6.10W"}
{"date":"2012-10-01","average_temperature":"23.761","city":"Huizhou","latitude":"23.31N","longitude":"114.47E"}
{"date":"2010-01-01","average_temperature":"13.993","city":"Humen","latitude":"23.31N","longitude":"114.47E"}
{"date":"2013-01-01","average_temperature":"7.215","city":"Huntsville","latitude":"34.56N","longitude":"85.62W"}
{"date":"2010-02-01","average_temperature":"6.8420000000000005","city":"Ichinomiya","latitude":"34.56N","longitude":"136.22E"}
{"date":"2011-01-01","average_temperature":"19.098000000000006","city":"Iguala","latitude":"18.48N","longitude":"99.72W"}
{"date":"2012-01-01","average_temperature":"27.704","city":"Ikirun","latitude":"7.23N","longitude":"4.05E"}
{"date":"2010-04-01","average_temperature":"29.326999999999998","city":"Ila","latitude":"7.23N","longitude":"5.68E"}
{"date":"2013-07-01","average_temperature":"25.324","city":"Ilawe","latitude":"7.23N","longitude":"5.68E"}
{"date":"2012-12-01","average_temperature":"24.961","city":"Ilebo","latitude":"4.02S","longitude":"20.09E"}
{"date":"2012-10-01","average_temperature":"26.081","city":"Ilesha","latitude":"8.84N","longitude":"4.05E"}
{"date":"2011-09-01","average_temperature":"22.761999999999997","city":"Ilhéus","latitude":"15.27S","longitude":"39.17W"}
{"date":"2012-12-01","average_temperature":"25.491","city":"Indaiatuba","latitude":"23.31S","longitude":"48.06W"}
{"date":"2013-05-01","average_temperature":"18.813","city":"Indianapolis","latitude":"39.38N","longitude":"85.32W"}
{"date":"2012-04-01","average_temperature":"27.536","city":"Indramayu","latitude":"5.63S","longitude":"108.16E"}
{"date":"2012-07-01","average_temperature":"16.487000000000002","city":"Ipswich","latitude":"52.24N","longitude":"0.00W"}
{"date":"2011-03-01","average_temperature":"14.239","city":"Iráklion","latitude":"34.56N","longitude":"25.30E"}
{"date":"2013-02-01","average_temperature":"17.357000000000006","city":"Iranshahr","latitude":"26.52N","longitude":"60.90E"}
{"date":"2012-06-01","average_temperature":"32.476","city":"Irbil","latitude":"36.17N","longitude":"43.76E"}
{"date":"2011-05-01","average_temperature":"22.217","city":"Irving","latitude":"32.95N","longitude":"96.70W"}
{"date":"2013-08-01","average_temperature":"30.255","city":"Irving","latitude":"32.95N","longitude":"96.70W"}
{"date":"2011-11-01","average_temperature":"27.399","city":"Iseyin","latitude":"7.23N","longitude":"4.05E"}
{"date":"2011-12-01","average_temperature":"16.329","city":"Ismailia","latitude":"31.35N","longitude":"32.04E"}
{"date":"2012-12-01","average_temperature":"26.83","city":"Itabuna","latitude":"15.27S","longitude":"39.17W"}
{"date":"2013-06-01","average_temperature":"20.559","city":"Itajaí","latitude":"26.52S","longitude":"48.36W"}
{"date":"2013-05-01","average_temperature":"18.317","city":"Itaquaquecetuba","latitude":"23.31S","longitude":"46.31W"}
{"date":"2011-07-01","average_temperature":"24.9","city":"Iwaki","latitude":"37.78N","longitude":"140.34E"}
{"date":"2013-08-01","average_temperature":"17.881999999999994","city":"Ixtapaluca","latitude":"20.09N","longitude":"98.96W"}
{"date":"2010-10-01","average_temperature":"25.775","city":"Jaboatão","latitude":"8.84S","longitude":"34.86W"}
{"date":"2010-05-01","average_temperature":"28.49","city":"Jakarta","latitude":"5.63S","longitude":"106.55E"}
{"date":"2012-10-01","average_temperature":"26.723000000000003","city":"Jamalpur","latitude":"24.92N","longitude":"86.90E"}
{"date":"2012-05-01","average_temperature":"30.821","city":"Jamnagar","latitude":"21.70N","longitude":"70.10E"}
{"date":"2012-11-01","average_temperature":"21.811999999999998","city":"Jandira","latitude":"23.31S","longitude":"46.31W"}
{"date":"2010-09-01","average_temperature":"27.554","city":"Jetpur","latitude":"21.70N","longitude":"70.10E"}
{"date":"2013-06-01","average_temperature":"35.556","city":"Jhang","latitude":"31.35N","longitude":"71.62E"}
{"date":"2010-03-01","average_temperature":"18.631","city":"Jiangmen","latitude":"23.31N","longitude":"112.72E"}
{"date":"2010-06-01","average_temperature":"23.131999999999998","city":"Jiaozhou","latitude":"36.17N","longitude":"119.34E"}
{"date":"2010-11-01","average_temperature":"8.148","city":"Jiaozhou","latitude":"36.17N","longitude":"119.34E"}
{"date":"2011-07-01","average_temperature":"33.434","city":"Jiddah","latitude":"21.70N","longitude":"38.94E"}
{"date":"2011-12-01","average_temperature":"19.542","city":"Jimma","latitude":"7.23N","longitude":"36.49E"}
{"date":"2012-05-01","average_temperature":"21.185","city":"Jimma","latitude":"7.23N","longitude":"36.49E"}
{"date":"2011-07-01","average_temperature":"34.275","city":"Jiroft","latitude":"28.13N","longitude":"57.27E"}
{"date":"2012-08-01","average_temperature":"20.58","city":"Jishu","latitude":"44.20N","longitude":"127.45E"}
{"date":"2013-07-01","average_temperature":"24.846","city":"João Pessoa","latitude":"7.23S","longitude":"34.86W"}
{"date":"2011-12-01","average_temperature":"27.438000000000002","city":"Jombang","latitude":"7.23S","longitude":"112.70E"}
{"date":"2010-12-01","average_temperature":"22.72","city":"Jos","latitude":"10.45N","longitude":"9.00E"}
{"date":"2012-09-01","average_temperature":"24.467","city":"Kadoma","latitude":"34.56N","longitude":"136.22E"}
{"date":"2013-02-01","average_temperature":"0.267","city":"Kakamigahara","latitude":"36.17N","longitude":"137.24E"}
{"date":"2012-01-01","average_temperature":"18.856","city":"Kalol","latitude":"23.31N","longitude":"72.52E"}
{"date":"2010-08-01","average_temperature":"22.519","city":"Kaluga","latitude":"53.84N","longitude":"36.82E"}
{"date":"2012-08-01","average_temperature":"22.256","city":"Kamyshin","latitude":"50.63N","longitude":"44.37E"}
{"date":"2012-10-01","average_temperature":"8.863999999999999","city":"Kamyshin","latitude":"50.63N","longitude":"44.37E"}
{"date":"2010-10-01","average_temperature":"26.462","city":"Kankan","latitude":"10.45N","longitude":"9.00W"}
{"date":"2012-08-01","average_temperature":"29.183000000000003","city":"Kanpur","latitude":"26.52N","longitude":"80.60E"}
{"date":"2010-02-01","average_temperature":"-23.835","city":"Kansk","latitude":"55.45N","longitude":"96.38E"}
{"date":"2011-08-01","average_temperature":"27.729000000000006","city":"Kaolack","latitude":"13.66N","longitude":"15.69W"}
{"date":"2010-08-01","average_temperature":"27.159000000000002","city":"Kapra","latitude":"16.87N","longitude":"78.70E"}
{"date":"2012-12-01","average_temperature":"20.721","city":"Karachi","latitude":"24.92N","longitude":"67.39E"}
{"date":"2010-03-01","average_temperature":"27.29","city":"Karang Tengah","latitude":"7.23S","longitude":"106.22E"}
{"date":"2012-04-01","average_temperature":"32.879","city":"Karimnagar","latitude":"18.48N","longitude":"79.44E"}
{"date":"2013-06-01","average_temperature":"30.51","city":"Karimnagar","latitude":"18.48N","longitude":"79.44E"}
{"date":"2011-05-01","average_temperature":"18.11","city":"Kashihara","latitude":"34.56N","longitude":"136.22E"}
{"date":"2010-04-01","average_temperature":"9.183","city":"Kassel","latitude":"50.63N","longitude":"8.87E"}
{"date":"2011-04-01","average_temperature":"16.241999999999994","city":"Kathmandu","latitude":"28.13N","longitude":"84.55E"}
{"date":"2010-07-01","average_temperature":"21.771","city":"Kaunas","latitude":"55.45N","longitude":"22.68E"}
{"date":"2013-02-01","average_temperature":"4.9110000000000005","city":"Kawanishi","latitude":"34.56N","longitude":"136.22E"}
{"date":"2010-05-01","average_temperature":"27.699","city":"Kediri","latitude":"7.23S","longitude":"112.70E"}
{"date":"2010-04-01","average_temperature":"27.695","city":"Kemang","latitude":"7.23S","longitude":"106.22E"}
{"date":"2012-08-01","average_temperature":"26.156","city":"Kemang","latitude":"7.23S","longitude":"106.22E"}
{"date":"2010-09-01","average_temperature":"31.290000000000006","city":"Khanpur","latitude":"28.13N","longitude":"70.00E"}
{"date":"2010-05-01","average_temperature":"17.352","city":"Kherson","latitude":"47.42N","longitude":"31.97E"}
{"date":"2013-05-01","average_temperature":"27.658","city":"Khuzdar","latitude":"28.13N","longitude":"66.36E"}
{"date":"2010-09-01","average_temperature":"14.604000000000001","city":"Kiev","latitude":"50.63N","longitude":"31.69E"}
{"date":"2010-09-01","average_temperature":"20.529","city":"Kigali","latitude":"2.41S","longitude":"29.73E"}
{"date":"2012-02-01","average_temperature":"-2.196","city":"Kingston","latitude":"44.20N","longitude":"76.02W"}
{"date":"2011-04-01","average_temperature":"24.959","city":"Kinshasa","latitude":"4.02S","longitude":"15.27E"}
{"date":"2013-05-01","average_temperature":"11.577","city":"Kirov","latitude":"58.66N","longitude":"49.23E"}
{"date":"2011-11-01","average_temperature":"24.79","city":"Kisangani","latitude":"0.80N","longitude":"24.91E"}
{"date":"2013-08-01","average_temperature":"25.114","city":"Kisaran","latitude":"2.41N","longitude":"98.84E"}
{"date":"2011-08-01","average_temperature":"26.789","city":"Kisarazu","latitude":"34.56N","longitude":"140.11E"}
{"date":"2010-09-01","average_temperature":"25.626","city":"Kishi","latitude":"8.84N","longitude":"4.05E"}
{"date":"2011-03-01","average_temperature":"1.337","city":"Kislovodsk","latitude":"44.20N","longitude":"42.48E"}
{"date":"2011-11-01","average_temperature":"27.5","city":"Kochi","latitude":"10.45N","longitude":"76.09E"}
{"date":"2013-05-01","average_temperature":"16.756999999999998","city":"Kokubunji","latitude":"36.17N","longitude":"139.23E"}
{"date":"2010-09-01","average_temperature":"25.668000000000003","city":"Kolhapur","latitude":"16.87N","longitude":"73.67E"}
{"date":"2012-11-01","average_temperature":"25.271","city":"Kolhapur","latitude":"16.87N","longitude":"73.67E"}
{"date":"2012-06-01","average_temperature":"21.1","city":"Konya","latitude":"37.78N","longitude":"32.54E"}
{"date":"2012-03-01","average_temperature":"3.8","city":"Koriyama","latitude":"37.78N","longitude":"140.34E"}
{"date":"2010-03-01","average_temperature":"29.154","city":"Kota","latitude":"24.92N","longitude":"76.26E"}
{"date":"2013-04-01","average_temperature":"27.263","city":"Kota Bahru","latitude":"5.63N","longitude":"101.70E"}
{"date":"2011-08-01","average_temperature":"25.184","city":"Kpalimé","latitude":"7.23N","longitude":"0.81E"}
{"date":"2010-05-01","average_temperature":"29.351999999999997","city":"Kuala Terengganu","latitude":"5.63N","longitude":"103.32E"}
{"date":"2010-07-01","average_temperature":"36.789","city":"Kuhdasht","latitude":"32.95N","longitude":"46.91E"}
{"date":"2012-08-01","average_temperature":"25.388","city":"Kumasi","latitude":"7.23N","longitude":"0.81W"}
{"date":"2012-09-01","average_temperature":"26.169","city":"Kumasi","latitude":"7.23N","longitude":"0.81W"}
{"date":"2010-02-01","average_temperature":"27.53","city":"Kumbakonam","latitude":"10.45N","longitude":"79.36E"}
{"date":"2010-04-01","average_temperature":"28.088","city":"Kupang","latitude":"10.45S","longitude":"123.55E"}
{"date":"2010-06-01","average_temperature":"32.81","city":"Kusti","latitude":"13.66N","longitude":"32.20E"}
{"date":"2012-03-01","average_temperature":"29.158","city":"Kusti","latitude":"13.66N","longitude":"32.20E"}
{"date":"2011-11-01","average_temperature":"-16.903","city":"Kyzyl","latitude":"52.24N","longitude":"94.60E"}
{"date":"2011-06-01","average_temperature":"18.901","city":"López Mateos","latitude":"20.09N","longitude":"98.96W"}
{"date":"2010-12-01","average_temperature":"21.58","city":"La Paz","latitude":"24.92N","longitude":"109.95W"}
{"date":"2012-11-01","average_temperature":"27.035999999999998","city":"La Romana","latitude":"18.48N","longitude":"69.30W"}
{"date":"2010-01-01","average_temperature":"11.81","city":"Lahore","latitude":"31.35N","longitude":"73.51E"}
{"date":"2012-10-01","average_temperature":"24.271","city":"Lakhimpur","latitude":"28.13N","longitude":"80.91E"}
{"date":"2012-06-01","average_temperature":"17.441","city":"Lanzhou","latitude":"36.17N","longitude":"103.43E"}
{"date":"2012-03-01","average_temperature":"21.131","city":"Laredo","latitude":"28.13N","longitude":"99.09W"}
{"date":"2010-10-01","average_temperature":"23.015","city":"Las Palmas","latitude":"28.13N","longitude":"15.45W"}
{"date":"2011-12-01","average_temperature":"25.45","city":"Las Tunas","latitude":"21.70N","longitude":"77.02W"}
{"date":"2011-08-01","average_temperature":"26.186","city":"Latur","latitude":"18.48N","longitude":"76.06E"}
{"date":"2013-01-01","average_temperature":"4.633","city":"León","latitude":"42.59N","longitude":"6.55W"}
{"date":"2011-08-01","average_temperature":"27.577","city":"Legaspi","latitude":"13.66N","longitude":"123.03E"}
{"date":"2010-07-01","average_temperature":"25.267","city":"Lembang","latitude":"7.23S","longitude":"107.84E"}
{"date":"2013-02-01","average_temperature":"-14.465","city":"Leninsk Kuznetskiy","latitude":"53.84N","longitude":"85.91E"}
{"date":"2012-11-01","average_temperature":"6.968","city":"Lille","latitude":"50.63N","longitude":"3.80E"}
{"date":"2012-05-01","average_temperature":"19.980999999999998","city":"Linshui","latitude":"36.17N","longitude":"113.37E"}
{"date":"2011-02-01","average_temperature":"27.319000000000003","city":"Lira","latitude":"2.41N","longitude":"32.95E"}
{"date":"2011-07-01","average_temperature":"22.590999999999998","city":"Lisbon","latitude":"39.38N","longitude":"8.32W"}
{"date":"2012-12-01","average_temperature":"14.702","city":"Liusha","latitude":"23.31N","longitude":"116.21E"}
{"date":"2013-06-01","average_temperature":"18.095","city":"London","latitude":"42.59N","longitude":"80.73W"}
{"date":"2010-01-01","average_temperature":"-19.873","city":"Longjiang","latitude":"47.42N","longitude":"124.34E"}
{"date":"2011-01-01","average_temperature":"-5.277","city":"Luancheng","latitude":"37.78N","longitude":"113.90E"}
{"date":"2013-03-01","average_temperature":"-0.8280000000000003","city":"Lublin","latitude":"50.63N","longitude":"21.55E"}
{"date":"2013-08-01","average_temperature":"28.659","city":"Luchou","latitude":"24.92N","longitude":"120.59E"}
{"date":"2011-08-01","average_temperature":"29.136000000000006","city":"Luoyang","latitude":"23.31N","longitude":"114.47E"}
{"date":"2010-06-01","average_temperature":"32.789","city":"Luxor","latitude":"26.52N","longitude":"32.24E"}
{"date":"2011-10-01","average_temperature":"25.256","city":"Luxor","latitude":"26.52N","longitude":"32.24E"}
{"date":"2012-07-01","average_temperature":"24.444000000000006","city":"Machida","latitude":"36.17N","longitude":"139.23E"}
{"date":"2013-05-01","average_temperature":"27.125","city":"Madiun","latitude":"7.23S","longitude":"111.08E"}
{"date":"2012-09-01","average_temperature":"28.746","city":"Magangué","latitude":"8.84N","longitude":"75.41W"}
{"date":"2013-09-01","city":"Magangué","latitude":"8.84N","longitude":"75.41W"}
{"date":"2010-04-01","average_temperature":"8.847000000000001","city":"Magdeburg","latitude":"52.24N","longitude":"10.51E"}
{"date":"2012-06-01","average_temperature":"23.448","city":"Makiyivka","latitude":"47.42N","longitude":"39.08E"}
{"date":"2011-09-01","average_temperature":"14.419999999999998","city":"Malmö","latitude":"55.45N","longitude":"14.17E"}
{"date":"2013-01-01","average_temperature":"16.125","city":"Mandsaur","latitude":"24.92N","longitude":"74.48E"}
{"date":"2012-06-01","average_temperature":"26.912000000000006","city":"Mandya","latitude":"12.05N","longitude":"77.26E"}
{"date":"2011-06-01","average_temperature":"28.339000000000002","city":"Manzanillo","latitude":"20.09N","longitude":"76.78W"}
{"date":"2011-09-01","average_temperature":"23.84","city":"Marília","latitude":"21.70S","longitude":"49.33W"}
{"date":"2010-09-01","average_temperature":"27.836","city":"Maracaibo","latitude":"10.45N","longitude":"71.18W"}
{"date":"2013-09-01","city":"Maracanaú","latitude":"4.02S","longitude":"39.38W"}
{"date":"2012-09-01","average_temperature":"19.541","city":"Maragheh","latitude":"37.78N","longitude":"46.78E"}
{"date":"2011-07-01","average_temperature":"28.8","city":"Mardan","latitude":"34.56N","longitude":"72.00E"}
{"date":"2011-02-01","average_temperature":"2.6439999999999997","city":"Marivan","latitude":"36.17N","longitude":"45.75E"}
{"date":"2012-09-01","average_temperature":"24.285","city":"Marrakesh","latitude":"31.35N","longitude":"7.54W"}
{"date":"2012-10-01","average_temperature":"18.338","city":"Marseille","latitude":"42.59N","longitude":"6.55E"}
{"date":"2012-06-01","average_temperature":"23.605999999999998","city":"Mashhad","latitude":"36.17N","longitude":"59.67E"}
{"date":"2011-09-01","average_temperature":"34.005","city":"Masjed E Soleyman","latitude":"31.35N","longitude":"49.01E"}
{"date":"2011-07-01","average_temperature":"25.288","city":"Matsudo","latitude":"36.17N","longitude":"139.23E"}
{"date":"2012-10-01","average_temperature":"27.832","city":"Maymyo","latitude":"21.70N","longitude":"96.06E"}
{"date":"2010-04-01","average_temperature":"20.427000000000003","city":"Mazatlán","latitude":"23.31N","longitude":"105.73W"}
{"date":"2010-03-01","average_temperature":"25.578000000000003","city":"Mbuji Mayi","latitude":"5.63S","longitude":"24.22E"}
{"date":"2010-11-01","average_temperature":"23.515","city":"Mecca","latitude":"21.70N","longitude":"40.67E"}
{"date":"2013-08-01","average_temperature":"27.98","city":"Medan","latitude":"4.02N","longitude":"98.84E"}
{"date":"2012-08-01","average_temperature":"27.94","city":"Meiktila","latitude":"20.09N","longitude":"95.55E"}
{"date":"2013-03-01","average_temperature":"21.71","city":"Meilu","latitude":"21.70N","longitude":"109.90E"}
{"date":"2013-05-01","average_temperature":"27.35","city":"Meilu","latitude":"21.70N","longitude":"109.90E"}
{"date":"2011-01-01","average_temperature":"3.5310000000000006","city":"Memphis","latitude":"34.56N","longitude":"89.51W"}
{"date":"2011-11-01","average_temperature":"13.172","city":"Mersin","latitude":"36.17N","longitude":"33.81E"}
{"date":"2012-01-01","average_temperature":"5.86","city":"Mianyang","latitude":"31.35N","longitude":"105.55E"}
{"date":"2011-05-01","average_temperature":"13.460999999999999","city":"Milan","latitude":"45.81N","longitude":"8.08E"}
{"date":"2013-09-01","city":"Miri","latitude":"4.02N","longitude":"113.30E"}
{"date":"2010-11-01","average_temperature":"9.515","city":"Mitaka","latitude":"36.17N","longitude":"139.23E"}
{"date":"2013-09-01","city":"Montalban","latitude":"15.27N","longitude":"120.83E"}
{"date":"2010-03-01","average_temperature":"21.978","city":"Montevideo","latitude":"34.56S","longitude":"56.43W"}
{"date":"2010-06-01","average_temperature":"17.331","city":"Montreal","latitude":"45.81N","longitude":"72.69W"}
{"date":"2011-12-01","average_temperature":"-4.111000000000001","city":"Montreal","latitude":"45.81N","longitude":"72.69W"}
{"date":"2010-06-01","average_temperature":"18.567999999999998","city":"Moscow","latitude":"55.45N","longitude":"36.85E"}
{"date":"2010-11-01","average_temperature":"23.071","city":"Motihari","latitude":"26.52N","longitude":"84.18E"}
{"date":"2011-06-01","average_temperature":"24.386999999999997","city":"Mwene Ditu","latitude":"7.23S","longitude":"23.51E"}
{"date":"2011-02-01","average_temperature":"27.324","city":"My Tho","latitude":"10.45N","longitude":"105.55E"}
{"date":"2013-05-01","average_temperature":"30.646","city":"Myingyan","latitude":"21.70N","longitude":"96.06E"}
{"date":"2010-06-01","average_temperature":"18.836","city":"Nîmes","latitude":"44.20N","longitude":"4.47E"}
{"date":"2013-06-01","average_temperature":"24.343000000000004","city":"Nacala","latitude":"15.27S","longitude":"40.83E"}
{"date":"2013-08-01","average_temperature":"27.512","city":"Nadiad","latitude":"23.31N","longitude":"72.52E"}
{"date":"2013-03-01","average_temperature":"25.287","city":"Najran","latitude":"16.87N","longitude":"43.53E"}
{"date":"2010-01-01","average_temperature":"-7.178","city":"Nakhodka","latitude":"42.59N","longitude":"133.09E"}
{"date":"2011-10-01","average_temperature":"27.317","city":"Nakhon Pathom","latitude":"13.66N","longitude":"99.91E"}
{"date":"2011-08-01","average_temperature":"17.095000000000002","city":"Nalchik","latitude":"42.59N","longitude":"43.64E"}
{"date":"2010-08-01","average_temperature":"23.477","city":"Namangan","latitude":"40.99N","longitude":"72.43E"}
{"date":"2010-07-01","average_temperature":"21.65","city":"Nampula","latitude":"15.27S","longitude":"39.17E"}
{"date":"2012-04-01","average_temperature":"32.225","city":"Nandyal","latitude":"15.27N","longitude":"79.17E"}
{"date":"2012-10-01","average_temperature":"23.627","city":"Nanning","latitude":"23.31N","longitude":"107.48E"}
{"date":"2011-08-01","average_temperature":"26.768","city":"Nantou","latitude":"23.31N","longitude":"121.46E"}
{"date":"2010-09-01","average_temperature":"19.375","city":"Naperville","latitude":"40.99N","longitude":"87.34W"}
{"date":"2011-05-01","average_temperature":"27.038","city":"Nassau","latitude":"24.92N","longitude":"78.03W"}
{"date":"2012-01-01","average_temperature":"19.180999999999997","city":"Navsari","latitude":"20.09N","longitude":"73.36E"}
{"date":"2012-06-01","average_temperature":"30.489","city":"Nawabganj","latitude":"24.92N","longitude":"88.67E"}
{"date":"2010-05-01","average_temperature":"18.035999999999998","city":"Nazran","latitude":"44.20N","longitude":"44.72E"}
{"date":"2013-09-01","city":"Nelspruit","latitude":"24.92S","longitude":"30.15E"}
{"date":"2012-08-01","average_temperature":"7.0790000000000015","city":"Neuquen","latitude":"39.38S","longitude":"68.67W"}
{"date":"2011-09-01","average_temperature":"16.04","city":"Neuss","latitude":"50.63N","longitude":"6.34E"}
{"date":"2010-04-01","average_temperature":"10.943","city":"New Haven","latitude":"40.99N","longitude":"72.43W"}
{"date":"2011-10-01","average_temperature":"30.462","city":"Nguru","latitude":"13.66N","longitude":"10.73E"}
{"date":"2010-02-01","average_temperature":"25.094","city":"Nha Trang","latitude":"12.05N","longitude":"108.49E"}
{"date":"2013-01-01","average_temperature":"24.525","city":"Niamey","latitude":"13.66N","longitude":"2.48E"}
{"date":"2010-12-01","average_temperature":"11.375","city":"Nicolás Romero","latitude":"20.09N","longitude":"98.96W"}
{"date":"2011-03-01","average_temperature":"3.954","city":"Niigata","latitude":"37.78N","longitude":"138.31E"}
{"date":"2011-06-01","average_temperature":"20.434","city":"Niigata","latitude":"37.78N","longitude":"138.31E"}
{"date":"2012-01-01","average_temperature":"4.089","city":"Niihama","latitude":"34.56N","longitude":"134.27E"}
{"date":"2010-03-01","average_temperature":"8.894","city":"Nishinomiya","latitude":"34.56N","longitude":"136.22E"}
{"date":"2012-03-01","average_temperature":"-4.7989999999999995","city":"Nizhniy Novgorod","latitude":"57.05N","longitude":"42.79E"}
{"date":"2011-09-01","average_temperature":"22.199","city":"Noda","latitude":"36.17N","longitude":"139.23E"}
{"date":"2010-01-01","average_temperature":"0.8590000000000001","city":"Nottingham","latitude":"53.84N","longitude":"1.36W"}
{"date":"2013-03-01","average_temperature":"24.214000000000002","city":"Nova Friburgo","latitude":"21.70S","longitude":"42.40W"}
{"date":"2013-06-01","average_temperature":"13.77","city":"Novo Hamburgo","latitude":"29.74S","longitude":"51.69W"}
{"date":"2013-02-01","average_temperature":"-14.465","city":"Novokuznetsk","latitude":"53.84N","longitude":"85.91E"}
{"date":"2012-02-01","average_temperature":"-20.739","city":"Novotroitsk","latitude":"50.63N","longitude":"59.58E"}
{"date":"2012-03-01","average_temperature":"5.711","city":"Nyíregyháza","latitude":"47.42N","longitude":"22.50E"}
{"date":"2012-09-01","average_temperature":"24.941999999999997","city":"Nzérékoré","latitude":"7.23N","longitude":"8.92W"}
{"date":"2010-04-01","average_temperature":"23.586","city":"Obregon","latitude":"28.13N","longitude":"110.00W"}
{"date":"2011-11-01","average_temperature":"4.613","city":"Offenbach","latitude":"50.63N","longitude":"8.87E"}
{"date":"2010-06-01","average_temperature":"22.649","city":"Ogaki","latitude":"34.56N","longitude":"136.22E"}
{"date":"2011-10-01","average_temperature":"17.774","city":"Ogaki","latitude":"34.56N","longitude":"136.22E"}
{"date":"2012-08-01","average_temperature":"27.701","city":"Okazaki","latitude":"34.56N","longitude":"136.22E"}
{"date":"2010-01-01","average_temperature":"27.803","city":"Okrika","latitude":"4.02N","longitude":"7.23E"}
{"date":"2010-04-01","average_temperature":"9.264","city":"Olomouc","latitude":"49.03N","longitude":"17.14E"}
{"date":"2013-06-01","average_temperature":"15.445","city":"Omsk","latitude":"55.45N","longitude":"73.70E"}
{"date":"2011-05-01","average_temperature":"28.253","city":"Opobo","latitude":"4.02N","longitude":"7.23E"}
{"date":"2011-09-01","average_temperature":"26.503","city":"Opobo","latitude":"4.02N","longitude":"7.23E"}
{"date":"2010-02-01","average_temperature":"-6.755000000000001","city":"Orël","latitude":"52.24N","longitude":"36.79E"}
{"date":"2012-06-01","average_temperature":"26.62","city":"Orizaba","latitude":"18.48N","longitude":"96.34W"}
{"date":"2013-08-01","average_temperature":"12.952","city":"Orkney","latitude":"26.52S","longitude":"26.87E"}
{"date":"2012-10-01","average_temperature":"12.422","city":"Orléans","latitude":"47.42N","longitude":"1.18E"}
{"date":"2013-02-01","average_temperature":"2.7860000000000005","city":"Orléans","latitude":"47.42N","longitude":"1.18E"}
{"date":"2013-04-01","average_temperature":"28.059","city":"Oron","latitude":"5.63N","longitude":"8.07E"}
{"date":"2012-08-01","average_temperature":"20.391","city":"Oshawa","latitude":"44.20N","longitude":"78.26W"}
{"date":"2011-01-01","average_temperature":"-4.7589999999999995","city":"Overland Park","latitude":"39.38N","longitude":"93.64W"}
{"date":"2011-02-01","average_temperature":"28.525","city":"Owo","latitude":"7.23N","longitude":"5.68E"}
{"date":"2012-05-01","average_temperature":"26.744","city":"Owo","latitude":"7.23N","longitude":"5.68E"}
{"date":"2012-04-01","average_temperature":"26.053","city":"Pôrto Velho","latitude":"8.84S","longitude":"64.05W"}
{"date":"2012-01-01","average_temperature":"19.792","city":"Pakokku","latitude":"21.70N","longitude":"94.33E"}
{"date":"2010-12-01","average_temperature":"26.642","city":"Palakkad","latitude":"10.45N","longitude":"76.09E"}
{"date":"2013-08-01","average_temperature":"27.195","city":"Palembang","latitude":"2.41S","longitude":"105.27E"}
{"date":"2010-12-01","average_temperature":"21.822","city":"Palma Soriano","latitude":"20.09N","longitude":"76.78W"}
{"date":"2012-10-01","average_temperature":"28.82","city":"Palmas","latitude":"10.45S","longitude":"48.27W"}
{"date":"2013-03-01","average_temperature":"14.463","city":"Palmdale","latitude":"34.56N","longitude":"118.70W"}
{"date":"2011-09-01","average_temperature":"23.024","city":"Palmira","latitude":"4.02N","longitude":"76.34W"}
{"date":"2012-07-01","average_temperature":"20.251","city":"Pamplona","latitude":"42.59N","longitude":"2.18W"}
{"date":"2010-05-01","average_temperature":"28.668000000000003","city":"Panamá","latitude":"8.84N","longitude":"80.27W"}
{"date":"2011-10-01","average_temperature":"20.769","city":"Paranaguá","latitude":"24.92S","longitude":"47.88W"}
{"date":"2010-08-01","average_temperature":"30.162","city":"Pasadena","latitude":"29.74N","longitude":"96.00W"}
{"date":"2011-12-01","average_temperature":"8.867999999999997","city":"Pasadena","latitude":"34.56N","longitude":"118.70W"}
{"date":"2012-12-01","average_temperature":"27.612","city":"Pasuruan","latitude":"7.23S","longitude":"112.70E"}
{"date":"2013-01-01","average_temperature":"-3.392","city":"Pavlohrad","latitude":"49.03N","longitude":"36.73E"}
{"date":"2010-04-01","average_temperature":"27.452","city":"Pemalang","latitude":"7.23S","longitude":"109.46E"}
{"date":"2012-03-01","average_temperature":"22.787","city":"Pembroke Pines","latitude":"26.52N","longitude":"80.60W"}
{"date":"2012-07-01","average_temperature":"27.997","city":"Perbaungan","latitude":"4.02N","longitude":"98.84E"}
{"date":"2011-08-01","average_temperature":"16.704","city":"Perth","latitude":"31.35S","longitude":"114.97E"}
{"date":"2011-09-01","average_temperature":"24.564","city":"Pescara","latitude":"42.59N","longitude":"15.27E"}
{"date":"2010-03-01","average_temperature":"27.458000000000002","city":"Petare","latitude":"10.45N","longitude":"66.27W"}
{"date":"2013-05-01","average_temperature":"26.581","city":"Petare","latitude":"10.45N","longitude":"66.27W"}
{"date":"2011-03-01","average_temperature":"27.436","city":"Petrolina","latitude":"8.84S","longitude":"39.73W"}
{"date":"2010-11-01","average_temperature":"20.269","city":"Phagwara","latitude":"31.35N","longitude":"75.39E"}
{"date":"2010-04-01","average_temperature":"31.086","city":"Phra Pradaeng","latitude":"13.66N","longitude":"99.91E"}
{"date":"2010-05-01","average_temperature":"27.592","city":"Pinar Del Río","latitude":"21.70N","longitude":"83.94W"}
{"date":"2010-04-01","average_temperature":"19.015","city":"Pingchen","latitude":"24.92N","longitude":"120.59E"}
{"date":"2012-09-01","average_temperature":"20.332","city":"Pitesti","latitude":"44.20N","longitude":"24.60E"}
{"date":"2010-08-01","average_temperature":"24.894000000000002","city":"Pleven","latitude":"44.20N","longitude":"24.60E"}
{"date":"2011-01-01","average_temperature":"24.927","city":"Plumbon","latitude":"7.23S","longitude":"107.84E"}
{"date":"2011-06-01","average_temperature":"15.409","city":"Plymouth","latitude":"50.63N","longitude":"3.80W"}
{"date":"2012-06-01","average_temperature":"14.77","city":"Plymouth","latitude":"50.63N","longitude":"3.80W"}
{"date":"2013-01-01","average_temperature":"8.812999999999999","city":"Pomona","latitude":"34.56N","longitude":"118.70W"}
{"date":"2010-11-01","average_temperature":"27.249000000000002","city":"Pondicherry","latitude":"12.05N","longitude":"80.55E"}
{"date":"2011-08-01","average_temperature":"27.976999999999997","city":"Port Blair","latitude":"12.05N","longitude":"92.05E"}
{"date":"2012-07-01","average_temperature":"24.404","city":"Port Gentil","latitude":"0.80S","longitude":"8.84E"}
{"date":"2012-07-01","average_temperature":"26.546","city":"Port Harcourt","latitude":"4.02N","longitude":"7.23E"}
{"date":"2012-09-01","average_temperature":"14.334000000000001","city":"Portsmouth","latitude":"50.63N","longitude":"1.27W"}
{"date":"2010-12-01","average_temperature":"12.834","city":"Potosí","latitude":"20.09S","longitude":"66.54W"}
{"date":"2010-01-01","average_temperature":"23.997","city":"Pouso Alegre","latitude":"21.70S","longitude":"45.87W"}
{"date":"2011-12-01","average_temperature":"26.576","city":"Presidente Prudente","latitude":"21.70S","longitude":"51.06W"}
{"date":"2013-03-01","average_temperature":"2.478","city":"Preston","latitude":"53.84N","longitude":"1.36W"}
{"date":"2011-12-01","average_temperature":"0.7849999999999997","city":"Providence","latitude":"42.59N","longitude":"72.00W"}
{"date":"2013-04-01","average_temperature":"7.226","city":"Provo","latitude":"39.38N","longitude":"112.37W"}
{"date":"2011-06-01","average_temperature":"2.738","city":"Puno","latitude":"15.27S","longitude":"70.83W"}
{"date":"2013-06-01","average_temperature":"26.977","city":"Purnia","latitude":"26.52N","longitude":"87.76E"}
{"date":"2010-07-01","average_temperature":"29.169","city":"Puruliya","latitude":"23.31N","longitude":"86.50E"}
{"date":"2010-02-01","average_temperature":"2.331","city":"Puyang","latitude":"36.17N","longitude":"115.36E"}
{"date":"2011-10-01","average_temperature":"25.256","city":"Qena","latitude":"26.52N","longitude":"32.24E"}
{"date":"2011-08-01","average_temperature":"27.927","city":"Quanzhou","latitude":"24.92N","longitude":"118.82E"}
{"date":"2011-05-01","average_temperature":"22.748","city":"Querétaro","latitude":"20.09N","longitude":"100.66W"}
{"date":"2011-03-01","average_temperature":"25.964","city":"Rajshahi","latitude":"24.92N","longitude":"88.67E"}
{"date":"2013-04-01","average_temperature":"16.68","city":"Randfontein","latitude":"26.52S","longitude":"26.87E"}
{"date":"2011-01-01","average_temperature":"13.645999999999999","city":"Rangpur","latitude":"26.52N","longitude":"89.55E"}
{"date":"2010-01-01","average_temperature":"16.833","city":"Raniganj","latitude":"23.31N","longitude":"86.50E"}
{"date":"2011-08-01","average_temperature":"22.918000000000003","city":"Rasht","latitude":"37.78N","longitude":"48.81E"}
{"date":"2012-12-01","average_temperature":"3.5260000000000002","city":"Remscheid","latitude":"50.63N","longitude":"6.34E"}
{"date":"2013-01-01","average_temperature":"4.5440000000000005","city":"Rennes","latitude":"47.42N","longitude":"1.18W"}
{"date":"2012-09-01","average_temperature":"26.083000000000002","city":"Richardson","latitude":"32.95N","longitude":"96.70W"}
{"date":"2012-10-01","average_temperature":"6.412999999999999","city":"Riga","latitude":"57.05N","longitude":"25.08E"}
{"date":"2010-09-01","average_temperature":"19.167","city":"Rimini","latitude":"44.20N","longitude":"13.42E"}
{"date":"2010-07-01","average_temperature":"20.473","city":"Rio Claro","latitude":"21.70S","longitude":"47.60W"}
{"date":"2010-03-01","average_temperature":"27.396","city":"Rio De Janeiro","latitude":"23.31S","longitude":"42.82W"}
{"date":"2012-01-01","average_temperature":"25.081","city":"Rio De Janeiro","latitude":"23.31S","longitude":"42.82W"}
{"date":"2010-11-01","average_temperature":"9.067","city":"Rostov Na Donu","latitude":"47.42N","longitude":"39.08E"}
{"date":"2013-07-01","average_temperature":"23.674","city":"Rostov Na Donu","latitude":"47.42N","longitude":"39.08E"}
{"date":"2010-10-01","average_temperature":"10.279000000000002","city":"Rotterdam","latitude":"52.24N","longitude":"5.26E"}
{"date":"2013-04-01","average_temperature":"13.487","city":"Ruse","latitude":"44.20N","longitude":"26.83E"}
{"date":"2013-05-01","average_temperature":"18.317","city":"São Bernardo Do Campo","latitude":"23.31S","longitude":"46.31W"}
{"date":"2010-08-01","average_temperature":"17.831","city":"São José","latitude":"28.13S","longitude":"48.18W"}
{"date":"2010-12-01","average_temperature":"20.433","city":"São José Dos Pinhais","latitude":"24.92S","longitude":"49.66W"}
{"date":"2011-08-01","average_temperature":"13.856","city":"São Leopoldo","latitude":"29.74S","longitude":"51.69W"}
{"date":"2010-12-01","average_temperature":"6.057","city":"Saga","latitude":"32.95N","longitude":"131.17E"}
{"date":"2010-02-01","average_temperature":"6.8420000000000005","city":"Sakai","latitude":"34.56N","longitude":"136.22E"}
{"date":"2012-05-01","average_temperature":"18.069000000000003","city":"Sakai","latitude":"34.56N","longitude":"136.22E"}
{"date":"2013-02-01","average_temperature":"17.305999999999997","city":"Salamanca","latitude":"20.09N","longitude":"100.66W"}
{"date":"2010-07-01","average_temperature":"23.926","city":"Salamanca","latitude":"40.99N","longitude":"6.39W"}
{"date":"2012-03-01","average_temperature":"3.752","city":"Salzburg","latitude":"47.42N","longitude":"13.03E"}
{"date":"2011-07-01","average_temperature":"21.423000000000002","city":"San Cristóbal","latitude":"7.23N","longitude":"72.16W"}
{"date":"2010-10-01","average_temperature":"16.689999999999998","city":"San Jose","latitude":"37.78N","longitude":"122.03W"}
{"date":"2011-05-01","average_temperature":"12.829","city":"San Martin","latitude":"32.95S","longitude":"67.98W"}
{"date":"2011-07-01","average_temperature":"25.902","city":"San Pedro Sula","latitude":"15.27N","longitude":"87.50W"}
{"date":"2011-09-01","average_temperature":"23.256999999999998","city":"Sanandaj","latitude":"34.56N","longitude":"46.70E"}
{"date":"2011-11-01","average_temperature":"6.683","city":"Sanandaj","latitude":"34.56N","longitude":"46.70E"}
{"date":"2013-03-01","average_temperature":"23.334","city":"Sancti Spíritus","latitude":"21.70N","longitude":"78.75W"}
{"date":"2012-01-01","average_temperature":"4.089","city":"Sanda","latitude":"34.56N","longitude":"134.27E"}
{"date":"2012-07-01","average_temperature":"10.689","city":"Santa Fe","latitude":"31.35S","longitude":"60.31W"}
{"date":"2012-01-01","average_temperature":"25.779","city":"Santa Maria","latitude":"29.74S","longitude":"53.54W"}
{"date":"2012-02-01","average_temperature":"27.872","city":"Santiago Del Estero","latitude":"28.13S","longitude":"64.55W"}
{"date":"2013-03-01","average_temperature":"22.48","city":"Santos","latitude":"23.31S","longitude":"46.31W"}
{"date":"2010-02-01","average_temperature":"25.581999999999997","city":"Satara","latitude":"16.87N","longitude":"73.67E"}
{"date":"2012-06-01","average_temperature":"35.955999999999996","city":"Sawai Madhopur","latitude":"26.52N","longitude":"77.01E"}
{"date":"2011-06-01","average_temperature":"26.125","city":"Sekondi","latitude":"5.63N","longitude":"1.61W"}
{"date":"2013-09-01","city":"Semnan","latitude":"36.17N","longitude":"53.70E"}
{"date":"2013-01-01","average_temperature":"19.112000000000002","city":"Seoni","latitude":"21.70N","longitude":"78.75E"}
{"date":"2010-12-01","average_temperature":"-1.3659999999999999","city":"Seoul","latitude":"37.78N","longitude":"126.10E"}
{"date":"2011-12-01","average_temperature":"24.476999999999997","city":"Serekunda","latitude":"13.66N","longitude":"17.34W"}
{"date":"2013-04-01","average_temperature":"23.264","city":"Serekunda","latitude":"13.66N","longitude":"17.34W"}
{"date":"2012-03-01","average_temperature":"14.316","city":"Setúbal","latitude":"39.38N","longitude":"8.32W"}
{"date":"2011-04-01","average_temperature":"22.529","city":"Sete Lagoas","latitude":"20.09S","longitude":"44.36W"}
{"date":"2011-01-01","average_temperature":"-3.236","city":"Shahe","latitude":"36.17N","longitude":"115.36E"}
{"date":"2013-08-01","average_temperature":"31.235","city":"Shiraz","latitude":"29.74N","longitude":"51.69E"}
{"date":"2011-07-01","average_temperature":"24.916","city":"Shizuishan","latitude":"39.38N","longitude":"106.13E"}
{"date":"2012-02-01","average_temperature":"-15.809000000000001","city":"Shuangyashan","latitude":"47.42N","longitude":"131.45E"}
{"date":"2012-10-01","average_temperature":"12.427999999999999","city":"Shymkent","latitude":"42.59N","longitude":"69.82E"}
{"date":"2012-02-01","average_temperature":"-7.43","city":"Sibiu","latitude":"45.81N","longitude":"24.23E"}
{"date":"2013-09-01","city":"Siegen","latitude":"50.63N","longitude":"8.87E"}
{"date":"2010-06-01","average_temperature":"24.657","city":"Siirt","latitude":"37.78N","longitude":"42.71E"}
{"date":"2011-04-01","average_temperature":"30.169","city":"Sikasso","latitude":"10.45N","longitude":"5.73W"}
{"date":"2013-04-01","average_temperature":"28.217","city":"Singkawang","latitude":"0.80N","longitude":"108.48E"}
{"date":"2013-09-01","city":"Sinnar","latitude":"13.66N","longitude":"33.85E"}
{"date":"2011-12-01","average_temperature":"19.281","city":"Sirajganj","latitude":"24.92N","longitude":"90.44E"}
{"date":"2013-05-01","average_temperature":"29.404","city":"Soc Trang","latitude":"8.84N","longitude":"106.22E"}
{"date":"2010-05-01","average_temperature":"16.337","city":"Soka","latitude":"36.17N","longitude":"139.23E"}
{"date":"2012-10-01","average_temperature":"22.993000000000002","city":"Songea","latitude":"10.45S","longitude":"35.18E"}
{"date":"2010-06-01","average_temperature":"27.685","city":"Sorong","latitude":"0.80S","longitude":"130.98E"}
{"date":"2013-01-01","average_temperature":"27.757","city":"Sorong","latitude":"0.80S","longitude":"130.98E"}
{"date":"2011-04-01","average_temperature":"27.803","city":"Soubré","latitude":"5.63N","longitude":"6.46W"}
{"date":"2012-08-01","average_temperature":"24.389","city":"Soubré","latitude":"5.63N","longitude":"6.46W"}
{"date":"2012-08-01","average_temperature":"27.962","city":"Spanish Town","latitude":"18.48N","longitude":"77.75W"}
{"date":"2011-11-01","average_temperature":"8.543000000000001","city":"Split","latitude":"44.20N","longitude":"15.65E"}
{"date":"2011-10-01","average_temperature":"8.411999999999999","city":"Spokane","latitude":"47.42N","longitude":"117.24W"}
{"date":"2011-11-01","average_temperature":"6.3740000000000006","city":"Springfield","latitude":"42.59N","longitude":"72.00W"}
{"date":"2011-11-01","average_temperature":"7.504","city":"Srinagar","latitude":"34.56N","longitude":"73.95E"}
{"date":"2012-06-01","average_temperature":"19.469","city":"Srinagar","latitude":"34.56N","longitude":"73.95E"}
{"date":"2012-09-01","average_temperature":"12.834","city":"Stoke On Trent","latitude":"52.24N","longitude":"2.63W"}
{"date":"2010-12-01","average_temperature":"-4.688","city":"Sudbury","latitude":"45.81N","longitude":"81.92W"}
{"date":"2011-12-01","average_temperature":"6.476","city":"Suita","latitude":"34.56N","longitude":"136.22E"}
{"date":"2010-03-01","average_temperature":"-0.993","city":"Sujiatun","latitude":"40.99N","longitude":"123.55E"}
{"date":"2011-03-01","average_temperature":"27.274","city":"Sungai Petani","latitude":"5.63N","longitude":"100.09E"}
{"date":"2010-03-01","average_temperature":"29.568","city":"Surat","latitude":"21.70N","longitude":"73.56E"}
{"date":"2010-02-01","average_temperature":"-27.56","city":"Surgut","latitude":"61.88N","longitude":"73.02E"}
{"date":"2011-04-01","average_temperature":"2.424","city":"Surgut","latitude":"61.88N","longitude":"73.02E"}
{"date":"2012-12-01","average_temperature":"-22.842","city":"Surgut","latitude":"61.88N","longitude":"73.02E"}
{"date":"2011-01-01","average_temperature":"15.669","city":"Surt","latitude":"31.35N","longitude":"16.96E"}
{"date":"2010-02-01","average_temperature":"4.767","city":"Swansea","latitude":"52.24N","longitude":"5.26W"}
{"date":"2010-01-01","average_temperature":"-2.262","city":"Székesfehérvár","latitude":"47.42N","longitude":"17.76E"}
{"date":"2010-05-01","average_temperature":"15.692","city":"Székesfehérvár","latitude":"47.42N","longitude":"17.76E"}
{"date":"2011-11-01","average_temperature":"0.4870000000000001","city":"Tabriz","latitude":"37.78N","longitude":"46.78E"}
{"date":"2010-03-01","average_temperature":"22.048000000000002","city":"Tacna","latitude":"18.48S","longitude":"70.99W"}
{"date":"2013-09-01","city":"Taganrog","latitude":"47.42N","longitude":"39.08E"}
{"date":"2011-08-01","average_temperature":"24.866999999999997","city":"Taian","latitude":"36.17N","longitude":"117.35E"}
{"date":"2012-11-01","average_temperature":"6.454","city":"Taian","latitude":"36.17N","longitude":"117.35E"}
{"date":"2012-04-01","average_temperature":"23.638","city":"Taicheng","latitude":"21.70N","longitude":"113.37E"}
{"date":"2013-04-01","average_temperature":"11.31","city":"Takasaki","latitude":"36.17N","longitude":"139.23E"}
{"date":"2011-11-01","average_temperature":"15.448","city":"Talca","latitude":"36.17S","longitude":"71.60W"}
{"date":"2013-07-01","average_temperature":"6.436","city":"Talca","latitude":"36.17S","longitude":"71.60W"}
{"date":"2011-02-01","average_temperature":"-13.878","city":"Tambov","latitude":"52.24N","longitude":"42.04E"}
{"date":"2013-03-01","average_temperature":"-5.59","city":"Tambov","latitude":"52.24N","longitude":"42.04E"}
{"date":"2011-05-01","average_temperature":"28.563000000000002","city":"Tampico","latitude":"21.70N","longitude":"97.79W"}
{"date":"2011-09-01","average_temperature":"27.417","city":"Tanete","latitude":"5.63S","longitude":"119.46E"}
{"date":"2010-07-01","average_temperature":"25.671999999999997","city":"Tangier","latitude":"36.17N","longitude":"5.97W"}
{"date":"2012-03-01","average_temperature":"15.87","city":"Tanta","latitude":"31.35N","longitude":"30.16E"}
{"date":"2013-08-01","average_temperature":"28.659","city":"Taoyüan","latitude":"24.92N","longitude":"120.59E"}
{"date":"2010-08-01","average_temperature":"27.265","city":"Tarhunah","latitude":"32.95N","longitude":"14.36E"}
{"date":"2012-11-01","average_temperature":"18.693","city":"Tarija","latitude":"21.70S","longitude":"64.90W"}
{"date":"2010-05-01","average_temperature":"14.045","city":"Tarnow","latitude":"50.63N","longitude":"21.55E"}
{"date":"2012-04-01","average_temperature":"13.063","city":"Tarsus","latitude":"37.78N","longitude":"34.58E"}
{"date":"2013-05-01","average_temperature":"17.769000000000005","city":"Tashkent","latitude":"40.99N","longitude":"70.30E"}
{"date":"2012-08-01","average_temperature":"25.895","city":"Tegal","latitude":"7.23S","longitude":"109.46E"}
{"date":"2010-04-01","average_temperature":"19.346","city":"Tel Aviv Yafo","latitude":"31.35N","longitude":"33.93E"}
{"date":"2010-06-01","average_temperature":"17.444999999999997","city":"Teresópolis","latitude":"21.70S","longitude":"42.40W"}
{"date":"2013-03-01","average_temperature":"12.09","city":"Termiz","latitude":"37.78N","longitude":"67.12E"}
{"date":"2012-02-01","average_temperature":"1.8019999999999998","city":"Terni","latitude":"42.59N","longitude":"13.09E"}
{"date":"2011-01-01","average_temperature":"27.519","city":"Teshie","latitude":"5.63N","longitude":"0.00W"}
{"date":"2011-11-01","average_temperature":"27.679","city":"Teshie","latitude":"5.63N","longitude":"0.00W"}
{"date":"2012-05-01","average_temperature":"27.462","city":"Teshie","latitude":"5.63N","longitude":"0.00W"}
{"date":"2010-04-01","average_temperature":"26.143","city":"Tete","latitude":"16.87S","longitude":"33.49E"}
{"date":"2012-09-01","average_temperature":"25.586","city":"Thái Nguyên","latitude":"21.70N","longitude":"106.44E"}
{"date":"2011-06-01","average_temperature":"28.180999999999997","city":"Thanyaburi","latitude":"13.66N","longitude":"101.56E"}
{"date":"2010-04-01","average_temperature":"11.097000000000001","city":"Tianjin","latitude":"39.38N","longitude":"116.53E"}
{"date":"2010-08-01","average_temperature":"25.543000000000003","city":"Tianjin","latitude":"39.38N","longitude":"116.53E"}
{"date":"2013-03-01","average_temperature":"2.253","city":"Tilburg","latitude":"52.24N","longitude":"5.26E"}
{"date":"2011-08-01","average_temperature":"30.413","city":"Tirupati","latitude":"13.66N","longitude":"80.09E"}
{"date":"2010-09-01","average_temperature":"26.244","city":"Tiruppur","latitude":"10.45N","longitude":"77.73E"}
{"date":"2011-03-01","average_temperature":"4.674","city":"Toda","latitude":"36.17N","longitude":"139.23E"}
{"date":"2012-05-01","average_temperature":"16.669999999999998","city":"Tokorozawa","latitude":"36.17N","longitude":"139.23E"}
{"date":"2013-06-01","average_temperature":"20.927","city":"Tokorozawa","latitude":"36.17N","longitude":"139.23E"}
{"date":"2013-02-01","average_temperature":"5.745","city":"Tokuyama","latitude":"34.56N","longitude":"132.32E"}
{"date":"2011-01-01","average_temperature":"0.8170000000000001","city":"Tokyo","latitude":"36.17N","longitude":"139.23E"}
{"date":"2011-07-01","average_temperature":"27.22","city":"Toledo","latitude":"10.45N","longitude":"123.55E"}
{"date":"2012-10-01","average_temperature":"21.954","city":"Toluca","latitude":"18.48N","longitude":"99.72W"}
{"date":"2013-04-01","average_temperature":"4.777","city":"Tomakomai","latitude":"42.59N","longitude":"141.82E"}
{"date":"2010-04-01","average_temperature":"1.722","city":"Tomsk","latitude":"57.05N","longitude":"84.10E"}
{"date":"2013-04-01","average_temperature":"29.809","city":"Tonk","latitude":"26.52N","longitude":"75.22E"}
{"date":"2012-11-01","average_temperature":"1.9069999999999998","city":"Toronto","latitude":"44.20N","longitude":"80.50W"}
{"date":"2010-11-01","average_temperature":"12.114","city":"Torrance","latitude":"34.56N","longitude":"118.70W"}
{"date":"2012-09-01","average_temperature":"24.745","city":"Torrance","latitude":"34.56N","longitude":"118.70W"}
{"date":"2011-05-01","average_temperature":"18.614","city":"Toulon","latitude":"42.59N","longitude":"6.55E"}
{"date":"2013-01-01","average_temperature":"3.634","city":"Tours","latitude":"47.42N","longitude":"1.18E"}
{"date":"2011-09-01","average_temperature":"24.59","city":"Toyohashi","latitude":"34.56N","longitude":"138.16E"}
{"date":"2010-11-01","average_temperature":"11.601","city":"Toyota","latitude":"34.56N","longitude":"136.22E"}
{"date":"2010-09-01","average_temperature":"10.338","city":"Trelew","latitude":"42.59S","longitude":"65.45W"}
{"date":"2013-07-01","average_temperature":"5.7730000000000015","city":"Trelew","latitude":"42.59S","longitude":"65.45W"}
{"date":"2013-01-01","average_temperature":"26.784000000000002","city":"Trincomalee","latitude":"8.84N","longitude":"81.89E"}
{"date":"2013-04-01","average_temperature":"6.244","city":"Tula","latitude":"53.84N","longitude":"36.82E"}
{"date":"2011-02-01","average_temperature":"26.013","city":"Tumbes","latitude":"4.02S","longitude":"81.16W"}
{"date":"2010-03-01","average_temperature":"21.701","city":"Tunja","latitude":"5.63N","longitude":"72.65W"}
{"date":"2011-04-01","average_temperature":"12.575","city":"Turgutlu","latitude":"37.78N","longitude":"28.47E"}
{"date":"2010-02-01","average_temperature":"-1.6800000000000002","city":"Turin","latitude":"45.81N","longitude":"8.08E"}
{"date":"2010-06-01","average_temperature":"17.794","city":"Tver","latitude":"57.05N","longitude":"36.89E"}
{"date":"2012-07-01","average_temperature":"18.652","city":"Ulm","latitude":"49.03N","longitude":"9.80E"}
{"date":"2012-11-01","average_temperature":"27.068","city":"Uromi","latitude":"7.23N","longitude":"5.68E"}
{"date":"2012-09-01","average_temperature":"9.907","city":"Västerås","latitude":"60.27N","longitude":"16.22E"}
{"date":"2012-08-01","average_temperature":"26.637","city":"Valencia","latitude":"10.45N","longitude":"67.91W"}
{"date":"2012-12-01","average_temperature":"26.943","city":"Valledupar","latitude":"10.45N","longitude":"72.82W"}
{"date":"2010-01-01","average_temperature":"1.1550000000000002","city":"Venice","latitude":"45.81N","longitude":"12.69E"}
{"date":"2010-02-01","average_temperature":"3.5700000000000003","city":"Venice","latitude":"45.81N","longitude":"12.69E"}
{"date":"2012-09-01","average_temperature":"27.639","city":"Veraval","latitude":"21.70N","longitude":"70.10E"}
{"date":"2012-04-01","average_temperature":"9.415","city":"Verona","latitude":"45.81N","longitude":"10.38E"}
{"date":"2012-07-01","average_temperature":"9.036","city":"Verwoerdburg","latitude":"26.52S","longitude":"28.66E"}
{"date":"2010-02-01","average_temperature":"-1.148","city":"Vienna","latitude":"49.03N","longitude":"17.14E"}
{"date":"2012-12-01","average_temperature":"24.326","city":"Vijayawada","latitude":"16.87N","longitude":"80.37E"}
{"date":"2010-07-01","average_temperature":"20.11","city":"Vila Velha","latitude":"20.09S","longitude":"40.95W"}
{"date":"2010-12-01","average_temperature":"16.205000000000002","city":"Villa Canales","latitude":"15.27N","longitude":"90.83W"}
{"date":"2010-11-01","average_temperature":"18.254","city":"Villa Nueva","latitude":"15.27N","longitude":"90.83W"}
{"date":"2013-03-01","average_temperature":"3.42","city":"Villeurbanne","latitude":"45.81N","longitude":"5.77E"}
{"date":"2012-06-01","average_temperature":"29.835","city":"Vinh","latitude":"18.48N","longitude":"106.48E"}
{"date":"2010-05-01","average_temperature":"16.064","city":"Vinnytsya","latitude":"49.03N","longitude":"29.39E"}
{"date":"2012-10-01","average_temperature":"10.095","city":"Vinnytsya","latitude":"49.03N","longitude":"29.39E"}
{"date":"2012-10-01","average_temperature":"19.143","city":"Viransehir","latitude":"37.78N","longitude":"40.68E"}
{"date":"2012-09-01","average_temperature":"25.108","city":"Visalia","latitude":"36.17N","longitude":"119.34W"}
{"date":"2010-09-01","average_temperature":"22.614","city":"Vitória","latitude":"20.09S","longitude":"40.95W"}
{"date":"2011-07-01","average_temperature":"26.889","city":"Volgodonsk","latitude":"47.42N","longitude":"41.45E"}
{"date":"2013-02-01","average_temperature":"-5.9910000000000005","city":"Vologda","latitude":"58.66N","longitude":"40.00E"}
{"date":"2010-08-01","average_temperature":"18.262","city":"Volta Redonda","latitude":"21.70S","longitude":"44.13W"}
{"date":"2011-11-01","average_temperature":"19.753","city":"Vryheid","latitude":"28.13S","longitude":"30.00E"}
{"date":"2012-03-01","average_temperature":"28.338","city":"Vung Tau","latitude":"10.45N","longitude":"107.18E"}
{"date":"2011-04-01","average_temperature":"26.889","city":"Waru","latitude":"7.23S","longitude":"112.70E"}
{"date":"2012-04-01","average_temperature":"10.372","city":"Waterbury","latitude":"40.99N","longitude":"72.43W"}
{"date":"2013-05-01","average_temperature":"13.818","city":"Waterloo","latitude":"44.20N","longitude":"80.50W"}
{"date":"2011-06-01","average_temperature":"9.134","city":"Welkom","latitude":"28.13S","longitude":"26.36E"}
{"date":"2010-10-01","average_temperature":"15.158","city":"Wencheng","latitude":"37.78N","longitude":"122.03E"}
{"date":"2010-10-01","average_temperature":"19.13","city":"Wenzhou","latitude":"28.13N","longitude":"120.91E"}
{"date":"2013-08-01","average_temperature":"17.06","city":"Windhoek","latitude":"23.31S","longitude":"16.60E"}
{"date":"2011-09-01","average_temperature":"17.569000000000006","city":"Windsor","latitude":"42.59N","longitude":"82.91W"}
{"date":"2011-12-01","average_temperature":"7.673999999999999","city":"Winston Salem","latitude":"36.17N","longitude":"79.56W"}
{"date":"2010-12-01","average_temperature":"19.248","city":"Witbank","latitude":"26.52S","longitude":"28.66E"}
{"date":"2013-04-01","average_temperature":"7.1979999999999995","city":"Wolverhampton","latitude":"52.24N","longitude":"2.63W"}
{"date":"2012-08-01","average_temperature":"18.324","city":"Wroclaw","latitude":"50.63N","longitude":"16.48E"}
{"date":"2011-06-01","average_temperature":"26.54","city":"Xiamen","latitude":"24.92N","longitude":"118.82E"}
{"date":"2010-11-01","average_temperature":"10.379000000000001","city":"Xiazhen","latitude":"34.56N","longitude":"116.76E"}
{"date":"2011-08-01","average_temperature":"18.308","city":"Xico","latitude":"20.09N","longitude":"98.96W"}
{"date":"2010-02-01","average_temperature":"3.4610000000000003","city":"Xuchang","latitude":"34.56N","longitude":"112.86E"}
{"date":"2010-12-01","average_temperature":"3.96","city":"Xuchang","latitude":"34.56N","longitude":"112.86E"}
{"date":"2012-02-01","average_temperature":"-1.129","city":"Yantai","latitude":"37.78N","longitude":"122.03E"}
{"date":"2010-08-01","average_temperature":"24.209","city":"Yaoundé","latitude":"4.02N","longitude":"12.05E"}
{"date":"2013-07-01","average_temperature":"32.315999999999995","city":"Yazd","latitude":"31.35N","longitude":"54.66E"}
{"date":"2010-05-01","average_temperature":"19.750999999999998","city":"Yibin","latitude":"28.13N","longitude":"104.55E"}
{"date":"2010-08-01","average_temperature":"19.296","city":"Yichun","latitude":"47.42N","longitude":"129.08E"}
{"date":"2013-06-01","average_temperature":"26.909000000000002","city":"Yogyakarta","latitude":"7.23S","longitude":"111.08E"}
{"date":"2012-11-01","average_temperature":"11.014000000000001","city":"Yokkaichi","latitude":"34.56N","longitude":"136.22E"}
{"date":"2010-11-01","average_temperature":"15.839","city":"Yokosuka","latitude":"34.56N","longitude":"140.11E"}
{"date":"2012-04-01","average_temperature":"19.068","city":"Yongan","latitude":"26.52N","longitude":"118.21E"}
{"date":"2012-05-01","average_temperature":"11.17","city":"York","latitude":"53.84N","longitude":"1.36W"}
{"date":"2011-04-01","average_temperature":"5.604","city":"Yushu","latitude":"44.20N","longitude":"127.45E"}
{"date":"2012-07-01","average_temperature":"17.329","city":"Zaanstad","latitude":"52.24N","longitude":"5.26E"}
{"date":"2012-08-01","average_temperature":"19.266","city":"Zabrze","latitude":"50.63N","longitude":"19.01E"}
{"date":"2011-05-01","average_temperature":"26.198","city":"Zanzibar","latitude":"5.63S","longitude":"38.74E"}
{"date":"2011-07-01","average_temperature":"28.061","city":"Zaozhuang","latitude":"34.56N","longitude":"116.76E"}
{"date":"2011-11-01","average_temperature":"19.939","city":"Zapopan","latitude":"20.09N","longitude":"104.08W"}
{"date":"2010-11-01","average_temperature":"-1.294","city":"Zhangjiakou","latitude":"40.99N","longitude":"115.03E"}
{"date":"2013-03-01","average_temperature":"13.022","city":"Zhicheng","latitude":"29.74N","longitude":"110.77E"}
{"date":"2011-11-01","average_temperature":"10.921","city":"Zhoukou","latitude":"32.95N","longitude":"113.94E"}
{"date":"2010-02-01","average_temperature":"0.7640000000000001","city":"Zhucheng","latitude":"36.17N","longitude":"119.34E"}
{"date":"2012-01-01","average_temperature":"13.568","city":"Zhuhai","latitude":"21.70N","longitude":"113.37E"}
{"date":"2013-04-01","average_temperature":"16.997","city":"Zhuzhou","latitude":"28.13N","longitude":"113.64E"}
{"date":"2012-03-01","average_temperature":"13.706","city":"Zigong","latitude":"29.74N","longitude":"105.23E"}
{"date":"2010-10-01","average_temperature":"28.109","city":"Ziguinchor","latitude":"12.05N","longitude":"16.44W"}
{"date":"2010-05-01","average_temperature":"35.33","city":"Zinder","latitude":"13.66N","longitude":"9.08E"}
{"date":"2013-09-01","city":"Zinder","latitude":"13.66N","longitude":"9.08E"}
