{"date":"2013-06-01","average_temperature":"19.055999999999997","city":"Çorum","latitude":"40.99N","longitude":"34.08E"}
{"date":"2010-02-01","average_temperature":"-23.875","city":"Abakan","latitude":"53.84N","longitude":"91.36E"}
{"date":"2011-04-01","average_temperature":"28.95","city":"Abengourou","latitude":"7.23N","longitude":"4.05W"}
{"date":"2013-05-01","average_temperature":"28.73","city":"Abha","latitude":"18.48N","longitude":"42.25E"}
{"date":"2010-09-01","average_temperature":"25.71","city":"Abidjan","latitude":"5.63N","longitude":"3.23W"}
{"date":"2011-04-01","average_temperature":"28.754","city":"Abidjan","latitude":"5.63N","longitude":"3.23W"}
{"date":"2011-05-01","average_temperature":"34.758","city":"Abohar","latitude":"29.74N","longitude":"73.85E"}
{"date":"2011-08-01","average_temperature":"25.643","city":"Abomey Calavi","latitude":"7.23N","longitude":"2.43E"}
{"date":"2013-09-01","average_temperature":"28.51","city":"Acapulco","latitude":"16.87N","longitude":"100.47W"}
{"date":"2012-03-01","average_temperature":"26.81","city":"Achalpur","latitude":"21.70N","longitude":"77.02E"}
{"date":"2010-01-01","average_temperature":"17.740000000000006","city":"Agartala","latitude":"23.31N","longitude":"91.75E"}
{"date":"2011-02-01","average_temperature":"21.747","city":"Agartala","latitude":"23.31N","longitude":"91.75E"}
{"date":"2011-08-01","average_temperature":"27.811999999999998","city":"Agartala","latitude":"23.31N","longitude":"91.75E"}
{"date":"2013-03-01","average_temperature":"21.709","city":"Ahmadpur East","latitude":"29.74N","longitude":"72.00E"}
{"date":"2010-10-01","average_temperature":"23.348000000000003","city":"Ajdabiya","latitude":"31.35N","longitude":"20.73E"}
{"date":"2010-05-01","average_temperature":"17.572999999999997","city":"Akashi","latitude":"34.56N","longitude":"134.27E"}
{"date":"2012-03-01","average_temperature":"3.97","city":"Aksaray","latitude":"37.78N","longitude":"34.58E"}
{"date":"2012-05-01","average_temperature":"15.943","city":"Alcobendas","latitude":"40.99N","longitude":"4.26W"}
{"date":"2011-01-01","average_temperature":"4.232","city":"Alcorcón","latitude":"40.99N","longitude":"4.26W"}
{"date":"2010-10-01","average_temperature":"13.977","city":"Alexandria","latitude":"39.38N","longitude":"76.99W"}
{"date":"2010-02-01","average_temperature":"20.145","city":"Allahabad","latitude":"24.92N","longitude":"81.58E"}
{"date":"2012-10-01","average_temperature":"2.015","city":"Altay","latitude":"47.42N","longitude":"88.82E"}
{"date":"2012-03-01","average_temperature":"14.316","city":"Amadora","latitude":"39.38N","longitude":"8.32W"}
{"date":"2010-06-01","average_temperature":"22.649","city":"Amagasaki","latitude":"34.56N","longitude":"136.22E"}
{"date":"2011-03-01","average_temperature":"28.709","city":"Ambur","latitude":"12.05N","longitude":"78.90E"}
{"date":"2012-01-01","average_temperature":"11.953","city":"Amritsar","latitude":"31.35N","longitude":"75.39E"}
{"date":"2012-09-01","average_temperature":"26.888","city":"Anaco","latitude":"8.84N","longitude":"64.05W"}
{"date":"2011-08-01","average_temperature":"27.367","city":"Anantapur","latitude":"15.27N","longitude":"77.50E"}
{"date":"2011-11-01","average_temperature":"-4.691","city":"Anda","latitude":"45.81N","longitude":"125.77E"}
{"date":"2011-06-01","average_temperature":"22.819000000000003","city":"Anjo","latitude":"34.56N","longitude":"136.22E"}
{"date":"2012-11-01","average_temperature":"22.943","city":"Antsirabe","latitude":"20.09S","longitude":"47.77E"}
{"date":"2013-08-01","average_temperature":"24.013","city":"Anyang","latitude":"36.17N","longitude":"113.37E"}
{"date":"2013-06-01","average_temperature":"15.043","city":"Apeldoorn","latitude":"52.24N","longitude":"5.26E"}
{"date":"2013-03-01","average_temperature":"25.295","city":"Ara","latitude":"24.92N","longitude":"85.12E"}
{"date":"2012-07-01","average_temperature":"24.118000000000002","city":"Arad","latitude":"45.81N","longitude":"21.92E"}
{"date":"2010-07-01","average_temperature":"24.229","city":"Araruama","latitude":"23.31S","longitude":"42.82W"}
{"date":"2013-07-01","average_temperature":"29.298000000000002","city":"Aryanah","latitude":"36.17N","longitude":"9.94E"}
{"date":"2012-06-01","average_temperature":"13.366","city":"Asahikawa","latitude":"44.20N","longitude":"143.11E"}
{"date":"2012-02-01","average_temperature":"13.073","city":"Ashqelon","latitude":"31.35N","longitude":"33.93E"}
{"date":"2012-07-01","average_temperature":"24.96","city":"Astanajapura","latitude":"7.23S","longitude":"107.84E"}
{"date":"2010-12-01","average_temperature":"27.967","city":"Asunción","latitude":"24.92S","longitude":"58.52W"}
{"date":"2013-01-01","average_temperature":"17.625999999999998","city":"Aswan","latitude":"23.31N","longitude":"32.33E"}
{"date":"2013-04-01","average_temperature":"20.48","city":"Atibaia","latitude":"23.31S","longitude":"46.31W"}
{"date":"2012-05-01","average_temperature":"14.569","city":"Auckland","latitude":"36.17S","longitude":"175.03E"}
{"date":"2011-04-01","average_temperature":"8.118","city":"Augsburg","latitude":"47.42N","longitude":"10.66E"}
{"date":"2011-09-01","average_temperature":"12.714","city":"Augsburg","latitude":"47.42N","longitude":"10.66E"}
{"date":"2013-09-01","average_temperature":"19.373","city":"Aurora","latitude":"39.38N","longitude":"104.05W"}
{"date":"2011-05-01","average_temperature":"10.824000000000002","city":"Ayacucho","latitude":"13.66S","longitude":"73.49W"}
{"date":"2013-06-01","average_temperature":"31.168000000000006","city":"Azamgarh","latitude":"26.52N","longitude":"82.39E"}
{"date":"2012-08-01","average_temperature":"24.944000000000006","city":"Bénin","latitude":"7.23N","longitude":"5.68E"}
{"date":"2011-09-01","average_temperature":"27.39","city":"Badlapur","latitude":"18.48N","longitude":"72.68E"}
{"date":"2011-01-01","average_temperature":"10.107","city":"Baghdad","latitude":"32.95N","longitude":"45.00E"}
{"date":"2012-04-01","average_temperature":"24.659","city":"Baghdad","latitude":"32.95N","longitude":"45.00E"}
{"date":"2011-01-01","average_temperature":"11.493","city":"Bahawalnagar","latitude":"29.74N","longitude":"73.85E"}
{"date":"2010-04-01","average_temperature":"22.394","city":"Bahir Dar","latitude":"12.05N","longitude":"37.81E"}
{"date":"2010-09-01","average_temperature":"18.406","city":"Bahir Dar","latitude":"12.05N","longitude":"37.81E"}
{"date":"2012-12-01","average_temperature":"19.621","city":"Baidyabati","latitude":"23.31N","longitude":"88.25E"}
{"date":"2010-08-01","average_temperature":"29.701999999999998","city":"Baleshwar","latitude":"21.70N","longitude":"87.40E"}
{"date":"2010-12-01","average_temperature":"25.912000000000006","city":"Baliuag","latitude":"15.27N","longitude":"120.83E"}
{"date":"2012-09-01","average_temperature":"29.104","city":"Ballia","latitude":"26.52N","longitude":"84.18E"}
{"date":"2010-06-01","average_temperature":"28.633000000000003","city":"Bamako","latitude":"12.05N","longitude":"8.22W"}
{"date":"2010-08-01","average_temperature":"27.555999999999997","city":"Bandar Maharani","latitude":"2.41N","longitude":"102.05E"}
{"date":"2011-10-01","average_temperature":"25.322","city":"Bangalore","latitude":"12.05N","longitude":"77.26E"}
{"date":"2011-12-01","average_temperature":"18.253","city":"Bankura","latitude":"23.31N","longitude":"86.50E"}
{"date":"2012-01-01","average_temperature":"17.918","city":"Bankura","latitude":"23.31N","longitude":"86.50E"}
{"date":"2010-03-01","average_temperature":"28.325","city":"Banyuwangi","latitude":"8.84S","longitude":"114.32E"}
{"date":"2012-07-01","average_temperature":"25.404","city":"Banyuwangi","latitude":"8.84S","longitude":"114.32E"}
{"date":"2011-02-01","average_temperature":"11.748","city":"Barcelona","latitude":"40.99N","longitude":"2.13E"}
{"date":"2013-03-01","average_temperature":"27.701999999999998","city":"Barddhaman","latitude":"23.31N","longitude":"88.25E"}
{"date":"2010-03-01","average_temperature":"27.608","city":"Barquisimeto","latitude":"10.45N","longitude":"69.55W"}
{"date":"2012-10-01","average_temperature":"22.002","city":"Barra Mansa","latitude":"21.70S","longitude":"44.13W"}
{"date":"2012-06-01","average_temperature":"26.746","city":"Barrancabermeja","latitude":"7.23N","longitude":"73.78W"}
{"date":"2012-08-01","average_temperature":"19.759","city":"Barrie","latitude":"44.20N","longitude":"80.50W"}
{"date":"2011-03-01","average_temperature":"28.908","city":"Barsi","latitude":"18.48N","longitude":"76.06E"}
{"date":"2013-08-01","average_temperature":"24.027","city":"Bata","latitude":"2.41N","longitude":"10.45E"}
{"date":"2012-05-01","average_temperature":"20.721","city":"Bauru","latitude":"21.70S","longitude":"49.33W"}
{"date":"2011-03-01","average_temperature":"14.617","city":"Bayrut","latitude":"34.56N","longitude":"35.03E"}
{"date":"2011-06-01","average_temperature":"34.574000000000005","city":"Beawar","latitude":"26.52N","longitude":"73.43E"}
{"date":"2011-02-01","average_temperature":"20.97","city":"Begusarai","latitude":"24.92N","longitude":"86.90E"}
{"date":"2010-07-01","average_temperature":"22.416","city":"Beian","latitude":"47.42N","longitude":"126.71E"}
{"date":"2013-01-01","average_temperature":"6.747999999999999","city":"Beibei","latitude":"29.74N","longitude":"107.08E"}
{"date":"2010-11-01","average_temperature":"27.522","city":"Beira","latitude":"20.09S","longitude":"34.12E"}
{"date":"2010-05-01","average_temperature":"9.309","city":"Belfast","latitude":"55.45N","longitude":"5.67W"}
{"date":"2011-12-01","average_temperature":"0.10300000000000063","city":"Belgorod","latitude":"50.63N","longitude":"36.76E"}
{"date":"2010-07-01","average_temperature":"15.71","city":"Bellevue","latitude":"47.42N","longitude":"121.97W"}
{"date":"2011-08-01","average_temperature":"19.008000000000006","city":"Berlin","latitude":"52.24N","longitude":"13.14E"}
{"date":"2012-11-01","average_temperature":"19.05","city":"Bethal","latitude":"26.52S","longitude":"28.66E"}
{"date":"2013-06-01","average_temperature":"29.418000000000003","city":"Bharuch","latitude":"21.70N","longitude":"73.56E"}
{"date":"2010-06-01","average_temperature":"16.922","city":"Bialystok","latitude":"53.84N","longitude":"23.18E"}
{"date":"2010-08-01","average_temperature":"19.563","city":"Bialystok","latitude":"53.84N","longitude":"23.18E"}
{"date":"2013-08-01","average_temperature":"25.959","city":"Bid","latitude":"18.48N","longitude":"76.06E"}
{"date":"2013-02-01","average_temperature":"0.667","city":"Bielefeld","latitude":"52.24N","longitude":"7.88E"}
{"date":"2010-02-01","average_temperature":"19.498","city":"Birganj","latitude":"26.52N","longitude":"84.18E"}
{"date":"2013-04-01","average_temperature":"18.659000000000002","city":"Bisho","latitude":"32.95S","longitude":"27.77E"}
{"date":"2013-09-01","city":"Bissau","latitude":"12.05N","longitude":"14.79W"}
{"date":"2010-06-01","average_temperature":"17.611","city":"Biysk","latitude":"52.24N","longitude":"84.09E"}
{"date":"2011-08-01","average_temperature":"16.854","city":"Biysk","latitude":"52.24N","longitude":"84.09E"}
{"date":"2013-02-01","average_temperature":"2.7560000000000002","city":"Blackburn","latitude":"53.84N","longitude":"1.36W"}
{"date":"2012-10-01","average_temperature":"10.302","city":"Blackpool","latitude":"53.84N","longitude":"4.09W"}
{"date":"2012-09-01","average_temperature":"24.047","city":"Blantyre","latitude":"15.27S","longitude":"35.83E"}
{"date":"2010-09-01","average_temperature":"25.936","city":"Bogor","latitude":"7.23S","longitude":"106.22E"}
{"date":"2011-07-01","average_temperature":"27.631","city":"Bojnurd","latitude":"37.78N","longitude":"56.95E"}
{"date":"2012-06-01","average_temperature":"12.655999999999999","city":"Bolton","latitude":"53.84N","longitude":"1.36W"}
{"date":"2011-09-01","average_temperature":"24.256","city":"Boma","latitude":"5.63S","longitude":"12.91E"}
{"date":"2011-12-01","average_temperature":"0.5700000000000001","city":"Borujerd","latitude":"34.56N","longitude":"48.65E"}
{"date":"2012-07-01","average_temperature":"22.683000000000003","city":"Boston","latitude":"42.59N","longitude":"72.00W"}
{"date":"2012-06-01","average_temperature":"18.095","city":"Botucatu","latitude":"23.31S","longitude":"48.06W"}
{"date":"2012-01-01","average_temperature":"1.704","city":"Bozhou","latitude":"32.95N","longitude":"115.85E"}
{"date":"2010-07-01","average_temperature":"22.131","city":"Braga","latitude":"40.99N","longitude":"8.52W"}
{"date":"2010-12-01","average_temperature":"23.216","city":"Bragança Paulista","latitude":"23.31S","longitude":"46.31W"}
{"date":"2011-07-01","average_temperature":"28.365","city":"Brahmapur","latitude":"18.48N","longitude":"84.51E"}
{"date":"2012-04-01","average_temperature":"7.747999999999998","city":"Bremerhaven","latitude":"53.84N","longitude":"9.55E"}
{"date":"2012-05-01","average_temperature":"25.461","city":"Brownsville","latitude":"26.52N","longitude":"96.72W"}
{"date":"2011-08-01","average_temperature":"17.822","city":"Bryansk","latitude":"53.84N","longitude":"34.09E"}
{"date":"2011-06-01","average_temperature":"26.217","city":"Bucaramanga","latitude":"7.23N","longitude":"73.78W"}
{"date":"2012-12-01","average_temperature":"26.58","city":"Bulaon","latitude":"15.27N","longitude":"120.83E"}
{"date":"2010-12-01","average_temperature":"22.456","city":"Bulawayo","latitude":"20.09S","longitude":"29.00E"}
{"date":"2010-01-01","average_temperature":"23.223000000000006","city":"Buon Me Thuot","latitude":"12.05N","longitude":"108.49E"}
{"date":"2012-10-01","average_temperature":"28.499","city":"Buraydah","latitude":"26.52N","longitude":"44.78E"}
{"date":"2012-02-01","average_temperature":"27.896","city":"Butterworth","latitude":"5.63N","longitude":"100.09E"}
{"date":"2013-07-01","average_temperature":"19.987000000000002","city":"Bytom","latitude":"50.63N","longitude":"19.01E"}
{"date":"2011-08-01","average_temperature":"26.794","city":"Cabanatuan","latitude":"15.27N","longitude":"120.83E"}
{"date":"2012-03-01","average_temperature":"27.883000000000003","city":"Cabanatuan","latitude":"15.27N","longitude":"120.83E"}
{"date":"2011-11-01","average_temperature":"9.571","city":"Caen","latitude":"49.03N","longitude":"0.00W"}
{"date":"2011-09-01","average_temperature":"21.394000000000002","city":"Cairns","latitude":"16.87S","longitude":"145.67E"}
{"date":"2010-06-01","average_temperature":"27.021","city":"Calabar","latitude":"5.63N","longitude":"8.07E"}
{"date":"2012-07-01","average_temperature":"24.491999999999997","city":"Camaçari","latitude":"12.05S","longitude":"37.81W"}
{"date":"2010-08-01","average_temperature":"28.501","city":"Camagüey","latitude":"21.70N","longitude":"78.75W"}
{"date":"2010-01-01","average_temperature":"27.953000000000007","city":"Campos","latitude":"21.70S","longitude":"40.67W"}
{"date":"2012-08-01","average_temperature":"25.823","city":"Caracas","latitude":"10.45N","longitude":"66.27W"}
{"date":"2011-09-01","average_temperature":"19.023","city":"Carapicuíba","latitude":"23.31S","longitude":"46.31W"}
{"date":"2010-07-01","average_temperature":"20.11","city":"Cariacica","latitude":"20.09S","longitude":"40.95W"}
{"date":"2011-12-01","average_temperature":"21.559","city":"Cartago","latitude":"4.02N","longitude":"76.34W"}
{"date":"2012-01-01","average_temperature":"21.840999999999998","city":"Cartago","latitude":"4.02N","longitude":"76.34W"}
{"date":"2012-12-01","average_temperature":"27.094","city":"Catanduva","latitude":"21.70S","longitude":"49.33W"}
{"date":"2011-01-01","average_temperature":"-9.267000000000001","city":"Cedar Rapids","latitude":"42.59N","longitude":"91.64W"}
{"date":"2012-07-01","average_temperature":"17.525000000000002","city":"Chalco","latitude":"20.09N","longitude":"98.96W"}
{"date":"2011-02-01","average_temperature":"18.342","city":"Chandausi","latitude":"28.13N","longitude":"79.09E"}
{"date":"2012-09-01","average_temperature":"29.246","city":"Chandausi","latitude":"28.13N","longitude":"79.09E"}
{"date":"2010-08-01","average_temperature":"27.835","city":"Chandrapur","latitude":"20.09N","longitude":"78.48E"}
{"date":"2012-02-01","average_temperature":"9.164","city":"Charlotte","latitude":"34.56N","longitude":"81.73W"}
{"date":"2011-09-01","average_temperature":"13.652000000000001","city":"Chelyabinsk","latitude":"55.45N","longitude":"62.36E"}
{"date":"2012-07-01","average_temperature":"19.22","city":"Chemnitz","latitude":"50.63N","longitude":"13.94E"}
{"date":"2011-05-01","average_temperature":"15.692","city":"Chengdu","latitude":"31.35N","longitude":"103.66E"}
{"date":"2010-01-01","average_temperature":"-12.645","city":"Chifeng","latitude":"42.59N","longitude":"120.00E"}
{"date":"2011-01-01","average_temperature":"19.421","city":"Chimbote","latitude":"8.84S","longitude":"78.65W"}
{"date":"2010-02-01","average_temperature":"25.930000000000003","city":"Chitradurga","latitude":"13.66N","longitude":"76.79E"}
{"date":"2011-10-01","average_temperature":"15.488","city":"Chofu","latitude":"36.17N","longitude":"139.23E"}
{"date":"2013-07-01","average_temperature":"19.987000000000002","city":"Chorzow","latitude":"50.63N","longitude":"19.01E"}
{"date":"2013-07-01","average_temperature":"13.343","city":"Chosica","latitude":"12.05S","longitude":"77.26W"}
{"date":"2011-09-01","average_temperature":"25.772","city":"Cianjur","latitude":"7.23S","longitude":"107.84E"}
{"date":"2012-11-01","average_temperature":"24.908","city":"Cienfuegos","latitude":"21.70N","longitude":"80.48W"}
{"date":"2012-04-01","average_temperature":"27.609","city":"Cilegon","latitude":"5.63S","longitude":"106.55E"}
{"date":"2013-07-01","average_temperature":"26.858","city":"Cilegon","latitude":"5.63S","longitude":"106.55E"}
{"date":"2010-09-01","average_temperature":"25.936","city":"Ciomas","latitude":"7.23S","longitude":"106.22E"}
{"date":"2011-09-01","average_temperature":"26.366","city":"Ciomas","latitude":"7.23S","longitude":"106.22E"}
{"date":"2013-07-01","average_temperature":"26.1","city":"Ciomas","latitude":"7.23S","longitude":"106.22E"}
{"date":"2013-06-01","average_temperature":"27.879","city":"Cisarua","latitude":"5.63S","longitude":"106.55E"}
{"date":"2012-03-01","average_temperature":"16.292","city":"Clarksville","latitude":"36.17N","longitude":"87.51W"}
{"date":"2010-05-01","average_temperature":"10.765","city":"Clermont Ferrand","latitude":"45.81N","longitude":"3.46E"}
{"date":"2013-03-01","average_temperature":"1.285","city":"Cleveland","latitude":"40.99N","longitude":"80.95W"}
{"date":"2012-10-01","average_temperature":"26.801","city":"Coatzacoalcos","latitude":"18.48N","longitude":"94.65W"}
{"date":"2012-02-01","average_temperature":"9.164","city":"Columbia","latitude":"34.56N","longitude":"81.73W"}
{"date":"2012-10-01","average_temperature":"11.831","city":"Comodoro Rivadavia","latitude":"45.81S","longitude":"68.08W"}
{"date":"2010-07-01","average_temperature":"4.621","city":"Copiapo","latitude":"28.13S","longitude":"70.00W"}
{"date":"2011-02-01","average_temperature":"21.976999999999997","city":"Cordoba","latitude":"31.35S","longitude":"64.08W"}
{"date":"2010-01-01","average_temperature":"29.590999999999998","city":"Cotonou","latitude":"7.23N","longitude":"2.43E"}
{"date":"2010-02-01","average_temperature":"0.456","city":"Craiova","latitude":"44.20N","longitude":"24.60E"}
{"date":"2010-02-01","average_temperature":"4.683","city":"Crawley","latitude":"50.63N","longitude":"1.27W"}
{"date":"2011-02-01","average_temperature":"27.034000000000002","city":"Curug","latitude":"5.63S","longitude":"106.55E"}
{"date":"2010-04-01","average_temperature":"16.746","city":"Daan","latitude":"29.74N","longitude":"105.23E"}
{"date":"2012-09-01","average_temperature":"31.005","city":"Dadu","latitude":"26.52N","longitude":"68.06E"}
{"date":"2010-01-01","average_temperature":"6.87","city":"Dali","latitude":"26.52N","longitude":"100.30E"}
{"date":"2011-12-01","average_temperature":"6.811","city":"Dali","latitude":"26.52N","longitude":"100.30E"}
{"date":"2011-12-01","average_temperature":"-1.779","city":"Dalian","latitude":"39.38N","longitude":"120.69E"}
{"date":"2012-04-01","average_temperature":"20.552","city":"Dallas","latitude":"32.95N","longitude":"96.70W"}
{"date":"2010-11-01","average_temperature":"21.565","city":"Darjiling","latitude":"26.52N","longitude":"87.76E"}
{"date":"2013-09-01","city":"Darjiling","latitude":"26.52N","longitude":"87.76E"}
{"date":"2012-10-01","average_temperature":"5.353","city":"Datong","latitude":"40.99N","longitude":"112.90E"}
{"date":"2010-10-01","average_temperature":"26.581","city":"Dehri","latitude":"24.92N","longitude":"83.35E"}
{"date":"2011-05-01","average_temperature":"22.486","city":"Delicias","latitude":"28.13N","longitude":"106.36W"}
{"date":"2012-04-01","average_temperature":"27.609","city":"Depok","latitude":"5.63S","longitude":"106.55E"}
{"date":"2010-04-01","average_temperature":"11.083","city":"Detroit","latitude":"42.59N","longitude":"82.91W"}
{"date":"2010-06-01","average_temperature":"17.266000000000002","city":"Deyang","latitude":"31.35N","longitude":"103.66E"}
{"date":"2011-05-01","average_temperature":"28.569000000000003","city":"Dhaka","latitude":"23.31N","longitude":"90.00E"}
{"date":"2010-10-01","average_temperature":"26.889","city":"Dharmavaram","latitude":"15.27N","longitude":"77.50E"}
{"date":"2010-06-01","average_temperature":"23.211","city":"Didao","latitude":"45.81N","longitude":"130.38E"}
{"date":"2011-01-01","average_temperature":"26.949","city":"Divo","latitude":"5.63N","longitude":"4.84W"}
{"date":"2011-07-01","average_temperature":"25.494","city":"Divo","latitude":"5.63N","longitude":"4.84W"}
{"date":"2010-04-01","average_temperature":"16.846","city":"Do Rud","latitude":"32.95N","longitude":"48.83E"}
{"date":"2010-09-01","average_temperature":"13.661","city":"Dordrecht","latitude":"52.24N","longitude":"5.26E"}
{"date":"2013-03-01","average_temperature":"-0.4119999999999999","city":"Dresden","latitude":"50.63N","longitude":"13.94E"}
{"date":"2012-08-01","average_temperature":"23.397","city":"Drobeta Turnu Severin","latitude":"44.20N","longitude":"22.36E"}
{"date":"2012-07-01","average_temperature":"12.559000000000001","city":"Dundee","latitude":"57.05N","longitude":"4.43W"}
{"date":"2011-05-01","average_temperature":"20.261","city":"Durban","latitude":"29.74S","longitude":"31.38E"}
{"date":"2013-07-01","average_temperature":"29.092","city":"Durgapur","latitude":"23.31N","longitude":"86.50E"}
{"date":"2011-02-01","average_temperature":"-14.499","city":"Dzerzhinsk","latitude":"57.05N","longitude":"42.79E"}
{"date":"2013-09-01","city":"Ede","latitude":"52.24N","longitude":"5.26E"}
{"date":"2012-11-01","average_temperature":"27.581999999999997","city":"Ejigbo","latitude":"7.23N","longitude":"4.05E"}
{"date":"2010-04-01","average_temperature":"10.620999999999999","city":"Elista","latitude":"45.81N","longitude":"45.00E"}
{"date":"2012-08-01","average_temperature":"26.003","city":"Enugu","latitude":"7.23N","longitude":"7.30E"}
{"date":"2011-03-01","average_temperature":"19.39","city":"Envigado","latitude":"5.63N","longitude":"75.87W"}
{"date":"2013-09-01","city":"Envigado","latitude":"5.63N","longitude":"75.87W"}
{"date":"2010-05-01","average_temperature":"16.707","city":"Eskisehir","latitude":"39.38N","longitude":"31.21E"}
{"date":"2012-08-01","average_temperature":"26.755","city":"Eslamshahr","latitude":"36.17N","longitude":"51.71E"}
{"date":"2012-03-01","average_temperature":"8.16","city":"Essen","latitude":"50.63N","longitude":"6.34E"}
{"date":"2010-03-01","average_temperature":"8.937000000000003","city":"Evansville","latitude":"37.78N","longitude":"87.46W"}
{"date":"2011-12-01","average_temperature":"5.252000000000001","city":"Evansville","latitude":"37.78N","longitude":"87.46W"}
{"date":"2012-02-01","average_temperature":"-2.929","city":"Fürth","latitude":"49.03N","longitude":"9.80E"}
{"date":"2012-12-01","average_temperature":"-11.968","city":"Fengcheng","latitude":"40.99N","longitude":"123.55E"}
{"date":"2011-04-01","average_temperature":"22.695999999999998","city":"Florianópolis","latitude":"28.13S","longitude":"48.18W"}
{"date":"2012-01-01","average_temperature":"28.15","city":"Formosa","latitude":"26.52S","longitude":"57.31W"}
{"date":"2011-09-01","average_temperature":"24.081999999999997","city":"Franca","latitude":"20.09S","longitude":"47.77W"}
{"date":"2011-12-01","average_temperature":"23.238000000000003","city":"Franca","latitude":"20.09S","longitude":"47.77W"}
{"date":"2012-04-01","average_temperature":"14.645","city":"Fresno","latitude":"36.17N","longitude":"119.34W"}
{"date":"2012-06-01","average_temperature":"19.359","city":"Fuchu","latitude":"36.17N","longitude":"139.23E"}
{"date":"2012-09-01","average_temperature":"25.197","city":"Fujinomiya","latitude":"34.56N","longitude":"138.16E"}
{"date":"2010-05-01","average_temperature":"15.248","city":"Fullerton","latitude":"32.95N","longitude":"117.77W"}
{"date":"2010-05-01","average_temperature":"15.595999999999998","city":"Fushun","latitude":"40.99N","longitude":"123.55E"}
{"date":"2013-09-01","city":"Fuxin","latitude":"42.59N","longitude":"122.18E"}
{"date":"2010-04-01","average_temperature":"5.726","city":"Göteborg","latitude":"58.66N","longitude":"12.31E"}
{"date":"2010-07-01","average_temperature":"21.193","city":"Göttingen","latitude":"52.24N","longitude":"10.51E"}
{"date":"2010-05-01","average_temperature":"17.512999999999998","city":"Galati","latitude":"45.81N","longitude":"28.85E"}
{"date":"2010-08-01","average_temperature":"28.225","city":"Gandhinagar","latitude":"23.31N","longitude":"72.52E"}
{"date":"2011-07-01","average_temperature":"28.354","city":"Gaozhou","latitude":"21.70N","longitude":"111.63E"}
{"date":"2011-02-01","average_temperature":"29.2","city":"Garoua","latitude":"8.84N","longitude":"13.78E"}
{"date":"2011-06-01","average_temperature":"25.349","city":"Garut","latitude":"7.23S","longitude":"107.84E"}
{"date":"2011-10-01","average_temperature":"23.153","city":"Garza García","latitude":"26.52N","longitude":"100.30W"}
{"date":"2012-11-01","average_temperature":"18.974","city":"Garza García","latitude":"26.52N","longitude":"100.30W"}
{"date":"2012-09-01","average_temperature":"23.715","city":"Gaziantep","latitude":"37.78N","longitude":"36.61E"}
{"date":"2011-11-01","average_temperature":"3.3369999999999997","city":"Gdynia","latitude":"53.84N","longitude":"17.73E"}
{"date":"2012-09-01","average_temperature":"11.71","city":"Geelong","latitude":"37.78S","longitude":"144.41E"}
{"date":"2011-07-01","average_temperature":"16.557000000000002","city":"Gelsenkirchen","latitude":"52.24N","longitude":"7.88E"}
{"date":"2011-08-01","average_temperature":"24.515","city":"Gemena","latitude":"4.02N","longitude":"20.09E"}
{"date":"2011-07-01","average_temperature":"29.947","city":"General Escobedo","latitude":"26.52N","longitude":"100.30W"}
{"date":"2012-11-01","average_temperature":"5.6610000000000005","city":"Geneva","latitude":"45.81N","longitude":"5.77E"}
{"date":"2013-06-01","average_temperature":"15.97","city":"Geneva","latitude":"45.81N","longitude":"5.77E"}
{"date":"2010-03-01","average_temperature":"6.6720000000000015","city":"Getafe","latitude":"40.99N","longitude":"4.26W"}
{"date":"2010-09-01","average_temperature":"12.595999999999998","city":"Gliwice","latitude":"50.63N","longitude":"19.01E"}
{"date":"2011-11-01","average_temperature":"3.315","city":"Gliwice","latitude":"50.63N","longitude":"19.01E"}
{"date":"2010-11-01","average_temperature":"24.212","city":"Governador Valadares","latitude":"18.48S","longitude":"42.25W"}
{"date":"2011-07-01","average_temperature":"24.539","city":"Grand Rapids","latitude":"42.59N","longitude":"85.09W"}
{"date":"2010-07-01","average_temperature":"22.783","city":"Guadalajara","latitude":"20.09N","longitude":"104.08W"}
{"date":"2010-12-01","average_temperature":"16.711000000000002","city":"Guadalajara","latitude":"20.09N","longitude":"104.08W"}
{"date":"2011-05-01","average_temperature":"17.857","city":"Guarulhos","latitude":"23.31S","longitude":"46.31W"}
{"date":"2013-05-01","average_temperature":"26.581","city":"Guatire","latitude":"10.45N","longitude":"66.27W"}
{"date":"2011-04-01","average_temperature":"19.188","city":"Guilin","latitude":"24.92N","longitude":"109.95E"}
{"date":"2012-03-01","average_temperature":"23.686","city":"Gurgaon","latitude":"28.13N","longitude":"77.27E"}
{"date":"2012-02-01","average_temperature":"-2.752","city":"Gyor","latitude":"47.42N","longitude":"17.76E"}
{"date":"2011-08-01","average_temperature":"27.376","city":"Habikino","latitude":"34.56N","longitude":"136.22E"}
{"date":"2013-04-01","average_temperature":"6.952000000000001","city":"Hachinohe","latitude":"40.99N","longitude":"140.59E"}
{"date":"2011-01-01","average_temperature":"11.794","city":"Haifa","latitude":"32.95N","longitude":"35.43E"}
{"date":"2012-07-01","average_temperature":"29.68","city":"Halisahar","latitude":"23.31N","longitude":"88.25E"}
{"date":"2012-11-01","average_temperature":"14.120999999999999","city":"Hamilton","latitude":"37.78S","longitude":"174.92E"}
{"date":"2010-11-01","average_temperature":"22.7","city":"Hargeysa","latitude":"8.84N","longitude":"44.59E"}
{"date":"2011-02-01","average_temperature":"16.454","city":"Haridwar","latitude":"29.74N","longitude":"77.54E"}
{"date":"2011-11-01","average_temperature":"6.131","city":"Herne","latitude":"52.24N","longitude":"7.88E"}
{"date":"2010-04-01","average_temperature":"8.168000000000001","city":"Highlands Ranch","latitude":"39.38N","longitude":"104.05W"}
{"date":"2013-02-01","average_temperature":"2.046","city":"Hino","latitude":"36.17N","longitude":"139.23E"}
{"date":"2013-06-01","average_temperature":"20.927","city":"Hino","latitude":"36.17N","longitude":"139.23E"}
{"date":"2012-11-01","average_temperature":"25.369","city":"Holguín","latitude":"20.09N","longitude":"76.78W"}
{"date":"2013-08-01","average_temperature":"28.491999999999997","city":"Holguín","latitude":"20.09N","longitude":"76.78W"}
{"date":"2013-02-01","average_temperature":"19.834","city":"Hollywood","latitude":"26.52N","longitude":"80.60W"}
{"date":"2013-03-01","average_temperature":"23.188000000000002","city":"Hortolândia","latitude":"23.31S","longitude":"48.06W"}
{"date":"2011-06-01","average_temperature":"24.316","city":"Houma","latitude":"36.17N","longitude":"111.38E"}
{"date":"2011-10-01","average_temperature":"12.091","city":"Houma","latitude":"36.17N","longitude":"111.38E"}
{"date":"2011-03-01","average_temperature":"9.533999999999999","city":"Huainan","latitude":"32.95N","longitude":"117.77E"}
{"date":"2010-01-01","average_temperature":"-5.3050000000000015","city":"Huangcun","latitude":"39.38N","longitude":"116.53E"}
{"date":"2010-07-01","average_temperature":"28.239","city":"Huangcun","latitude":"39.38N","longitude":"116.53E"}
{"date":"2010-05-01","average_temperature":"29.685","city":"Hubli","latitude":"15.27N","longitude":"75.83E"}
{"date":"2010-10-01","average_temperature":"25.154","city":"Hubli","latitude":"15.27N","longitude":"75.83E"}
{"date":"2013-05-01","average_temperature":"10.322000000000001","city":"Huddersfield","latitude":"53.84N","longitude":"1.36W"}
{"date":"2012-09-01","average_temperature":"26.684","city":"Humen","latitude":"23.31N","longitude":"114.47E"}
{"date":"2012-12-01","average_temperature":"5.167999999999998","city":"Huzhou","latitude":"31.35N","longitude":"120.63E"}
{"date":"2013-05-01","average_temperature":"18.121","city":"Iasi","latitude":"47.42N","longitude":"27.24E"}
{"date":"2013-08-01","average_temperature":"21.451","city":"Ibagué","latitude":"4.02N","longitude":"74.73W"}
{"date":"2012-08-01","average_temperature":"30.296999999999997","city":"Ibb","latitude":"13.66N","longitude":"43.76E"}
{"date":"2013-06-01","average_temperature":"20.927","city":"Ichikawa","latitude":"36.17N","longitude":"139.23E"}
{"date":"2010-08-01","average_temperature":"28.454","city":"Ichinomiya","latitude":"34.56N","longitude":"136.22E"}
{"date":"2010-10-01","average_temperature":"18.380000000000006","city":"Ichinomiya","latitude":"34.56N","longitude":"136.22E"}
{"date":"2011-01-01","average_temperature":"27.29","city":"Ikirun","latitude":"7.23N","longitude":"4.05E"}
{"date":"2013-02-01","average_temperature":"29.055","city":"Ilawe","latitude":"7.23N","longitude":"5.68E"}
{"date":"2010-04-01","average_temperature":"30.423000000000002","city":"Ilesha","latitude":"8.84N","longitude":"4.05E"}
{"date":"2013-03-01","average_temperature":"26.624000000000002","city":"Iligan","latitude":"8.84N","longitude":"124.05E"}
{"date":"2010-07-01","average_temperature":"25.426","city":"Ilobu","latitude":"7.23N","longitude":"4.05E"}
{"date":"2012-10-01","average_temperature":"27.683000000000003","city":"Iloilo","latitude":"10.45N","longitude":"121.91E"}
{"date":"2010-01-01","average_temperature":"26.72","city":"Imperatriz","latitude":"5.63S","longitude":"46.82W"}
{"date":"2013-01-01","average_temperature":"23.175","city":"Indaiatuba","latitude":"23.31S","longitude":"48.06W"}
{"date":"2010-03-01","average_temperature":"6.9350000000000005","city":"Indianapolis","latitude":"39.38N","longitude":"85.32W"}
{"date":"2011-09-01","average_temperature":"15.61","city":"Ingolstadt","latitude":"49.03N","longitude":"12.24E"}
{"date":"2010-01-01","average_temperature":"24.761999999999997","city":"Ipatinga","latitude":"20.09S","longitude":"42.65W"}
{"date":"2012-09-01","average_temperature":"13.901","city":"Ipswich","latitude":"52.24N","longitude":"0.00W"}
{"date":"2010-01-01","average_temperature":"14.686","city":"Iráklion","latitude":"34.56N","longitude":"25.30E"}
{"date":"2010-11-01","average_temperature":"9.515","city":"Isehara","latitude":"36.17N","longitude":"139.23E"}
{"date":"2010-10-01","average_temperature":"15.880999999999998","city":"Isesaki","latitude":"36.17N","longitude":"139.23E"}
{"date":"2011-08-01","average_temperature":"23.325","city":"Itaboraí","latitude":"23.31S","longitude":"42.82W"}
{"date":"2011-04-01","average_temperature":"25.366999999999997","city":"Itabuna","latitude":"15.27S","longitude":"39.17W"}
{"date":"2013-02-01","average_temperature":"19.482","city":"Itagüí","latitude":"5.63N","longitude":"75.87W"}
{"date":"2012-01-01","average_temperature":"22.358","city":"Itu","latitude":"23.31S","longitude":"48.06W"}
{"date":"2012-08-01","average_temperature":"27.962","city":"Izmir","latitude":"37.78N","longitude":"26.44E"}
{"date":"2012-07-01","average_temperature":"35.99500000000001","city":"Jacobabad","latitude":"28.13N","longitude":"68.18E"}
{"date":"2013-09-01","city":"Jaunpur","latitude":"26.52N","longitude":"82.39E"}
{"date":"2012-12-01","average_temperature":"25.745","city":"Jequié","latitude":"13.66S","longitude":"40.46W"}
{"date":"2013-04-01","average_temperature":"9.722999999999999","city":"Jersey City","latitude":"40.99N","longitude":"74.56W"}
{"date":"2011-12-01","average_temperature":"5.606","city":"Jiangyin","latitude":"31.35N","longitude":"120.63E"}
{"date":"2010-05-01","average_temperature":"14.200999999999999","city":"Jilin","latitude":"44.20N","longitude":"127.45E"}
{"date":"2011-11-01","average_temperature":"15.575","city":"Jingdezhen","latitude":"29.74N","longitude":"116.31E"}
{"date":"2012-03-01","average_temperature":"8.116","city":"Jining","latitude":"34.56N","longitude":"116.76E"}
{"date":"2010-04-01","average_temperature":"23.452","city":"Jiutepec","latitude":"18.48N","longitude":"99.72W"}
{"date":"2012-07-01","average_temperature":"22.386","city":"Jixi","latitude":"45.81N","longitude":"130.38E"}
{"date":"2012-04-01","average_temperature":"18.742","city":"Juarez","latitude":"31.35N","longitude":"105.55W"}
{"date":"2013-05-01","average_temperature":"21.037","city":"Juarez","latitude":"31.35N","longitude":"105.55W"}
{"date":"2011-09-01","average_temperature":"22.068","city":"Kabul","latitude":"34.56N","longitude":"70.05E"}
{"date":"2013-05-01","average_temperature":"18.358","city":"Kadoma","latitude":"34.56N","longitude":"136.22E"}
{"date":"2012-01-01","average_temperature":"1.746","city":"Kahramanmaras","latitude":"37.78N","longitude":"36.61E"}
{"date":"2010-12-01","average_temperature":"20.183","city":"Kalol","latitude":"23.31N","longitude":"72.52E"}
{"date":"2010-10-01","average_temperature":"15.880999999999998","city":"Kamagaya","latitude":"36.17N","longitude":"139.23E"}
{"date":"2011-08-01","average_temperature":"31.273000000000003","city":"Kamalia","latitude":"31.35N","longitude":"73.51E"}
{"date":"2013-06-01","average_temperature":"34.455999999999996","city":"Kamalia","latitude":"31.35N","longitude":"73.51E"}
{"date":"2011-06-01","average_temperature":"29.873","city":"Kamarhati","latitude":"23.31N","longitude":"88.25E"}
{"date":"2012-04-01","average_temperature":"23.546999999999997","city":"Kampala","latitude":"0.80N","longitude":"32.95E"}
{"date":"2010-08-01","average_temperature":"30.081","city":"Kanchipuram","latitude":"13.66N","longitude":"80.09E"}
{"date":"2012-02-01","average_temperature":"3.725","city":"Kansas City","latitude":"39.38N","longitude":"93.64W"}
{"date":"2011-01-01","average_temperature":"25.965","city":"Karang Tengah","latitude":"7.23S","longitude":"106.22E"}
{"date":"2011-03-01","average_temperature":"29.377","city":"Karimnagar","latitude":"18.48N","longitude":"79.44E"}
{"date":"2011-03-01","average_temperature":"7.353","city":"Karlsruhe","latitude":"49.03N","longitude":"7.35E"}
{"date":"2013-05-01","average_temperature":"32.561","city":"Karnal","latitude":"29.74N","longitude":"77.54E"}
{"date":"2010-06-01","average_temperature":"17.059","city":"Kassel","latitude":"50.63N","longitude":"8.87E"}
{"date":"2011-11-01","average_temperature":"3.315","city":"Katowice","latitude":"50.63N","longitude":"19.01E"}
{"date":"2012-09-01","average_temperature":"24.467","city":"Kawanishi","latitude":"34.56N","longitude":"136.22E"}
{"date":"2010-02-01","average_temperature":"-13.281","city":"Kazan","latitude":"55.45N","longitude":"48.19E"}
{"date":"2012-07-01","average_temperature":"32.665","city":"Khanna","latitude":"31.35N","longitude":"75.39E"}
{"date":"2011-01-01","average_temperature":"13.518","city":"Khanpur","latitude":"28.13N","longitude":"70.00E"}
{"date":"2010-01-01","average_temperature":"17.503","city":"Khardaha","latitude":"23.31N","longitude":"88.25E"}
{"date":"2010-04-01","average_temperature":"32.318000000000005","city":"Khardaha","latitude":"23.31N","longitude":"88.25E"}
{"date":"2010-03-01","average_temperature":"2.496","city":"Kherson","latitude":"47.42N","longitude":"31.97E"}
{"date":"2013-06-01","average_temperature":"28.771","city":"Khlong Luang","latitude":"13.66N","longitude":"99.91E"}
{"date":"2011-10-01","average_temperature":"18.272","city":"Khorramabad","latitude":"32.95N","longitude":"48.83E"}
{"date":"2010-01-01","average_temperature":"16.169","city":"Khorramshahr","latitude":"29.74N","longitude":"48.00E"}
{"date":"2010-11-01","average_temperature":"5.367000000000001","city":"Khujand","latitude":"40.99N","longitude":"70.30E"}
{"date":"2010-06-01","average_temperature":"15.911","city":"Kiel","latitude":"53.84N","longitude":"9.55E"}
{"date":"2010-04-01","average_temperature":"29.738000000000003","city":"Kochi","latitude":"10.45N","longitude":"76.09E"}
{"date":"2013-05-01","average_temperature":"29.614","city":"Kolhapur","latitude":"16.87N","longitude":"73.67E"}
{"date":"2012-10-01","average_temperature":"6.562","city":"Kolomna","latitude":"55.45N","longitude":"39.69E"}
{"date":"2013-03-01","average_temperature":"27.836","city":"Korba","latitude":"21.70N","longitude":"82.21E"}
{"date":"2012-11-01","average_temperature":"0.2270000000000003","city":"Kovrov","latitude":"57.05N","longitude":"42.79E"}
{"date":"2012-11-01","average_temperature":"7.551","city":"Krasnodar","latitude":"45.81N","longitude":"38.08E"}
{"date":"2011-01-01","average_temperature":"25.195999999999998","city":"Kuantan","latitude":"4.02N","longitude":"103.66E"}
{"date":"2012-10-01","average_temperature":"26.786","city":"Kumasi","latitude":"7.23N","longitude":"0.81W"}
{"date":"2012-06-01","average_temperature":"31.496","city":"Kumbakonam","latitude":"10.45N","longitude":"79.36E"}
{"date":"2012-03-01","average_temperature":"-14.124","city":"Kyzyl","latitude":"52.24N","longitude":"94.60E"}
{"date":"2012-08-01","average_temperature":"14.332","city":"La Rioja","latitude":"29.74S","longitude":"66.46W"}
{"date":"2011-02-01","average_temperature":"23.484","city":"Lages","latitude":"28.13S","longitude":"50.00W"}
{"date":"2010-07-01","average_temperature":"26.835","city":"Lahad Datu","latitude":"5.63N","longitude":"117.85E"}
{"date":"2011-05-01","average_temperature":"27.084","city":"Lampang","latitude":"18.48N","longitude":"99.72E"}
{"date":"2011-08-01","average_temperature":"28.28","city":"Laoag","latitude":"18.48N","longitude":"120.00E"}
{"date":"2010-12-01","average_temperature":"4.97","city":"Laohekou","latitude":"32.95N","longitude":"112.02E"}
{"date":"2010-02-01","average_temperature":"27.521","city":"Lapu Lapu","latitude":"10.45N","longitude":"123.55E"}
{"date":"2011-11-01","average_temperature":"27.653000000000002","city":"Lapu Lapu","latitude":"10.45N","longitude":"123.55E"}
{"date":"2012-12-01","average_temperature":"18.590999999999998","city":"Las Palmas","latitude":"28.13N","longitude":"15.45W"}
{"date":"2012-08-01","average_temperature":"20.941000000000006","city":"Le Mans","latitude":"47.42N","longitude":"1.18E"}
{"date":"2010-06-01","average_temperature":"16.213","city":"Leiden","latitude":"52.24N","longitude":"5.26E"}
{"date":"2011-12-01","average_temperature":"5.722","city":"Leiden","latitude":"52.24N","longitude":"5.26E"}
{"date":"2012-03-01","average_temperature":"0.0069999999999999785","city":"Liaoyang","latitude":"40.99N","longitude":"123.55E"}
{"date":"2011-08-01","average_temperature":"29.136000000000006","city":"Licheng","latitude":"23.31N","longitude":"114.47E"}
{"date":"2010-08-01","average_temperature":"22.892","city":"Linfen","latitude":"36.17N","longitude":"111.38E"}
{"date":"2011-06-01","average_temperature":"27.546","city":"Lipa","latitude":"13.66N","longitude":"121.38E"}
{"date":"2012-11-01","average_temperature":"10.686","city":"Little Rock","latitude":"34.56N","longitude":"91.46W"}
{"date":"2012-12-01","average_temperature":"7.893","city":"Lleida","latitude":"40.99N","longitude":"0.00W"}
{"date":"2011-01-01","average_temperature":"25.134","city":"Londrina","latitude":"23.31S","longitude":"51.55W"}
{"date":"2013-07-01","average_temperature":"23.432","city":"Longjiang","latitude":"47.42N","longitude":"124.34E"}
{"date":"2010-05-01","average_temperature":"15.895","city":"Los Angeles","latitude":"34.56N","longitude":"118.70W"}
{"date":"2010-10-01","average_temperature":"15.228","city":"Los Reyes","latitude":"20.09N","longitude":"98.96W"}
{"date":"2012-12-01","average_temperature":"24.921","city":"Los Teques","latitude":"10.45N","longitude":"66.27W"}
{"date":"2011-06-01","average_temperature":"25.268","city":"Luan","latitude":"31.35N","longitude":"116.86E"}
{"date":"2011-10-01","average_temperature":"23.59","city":"Lubango","latitude":"15.27S","longitude":"14.17E"}
{"date":"2011-02-01","average_temperature":"3.1210000000000004","city":"Ludwigshafen","latitude":"49.03N","longitude":"7.35E"}
{"date":"2010-08-01","average_temperature":"25.562","city":"Lumajang","latitude":"8.84S","longitude":"112.70E"}
{"date":"2013-09-01","city":"Luohe","latitude":"32.95N","longitude":"113.94E"}
{"date":"2011-05-01","average_temperature":"22.93","city":"Luzhou","latitude":"29.74N","longitude":"105.23E"}
{"date":"2012-01-01","average_temperature":"3.377","city":"Münster","latitude":"52.24N","longitude":"7.88E"}
{"date":"2012-03-01","average_temperature":"13.751","city":"Maba","latitude":"24.92N","longitude":"113.50E"}
{"date":"2010-02-01","average_temperature":"25.93","city":"Madanapalle","latitude":"13.66N","longitude":"78.44E"}
{"date":"2010-06-01","average_temperature":"31.075","city":"Madhyamgram","latitude":"23.31N","longitude":"88.25E"}
{"date":"2011-04-01","average_temperature":"27.198","city":"Madurai","latitude":"10.45N","longitude":"77.73E"}
{"date":"2011-05-01","average_temperature":"28.686","city":"Magangué","latitude":"8.84N","longitude":"75.41W"}
{"date":"2012-08-01","average_temperature":"18.599","city":"Magdeburg","latitude":"52.24N","longitude":"10.51E"}
{"date":"2011-03-01","average_temperature":"31.445999999999998","city":"Maiduguri","latitude":"12.05N","longitude":"13.15E"}
{"date":"2010-08-01","average_temperature":"26.868000000000002","city":"Malambo","latitude":"10.45N","longitude":"74.45W"}
{"date":"2011-03-01","average_temperature":"27.616999999999997","city":"Malegaon","latitude":"20.09N","longitude":"75.07E"}
{"date":"2013-01-01","average_temperature":"21.014000000000006","city":"Mandalay","latitude":"21.70N","longitude":"96.06E"}
{"date":"2013-06-01","average_temperature":"30.229","city":"Mandalay","latitude":"21.70N","longitude":"96.06E"}
{"date":"2011-11-01","average_temperature":"27.653000000000002","city":"Mandaue","latitude":"10.45N","longitude":"123.55E"}
{"date":"2012-02-01","average_temperature":"25.513","city":"Mandya","latitude":"12.05N","longitude":"77.26E"}
{"date":"2013-09-01","city":"Mannheim","latitude":"49.03N","longitude":"7.35E"}
{"date":"2013-05-01","average_temperature":"27.537000000000006","city":"Marabá","latitude":"5.63S","longitude":"48.43W"}
{"date":"2013-02-01","average_temperature":"26.017","city":"Maradi","latitude":"13.66N","longitude":"7.43E"}
{"date":"2012-02-01","average_temperature":"-2.8120000000000003","city":"Maragheh","latitude":"37.78N","longitude":"46.78E"}
{"date":"2013-02-01","average_temperature":"26.65","city":"Marawi","latitude":"7.23N","longitude":"124.05E"}
{"date":"2011-12-01","average_temperature":"25.314","city":"Maringá","latitude":"23.31S","longitude":"51.55W"}
{"date":"2012-08-01","average_temperature":"38.07","city":"Masjed E Soleyman","latitude":"31.35N","longitude":"49.01E"}
{"date":"2011-01-01","average_temperature":"2.86","city":"Matsubara","latitude":"34.56N","longitude":"136.22E"}
{"date":"2013-08-01","average_temperature":"32.6","city":"Mecca","latitude":"21.70N","longitude":"40.67E"}
{"date":"2012-08-01","average_temperature":"26.756","city":"Memphis","latitude":"34.56N","longitude":"89.51W"}
{"date":"2010-07-01","average_temperature":"27.302","city":"Mergui","latitude":"12.05N","longitude":"98.63E"}
{"date":"2010-08-01","average_temperature":"31.432","city":"Mesquite","latitude":"32.95N","longitude":"96.70W"}
{"date":"2012-05-01","average_temperature":"18.055","city":"Messina","latitude":"37.78N","longitude":"16.27E"}
{"date":"2012-02-01","average_temperature":"15.759","city":"Metairie","latitude":"29.74N","longitude":"90.46W"}
{"date":"2011-05-01","average_temperature":"15.477","city":"Metz","latitude":"49.03N","longitude":"7.35E"}
{"date":"2010-11-01","average_temperature":"8.875","city":"Mingshui","latitude":"36.17N","longitude":"117.35E"}
{"date":"2011-02-01","average_temperature":"25.759","city":"Miri","latitude":"4.02N","longitude":"113.30E"}
{"date":"2011-05-01","average_temperature":"33.273","city":"Mirpur Khas","latitude":"24.92N","longitude":"69.16E"}
{"date":"2012-08-01","average_temperature":"29.28","city":"Mirzapur","latitude":"24.92N","longitude":"83.35E"}
{"date":"2013-09-01","city":"Mirzapur","latitude":"24.92N","longitude":"83.35E"}
{"date":"2010-07-01","average_temperature":"26.26","city":"Mishima","latitude":"34.56N","longitude":"138.16E"}
{"date":"2013-01-01","average_temperature":"18.072","city":"Mixco","latitude":"15.27N","longitude":"90.83W"}
{"date":"2013-04-01","average_temperature":"21.511","city":"Mixco","latitude":"15.27N","longitude":"90.83W"}
{"date":"2012-12-01","average_temperature":"3.743","city":"Modesto","latitude":"37.78N","longitude":"120.00W"}
{"date":"2010-03-01","average_temperature":"18.191","city":"Monterrey","latitude":"26.52N","longitude":"100.30W"}
{"date":"2011-09-01","average_temperature":"22.636999999999997","city":"Montes Claros","latitude":"16.87S","longitude":"43.53W"}
{"date":"2011-09-01","average_temperature":"28.945","city":"Motihari","latitude":"26.52N","longitude":"84.18E"}
{"date":"2012-10-01","average_temperature":"25.633000000000003","city":"Motihari","latitude":"26.52N","longitude":"84.18E"}
{"date":"2010-11-01","average_temperature":"28.038","city":"Mubi","latitude":"10.45N","longitude":"13.91E"}
{"date":"2012-11-01","average_temperature":"27.741","city":"Mubi","latitude":"10.45N","longitude":"13.91E"}
{"date":"2013-06-01","average_temperature":"18.196","city":"Mufulira","latitude":"12.05S","longitude":"27.95E"}
{"date":"2010-11-01","average_temperature":"20.836","city":"Multan","latitude":"29.74N","longitude":"72.00E"}
{"date":"2013-06-01","average_temperature":"12.968","city":"Murmansk","latitude":"68.31N","longitude":"34.70E"}
{"date":"2010-03-01","average_temperature":"6.103","city":"Musashino","latitude":"36.17N","longitude":"139.23E"}
{"date":"2011-06-01","average_temperature":"21.085","city":"Musashino","latitude":"36.17N","longitude":"139.23E"}
{"date":"2011-10-01","average_temperature":"23.883000000000003","city":"Mwanza","latitude":"2.41S","longitude":"32.95E"}
{"date":"2012-07-01","average_temperature":"27.098000000000003","city":"Nador","latitude":"34.56N","longitude":"3.89W"}
{"date":"2013-02-01","average_temperature":"2.046","city":"Nagareyama","latitude":"36.17N","longitude":"139.23E"}
{"date":"2010-10-01","average_temperature":"26.451999999999998","city":"Nagda","latitude":"23.31N","longitude":"76.02E"}
{"date":"2011-04-01","average_temperature":"29.999","city":"Nagda","latitude":"23.31N","longitude":"76.02E"}
{"date":"2011-03-01","average_temperature":"28.878","city":"Nagercoil","latitude":"8.84N","longitude":"77.03E"}
{"date":"2010-12-01","average_temperature":"7.487","city":"Nagoya","latitude":"34.56N","longitude":"136.22E"}
{"date":"2012-11-01","average_temperature":"17.045","city":"Nakuru","latitude":"0.80S","longitude":"36.16E"}
{"date":"2010-10-01","average_temperature":"12.685","city":"Namangan","latitude":"40.99N","longitude":"72.43E"}
{"date":"2010-07-01","average_temperature":"27.474","city":"Nanchong","latitude":"31.35N","longitude":"105.55E"}
{"date":"2012-12-01","average_temperature":"4.013","city":"Nanjing","latitude":"31.35N","longitude":"118.74E"}
{"date":"2010-01-01","average_temperature":"-9.337","city":"Nanpiao","latitude":"40.99N","longitude":"121.42E"}
{"date":"2011-05-01","average_temperature":"21.480999999999998","city":"Nantong","latitude":"31.35N","longitude":"120.63E"}
{"date":"2011-10-01","average_temperature":"15.216","city":"Navoi","latitude":"39.38N","longitude":"64.51E"}
{"date":"2013-04-01","average_temperature":"15.9","city":"Navoi","latitude":"39.38N","longitude":"64.51E"}
{"date":"2013-06-01","average_temperature":"27.283","city":"Navsari","latitude":"20.09N","longitude":"73.36E"}
{"date":"2010-04-01","average_temperature":"21.548000000000002","city":"Nazret","latitude":"8.84N","longitude":"39.73E"}
{"date":"2012-09-01","average_temperature":"9.695","city":"Nefteyugansk","latitude":"61.88N","longitude":"73.02E"}
{"date":"2013-02-01","average_temperature":"11.857000000000001","city":"Neijiang","latitude":"29.74N","longitude":"105.23E"}
{"date":"2011-01-01","average_temperature":"2.262","city":"Neuss","latitude":"50.63N","longitude":"6.34E"}
{"date":"2012-10-01","average_temperature":"9.644","city":"Neuss","latitude":"50.63N","longitude":"6.34E"}
{"date":"2013-06-01","average_temperature":"18.253","city":"Nevinnomyssk","latitude":"44.20N","longitude":"42.48E"}
{"date":"2012-09-01","average_temperature":"24.467","city":"Neyagawa","latitude":"34.56N","longitude":"136.22E"}
{"date":"2011-10-01","average_temperature":"31.451999999999998","city":"Niamey","latitude":"13.66N","longitude":"2.48E"}
{"date":"2012-02-01","average_temperature":"14.095999999999998","city":"Nicolás Romero","latitude":"20.09N","longitude":"98.96W"}
{"date":"2012-07-01","average_temperature":"17.329","city":"Nijmegen","latitude":"52.24N","longitude":"5.26E"}
{"date":"2013-01-01","average_temperature":"26.009","city":"Nilópolis","latitude":"23.31S","longitude":"42.82W"}
{"date":"2010-03-01","average_temperature":"-5.231999999999998","city":"Nizhnekamsk","latitude":"55.45N","longitude":"51.02E"}
{"date":"2013-03-01","average_temperature":"-8.25","city":"Nizhnekamsk","latitude":"55.45N","longitude":"51.02E"}
{"date":"2012-03-01","average_temperature":"29.594","city":"Nnewi","latitude":"5.63N","longitude":"6.46E"}
{"date":"2012-06-01","average_temperature":"28.282000000000004","city":"North Las Vegas","latitude":"36.17N","longitude":"115.36W"}
{"date":"2010-06-01","average_temperature":"25.0","city":"Nossa Senhora Do Socorro","latitude":"10.45S","longitude":"36.82W"}
{"date":"2012-02-01","average_temperature":"22.816","city":"Nouakchott","latitude":"18.48N","longitude":"15.21W"}
{"date":"2012-01-01","average_temperature":"5.206","city":"Novorossiysk","latitude":"44.20N","longitude":"38.01E"}
{"date":"2010-06-01","average_temperature":"26.491999999999997","city":"Nueva San Salvador","latitude":"13.66N","longitude":"90.00W"}
{"date":"2011-08-01","average_temperature":"26.718000000000004","city":"Numazu","latitude":"34.56N","longitude":"138.16E"}
{"date":"2011-12-01","average_temperature":"2.3890000000000002","city":"Nuremberg","latitude":"49.03N","longitude":"12.24E"}
{"date":"2013-04-01","average_temperature":"28.261999999999997","city":"Obuasi","latitude":"5.63N","longitude":"1.61W"}
{"date":"2010-09-01","average_temperature":"13.462","city":"Odense","latitude":"55.45N","longitude":"11.34E"}
{"date":"2010-07-01","average_temperature":"20.723000000000003","city":"Offenbach","latitude":"50.63N","longitude":"8.87E"}
{"date":"2012-04-01","average_temperature":"8.200000000000001","city":"Offenbach","latitude":"50.63N","longitude":"8.87E"}
{"date":"2011-11-01","average_temperature":"9.76","city":"Oklahoma City","latitude":"36.17N","longitude":"97.46W"}
{"date":"2010-07-01","average_temperature":"21.713","city":"Olsztyn","latitude":"53.84N","longitude":"20.45E"}
{"date":"2010-06-01","average_temperature":"22.612","city":"Omuta","latitude":"32.95N","longitude":"131.17E"}
{"date":"2012-10-01","average_temperature":"26.184","city":"Opobo","latitude":"4.02N","longitude":"7.23E"}
{"date":"2011-10-01","average_temperature":"12.914000000000001","city":"Orléans","latitude":"47.42N","longitude":"1.18E"}
{"date":"2012-02-01","average_temperature":"0.9450000000000004","city":"Orléans","latitude":"47.42N","longitude":"1.18E"}
{"date":"2013-01-01","average_temperature":"-8.295","city":"Orsha","latitude":"53.84N","longitude":"31.36E"}
{"date":"2010-07-01","average_temperature":"23.625999999999998","city":"Orsk","latitude":"50.63N","longitude":"59.58E"}
{"date":"2013-01-01","average_temperature":"3.1839999999999997","city":"Osmaniye","latitude":"37.78N","longitude":"36.61E"}
{"date":"2012-04-01","average_temperature":"30.206","city":"Otukpo","latitude":"7.23N","longitude":"8.92E"}
{"date":"2011-09-01","average_temperature":"11.15","city":"Oulu","latitude":"65.09N","longitude":"24.89E"}
{"date":"2013-06-01","average_temperature":"20.927","city":"Oyama","latitude":"36.17N","longitude":"139.23E"}
{"date":"2013-07-01","average_temperature":"26.685","city":"Pagadian","latitude":"7.23N","longitude":"124.05E"}
{"date":"2010-10-01","average_temperature":"26.785","city":"Palakkad","latitude":"10.45N","longitude":"76.09E"}
{"date":"2012-06-01","average_temperature":"30.127","city":"Palanpur","latitude":"24.92N","longitude":"72.71E"}
{"date":"2011-03-01","average_temperature":"26.185","city":"Pali","latitude":"26.52N","longitude":"73.43E"}
{"date":"2013-03-01","average_temperature":"14.377","city":"Palma","latitude":"39.38N","longitude":"2.08E"}
{"date":"2011-08-01","average_temperature":"28.441000000000006","city":"Palmas","latitude":"10.45S","longitude":"48.27W"}
{"date":"2013-04-01","average_temperature":"15.921","city":"Palmdale","latitude":"34.56N","longitude":"118.70W"}
{"date":"2012-06-01","average_temperature":"31.959","city":"Panihati","latitude":"23.31N","longitude":"88.25E"}
{"date":"2010-03-01","average_temperature":"30.733","city":"Parakou","latitude":"8.84N","longitude":"2.43E"}
{"date":"2013-08-01","average_temperature":"23.133000000000003","city":"Parma","latitude":"44.20N","longitude":"11.18E"}
{"date":"2013-07-01","average_temperature":"26.858","city":"Parung","latitude":"5.63S","longitude":"106.55E"}
{"date":"2013-01-01","average_temperature":"3.468","city":"Pathankot","latitude":"32.95N","longitude":"75.64E"}
{"date":"2010-03-01","average_temperature":"26.901999999999997","city":"Pati","latitude":"7.23S","longitude":"111.08E"}
{"date":"2010-04-01","average_temperature":"22.731","city":"Patos De Minas","latitude":"18.48S","longitude":"47.32W"}
{"date":"2010-07-01","average_temperature":"24.833000000000002","city":"Paulista","latitude":"7.23S","longitude":"34.86W"}
{"date":"2010-01-01","average_temperature":"-8.629","city":"Pavlohrad","latitude":"49.03N","longitude":"36.73E"}
{"date":"2013-05-01","average_temperature":"22.101999999999997","city":"Peking","latitude":"39.38N","longitude":"116.53E"}
{"date":"2011-12-01","average_temperature":"1.3969999999999998","city":"Peoria","latitude":"40.99N","longitude":"89.47W"}
{"date":"2012-07-01","average_temperature":"15.797","city":"Perth","latitude":"31.35S","longitude":"114.97E"}
{"date":"2013-03-01","average_temperature":"3.2319999999999998","city":"Peterborough","latitude":"52.24N","longitude":"0.00W"}
{"date":"2012-01-01","average_temperature":"25.081","city":"Petrópolis","latitude":"23.31S","longitude":"42.82W"}
{"date":"2012-11-01","average_temperature":"6.2139999999999995","city":"Philadelphia","latitude":"39.38N","longitude":"74.91W"}
{"date":"2012-05-01","average_temperature":"34.113","city":"Pilibhit","latitude":"28.13N","longitude":"79.09E"}
{"date":"2010-10-01","average_temperature":"19.398","city":"Pindamonhangaba","latitude":"23.31S","longitude":"46.31W"}
{"date":"2012-03-01","average_temperature":"3.7889999999999997","city":"Pingliang","latitude":"36.17N","longitude":"107.40E"}
{"date":"2013-04-01","average_temperature":"10.485","city":"Pingliang","latitude":"36.17N","longitude":"107.40E"}
{"date":"2011-08-01","average_temperature":"18.506","city":"Pinsk","latitude":"52.24N","longitude":"26.28E"}
{"date":"2010-07-01","average_temperature":"23.750999999999998","city":"Pleven","latitude":"44.20N","longitude":"24.60E"}
{"date":"2012-05-01","average_temperature":"29.257","city":"Ponnani","latitude":"10.45N","longitude":"76.09E"}
{"date":"2010-10-01","average_temperature":"27.785","city":"Port Au Prince","latitude":"18.48N","longitude":"72.68W"}
{"date":"2010-12-01","average_temperature":"25.968000000000004","city":"Port Louis","latitude":"20.09S","longitude":"58.01E"}
{"date":"2012-01-01","average_temperature":"26.432","city":"Port Louis","latitude":"20.09S","longitude":"58.01E"}
{"date":"2010-02-01","average_temperature":"17.652","city":"Port Said","latitude":"31.35N","longitude":"32.04E"}
{"date":"2011-08-01","average_temperature":"29.089000000000002","city":"Port Saint Lucie","latitude":"26.52N","longitude":"80.60W"}
{"date":"2011-05-01","average_temperature":"26.551","city":"Portmore","latitude":"18.48N","longitude":"76.06W"}
{"date":"2013-08-01","average_temperature":"13.071","city":"Porto Alegre","latitude":"29.74S","longitude":"51.69W"}
{"date":"2011-04-01","average_temperature":"13.315","city":"Prato","latitude":"44.20N","longitude":"11.18E"}
{"date":"2012-05-01","average_temperature":"21.58","city":"Presidente Prudente","latitude":"21.70S","longitude":"51.06W"}
{"date":"2011-07-01","average_temperature":"29.729","city":"Proddatur","latitude":"15.27N","longitude":"79.17E"}
{"date":"2010-11-01","average_temperature":"27.577","city":"Puerto Princesa","latitude":"10.45N","longitude":"118.64E"}
{"date":"2012-09-01","average_temperature":"27.819000000000003","city":"Puerto Princesa","latitude":"10.45N","longitude":"118.64E"}
{"date":"2011-11-01","average_temperature":"27.09","city":"Puerto Vallarta","latitude":"20.09N","longitude":"105.78W"}
{"date":"2011-03-01","average_temperature":"6.216","city":"Puno","latitude":"15.27S","longitude":"70.83W"}
{"date":"2013-02-01","average_temperature":"6.596","city":"Puno","latitude":"15.27S","longitude":"70.83W"}
{"date":"2012-05-01","average_temperature":"27.680000000000003","city":"Purworejo","latitude":"7.23S","longitude":"112.70E"}
{"date":"2011-03-01","average_temperature":"15.494000000000002","city":"Qandahar","latitude":"31.35N","longitude":"65.97E"}
{"date":"2012-08-01","average_temperature":"28.691999999999997","city":"Qianjiang","latitude":"29.74N","longitude":"112.62E"}
{"date":"2012-08-01","average_temperature":"25.19","city":"Qingdao","latitude":"36.17N","longitude":"121.33E"}
{"date":"2012-06-01","average_temperature":"27.982","city":"Qinzhou","latitude":"21.70N","longitude":"108.17E"}
{"date":"2010-03-01","average_temperature":"11.530999999999999","city":"Quchan","latitude":"37.78N","longitude":"58.98E"}
{"date":"2011-05-01","average_temperature":"11.540999999999999","city":"Queenstown","latitude":"31.35S","longitude":"26.39E"}
{"date":"2011-09-01","average_temperature":"25.956999999999997","city":"Quetta","latitude":"29.74N","longitude":"66.46E"}
{"date":"2013-05-01","average_temperature":"29.738000000000003","city":"Qui Nhon","latitude":"13.66N","longitude":"109.82E"}
{"date":"2011-10-01","average_temperature":"16.244999999999994","city":"Qujing","latitude":"24.92N","longitude":"104.63E"}
{"date":"2010-05-01","average_temperature":"34.693000000000005","city":"Rabak","latitude":"13.66N","longitude":"32.20E"}
{"date":"2011-03-01","average_temperature":"24.588","city":"Rae Bareli","latitude":"26.52N","longitude":"80.60E"}
{"date":"2010-06-01","average_temperature":"26.605","city":"Rajapalaiyam","latitude":"8.84N","longitude":"77.03E"}
{"date":"2011-02-01","average_temperature":"20.95","city":"Rajshahi","latitude":"24.92N","longitude":"88.67E"}
{"date":"2010-11-01","average_temperature":"20.134","city":"Ramat Gan","latitude":"32.95N","longitude":"35.43E"}
{"date":"2011-03-01","average_temperature":"14.106","city":"Ramat Gan","latitude":"32.95N","longitude":"35.43E"}
{"date":"2012-04-01","average_temperature":"18.699","city":"Ramat Gan","latitude":"32.95N","longitude":"35.43E"}
{"date":"2013-02-01","average_temperature":"0.973","city":"Ramnicu Valcea","latitude":"45.81N","longitude":"24.23E"}
{"date":"2010-04-01","average_temperature":"3.2980000000000005","city":"Ranghulu","latitude":"47.42N","longitude":"124.34E"}
{"date":"2012-03-01","average_temperature":"-4.427999999999999","city":"Ranghulu","latitude":"47.42N","longitude":"124.34E"}
{"date":"2012-07-01","average_temperature":"31.971","city":"Rawalpindi","latitude":"32.95N","longitude":"73.72E"}
{"date":"2010-11-01","average_temperature":"27.518","city":"Rayong","latitude":"12.05N","longitude":"101.92E"}
{"date":"2013-03-01","average_temperature":"28.001","city":"Rayong","latitude":"12.05N","longitude":"101.92E"}
{"date":"2012-04-01","average_temperature":"31.191999999999997","city":"Rewa","latitude":"24.92N","longitude":"81.58E"}
{"date":"2013-09-01","city":"Ribeirão Pires","latitude":"23.31S","longitude":"46.31W"}
{"date":"2013-03-01","average_temperature":"22.781999999999996","city":"Richards Bay","latitude":"28.13S","longitude":"31.82E"}
{"date":"2012-12-01","average_temperature":"8.95","city":"Richmond","latitude":"37.78N","longitude":"122.03W"}
{"date":"2012-10-01","average_temperature":"16.840999999999998","city":"Rio Cuarto","latitude":"32.95S","longitude":"64.15W"}
{"date":"2012-09-01","average_temperature":"23.186","city":"Rio De Janeiro","latitude":"23.31S","longitude":"42.82W"}
{"date":"2013-04-01","average_temperature":"22.044","city":"Riobamba","latitude":"2.41S","longitude":"77.95W"}
{"date":"2010-02-01","average_temperature":"22.959","city":"Rishra","latitude":"23.31N","longitude":"88.25E"}
{"date":"2011-07-01","average_temperature":"29.473000000000003","city":"Rishra","latitude":"23.31N","longitude":"88.25E"}
{"date":"2012-02-01","average_temperature":"22.408","city":"Rishra","latitude":"23.31N","longitude":"88.25E"}
{"date":"2012-04-01","average_temperature":"22.654","city":"Rongcheng","latitude":"23.31N","longitude":"116.21E"}
{"date":"2012-09-01","average_temperature":"13.37","city":"Rubtsovsk","latitude":"52.24N","longitude":"81.46E"}
{"date":"2011-05-01","average_temperature":"20.336","city":"Ruian","latitude":"28.13N","longitude":"120.91E"}
{"date":"2011-05-01","average_temperature":"22.598000000000006","city":"Ruiru","latitude":"0.80S","longitude":"37.77E"}
{"date":"2010-02-01","average_temperature":"-2.187","city":"Rzeszow","latitude":"50.63N","longitude":"21.55E"}
{"date":"2011-03-01","average_temperature":"23.293000000000003","city":"São José","latitude":"28.13S","longitude":"48.18W"}
{"date":"2011-06-01","average_temperature":"18.456","city":"São José","latitude":"28.13S","longitude":"48.18W"}
{"date":"2012-10-01","average_temperature":"20.968000000000004","city":"São José","latitude":"28.13S","longitude":"48.18W"}
{"date":"2013-08-01","average_temperature":"22.453000000000003","city":"São José Do Rio Prêto","latitude":"20.09S","longitude":"49.48W"}
{"date":"2011-04-01","average_temperature":"21.478","city":"São José Dos Campos","latitude":"23.31S","longitude":"46.31W"}
{"date":"2011-10-01","average_temperature":"20.55","city":"São José Dos Campos","latitude":"23.31S","longitude":"46.31W"}
{"date":"2012-04-01","average_temperature":"18.718","city":"São José Dos Pinhais","latitude":"24.92S","longitude":"49.66W"}
{"date":"2011-03-01","average_temperature":"22.006","city":"Sabha","latitude":"26.52N","longitude":"14.33E"}
{"date":"2011-07-01","average_temperature":"31.957","city":"Sabha","latitude":"26.52N","longitude":"14.33E"}
{"date":"2013-07-01","average_temperature":"32.396","city":"Sabha","latitude":"26.52N","longitude":"14.33E"}
{"date":"2011-01-01","average_temperature":"14.347","city":"Safaqis","latitude":"34.56N","longitude":"11.68E"}
{"date":"2010-09-01","average_temperature":"24.586","city":"Saga","latitude":"32.95N","longitude":"131.17E"}
{"date":"2013-06-01","average_temperature":"34.455999999999996","city":"Sahiwal","latitude":"31.35N","longitude":"73.51E"}
{"date":"2011-09-01","average_temperature":"18.811","city":"Salamanca","latitude":"20.09N","longitude":"100.66W"}
{"date":"2012-11-01","average_temperature":"-2.0370000000000004","city":"Salavat","latitude":"53.84N","longitude":"55.91E"}
{"date":"2013-08-01","average_temperature":"20.944000000000003","city":"Salinas","latitude":"36.17N","longitude":"121.33W"}
{"date":"2013-05-01","average_temperature":"14.939","city":"Salt Lake City","latitude":"40.99N","longitude":"112.90W"}
{"date":"2010-05-01","average_temperature":"34.13999999999999","city":"Sambhal","latitude":"28.13N","longitude":"79.09E"}
{"date":"2012-02-01","average_temperature":"13.719","city":"San Antonio","latitude":"29.74N","longitude":"97.85W"}
{"date":"2013-09-01","city":"San Cristóbal","latitude":"7.23N","longitude":"72.16W"}
{"date":"2011-01-01","average_temperature":"24.897","city":"San José","latitude":"10.45N","longitude":"84.27W"}
{"date":"2013-03-01","average_temperature":"20.432","city":"San Martin","latitude":"32.95S","longitude":"67.98W"}
{"date":"2013-04-01","average_temperature":"17.776999999999994","city":"San Martin","latitude":"32.95S","longitude":"67.98W"}
{"date":"2013-02-01","average_temperature":"26.143","city":"San Pedro","latitude":"13.66N","longitude":"121.38E"}
{"date":"2013-06-01","average_temperature":"26.668000000000006","city":"Santarém","latitude":"2.41S","longitude":"55.45W"}
{"date":"2012-06-01","average_temperature":"13.094","city":"Sapucaia","latitude":"29.74S","longitude":"51.69W"}
{"date":"2010-09-01","average_temperature":"24.446","city":"Saveh","latitude":"34.56N","longitude":"50.59E"}
{"date":"2011-12-01","average_temperature":"27.246","city":"Sawangan","latitude":"5.63S","longitude":"106.55E"}
{"date":"2010-05-01","average_temperature":"31.235","city":"Selam","latitude":"12.05N","longitude":"78.90E"}
{"date":"2011-07-01","average_temperature":"22.230999999999998","city":"Sergiyev Posad","latitude":"57.05N","longitude":"36.89E"}
{"date":"2012-07-01","average_temperature":"20.000999999999998","city":"Serpukhov","latitude":"55.45N","longitude":"36.85E"}
{"date":"2013-02-01","average_temperature":"24.088","city":"Sete Lagoas","latitude":"20.09S","longitude":"44.36W"}
{"date":"2013-07-01","average_temperature":"24.933000000000003","city":"Shenyang","latitude":"40.99N","longitude":"123.55E"}
{"date":"2013-04-01","average_temperature":"4.8580000000000005","city":"Sherbrooke","latitude":"45.81N","longitude":"72.69W"}
{"date":"2011-05-01","average_temperature":"36.505","city":"Shikarpur","latitude":"28.13N","longitude":"68.18E"}
{"date":"2013-01-01","average_temperature":"26.861","city":"Si Racha","latitude":"13.66N","longitude":"101.56E"}
{"date":"2011-03-01","average_temperature":"3.1460000000000004","city":"Sibiu","latitude":"45.81N","longitude":"24.23E"}
{"date":"2013-02-01","average_temperature":"26.675","city":"Sibu","latitude":"2.41N","longitude":"111.70E"}
{"date":"2012-01-01","average_temperature":"26.756","city":"Sidoarjo","latitude":"7.23S","longitude":"112.70E"}
{"date":"2011-11-01","average_temperature":"21.601999999999997","city":"Silchar","latitude":"24.92N","longitude":"92.22E"}
{"date":"2010-10-01","average_temperature":"26.498","city":"Singaraja","latitude":"8.84S","longitude":"114.32E"}
{"date":"2012-01-01","average_temperature":"23.981","city":"Sinnar","latitude":"13.66N","longitude":"33.85E"}
{"date":"2011-04-01","average_temperature":"26.623","city":"Sirajganj","latitude":"24.92N","longitude":"90.44E"}
{"date":"2011-12-01","average_temperature":"28.741999999999997","city":"Sobral","latitude":"4.02S","longitude":"40.98W"}
{"date":"2011-10-01","average_temperature":"8.38","city":"Sofia","latitude":"42.59N","longitude":"24.00E"}
{"date":"2010-06-01","average_temperature":"27.299","city":"Sokodé","latitude":"8.84N","longitude":"0.81E"}
{"date":"2012-12-01","average_temperature":"23.958000000000002","city":"Songea","latitude":"10.45S","longitude":"35.18E"}
{"date":"2013-06-01","average_temperature":"9.982000000000001","city":"Soweto","latitude":"26.52S","longitude":"28.66E"}
{"date":"2013-06-01","average_temperature":"23.758000000000003","city":"Springfield","latitude":"37.78N","longitude":"93.56W"}
{"date":"2012-03-01","average_temperature":"19.097","city":"Springs","latitude":"26.52S","longitude":"28.66E"}
{"date":"2012-09-01","average_temperature":"14.770999999999999","city":"Springs","latitude":"26.52S","longitude":"28.66E"}
{"date":"2010-10-01","average_temperature":"12.46","city":"Srinagar","latitude":"34.56N","longitude":"73.95E"}
{"date":"2011-06-01","average_temperature":"19.98","city":"Srinagar","latitude":"34.56N","longitude":"73.95E"}
{"date":"2012-10-01","average_temperature":"12.436","city":"Stamford","latitude":"40.99N","longitude":"74.56W"}
{"date":"2010-04-01","average_temperature":"8.602","city":"Stockport","latitude":"53.84N","longitude":"1.36W"}
{"date":"2010-06-01","average_temperature":"15.665999999999999","city":"Stoke On Trent","latitude":"52.24N","longitude":"2.63W"}
{"date":"2012-01-01","average_temperature":"26.266","city":"Sukaraja","latitude":"7.23S","longitude":"106.22E"}
{"date":"2013-04-01","average_temperature":"27.065","city":"Sukaraja","latitude":"7.23S","longitude":"106.22E"}
{"date":"2010-10-01","average_temperature":"5.084","city":"Sumy","latitude":"50.63N","longitude":"34.23E"}
{"date":"2013-05-01","average_temperature":"29.241","city":"Sungai Petani","latitude":"5.63N","longitude":"100.09E"}
{"date":"2010-11-01","average_temperature":"26.06","city":"Surat Thani","latitude":"8.84N","longitude":"99.73E"}
{"date":"2010-12-01","average_temperature":"-23.718000000000004","city":"Surgut","latitude":"61.88N","longitude":"73.02E"}
{"date":"2012-04-01","average_temperature":"7.225","city":"Swansea","latitude":"52.24N","longitude":"5.26W"}
{"date":"2010-07-01","average_temperature":"23.096999999999998","city":"Székesfehérvár","latitude":"47.42N","longitude":"17.76E"}
{"date":"2011-07-01","average_temperature":"29.634","city":"Türkmenabat","latitude":"39.38N","longitude":"64.51E"}
{"date":"2011-02-01","average_temperature":"14.529000000000002","city":"Tabuk","latitude":"28.13N","longitude":"37.27E"}
{"date":"2011-03-01","average_temperature":"16.783","city":"Taicheng","latitude":"21.70N","longitude":"113.37E"}
{"date":"2012-04-01","average_temperature":"21.638","city":"Taichung","latitude":"24.92N","longitude":"120.59E"}
{"date":"2010-09-01","average_temperature":"27.677","city":"Taiping","latitude":"4.02N","longitude":"100.45E"}
{"date":"2013-05-01","average_temperature":"28.878","city":"Taiping","latitude":"4.02N","longitude":"100.45E"}
{"date":"2010-06-01","average_temperature":"22.305000000000003","city":"Taiyuan","latitude":"37.78N","longitude":"111.86E"}
{"date":"2011-07-01","average_temperature":"27.603","city":"Taizhou","latitude":"32.95N","longitude":"119.68E"}
{"date":"2011-04-01","average_temperature":"20.189","city":"Tali","latitude":"24.92N","longitude":"120.59E"}
{"date":"2013-06-01","average_temperature":"26.908","city":"Tali","latitude":"24.92N","longitude":"120.59E"}
{"date":"2010-10-01","average_temperature":"27.521","city":"Talisay","latitude":"10.45N","longitude":"123.55E"}
{"date":"2011-08-01","average_temperature":"29.084","city":"Tallahassee","latitude":"29.74N","longitude":"84.92W"}
{"date":"2012-05-01","average_temperature":"34.135","city":"Tambaram","latitude":"13.66N","longitude":"80.09E"}
{"date":"2010-02-01","average_temperature":"26.835","city":"Tanza","latitude":"15.27N","longitude":"120.83E"}
{"date":"2010-12-01","average_temperature":"-16.879","city":"Taonan","latitude":"45.81N","longitude":"123.46E"}
{"date":"2013-01-01","average_temperature":"25.497","city":"Tarlac","latitude":"15.27N","longitude":"120.83E"}
{"date":"2012-04-01","average_temperature":"14.415999999999999","city":"Tarragona","latitude":"40.99N","longitude":"2.13E"}
{"date":"2013-02-01","average_temperature":"5.207999999999999","city":"Tarsus","latitude":"37.78N","longitude":"34.58E"}
{"date":"2013-04-01","average_temperature":"17.840999999999994","city":"Tartus","latitude":"34.56N","longitude":"35.03E"}
{"date":"2013-06-01","average_temperature":"22.713","city":"Tashkent","latitude":"40.99N","longitude":"70.30E"}
{"date":"2010-02-01","average_temperature":"25.586","city":"Tasikmalaya","latitude":"7.23S","longitude":"107.84E"}
{"date":"2011-08-01","average_temperature":"10.111","city":"Tauranga","latitude":"37.78S","longitude":"176.95E"}
{"date":"2012-09-01","average_temperature":"11.914","city":"Tauranga","latitude":"37.78S","longitude":"176.95E"}
{"date":"2010-06-01","average_temperature":"20.416","city":"Teófilo Otoni","latitude":"18.48S","longitude":"42.25W"}
{"date":"2011-05-01","average_temperature":"21.816000000000006","city":"Teófilo Otoni","latitude":"18.48S","longitude":"42.25W"}
{"date":"2011-09-01","average_temperature":"25.008000000000003","city":"Tegucigalpa","latitude":"13.66N","longitude":"86.70W"}
{"date":"2012-07-01","average_temperature":"20.320999999999998","city":"Tehuacán","latitude":"18.48N","longitude":"98.03W"}
{"date":"2012-10-01","average_temperature":"24.389","city":"Tel Aviv Yafo","latitude":"31.35N","longitude":"33.93E"}
{"date":"2011-04-01","average_temperature":"11.5","city":"Temuco","latitude":"39.38S","longitude":"72.83W"}
{"date":"2010-01-01","average_temperature":"23.639","city":"Tenali","latitude":"16.87N","longitude":"80.37E"}
{"date":"2011-04-01","average_temperature":"26.561","city":"Thanesar","latitude":"29.74N","longitude":"77.54E"}
{"date":"2012-07-01","average_temperature":"29.55","city":"Tianmen","latitude":"31.35N","longitude":"113.09E"}
{"date":"2012-12-01","average_temperature":"18.706","city":"Tonalá","latitude":"20.09N","longitude":"104.08W"}
{"date":"2013-06-01","average_temperature":"22.434","city":"Torrance","latitude":"34.56N","longitude":"118.70W"}
{"date":"2012-05-01","average_temperature":"25.842","city":"Torreón","latitude":"24.92N","longitude":"102.86W"}
{"date":"2012-01-01","average_temperature":"3.753","city":"Torrejón De Ardoz","latitude":"40.99N","longitude":"4.26W"}
{"date":"2010-06-01","average_temperature":"20.036","city":"Toulon","latitude":"42.59N","longitude":"6.55E"}
{"date":"2012-01-01","average_temperature":"11.485999999999999","city":"Toulon","latitude":"42.59N","longitude":"6.55E"}
{"date":"2010-02-01","average_temperature":"6.8420000000000005","city":"Toyota","latitude":"34.56N","longitude":"136.22E"}
{"date":"2010-08-01","average_temperature":"7.167999999999998","city":"Trelew","latitude":"42.59S","longitude":"65.45W"}
{"date":"2010-02-01","average_temperature":"16.457","city":"Tubruq","latitude":"31.35N","longitude":"24.50E"}
{"date":"2011-10-01","average_temperature":"21.057","city":"Tubruq","latitude":"31.35N","longitude":"24.50E"}
{"date":"2012-02-01","average_temperature":"14.095999999999998","city":"Tulancingo","latitude":"20.09N","longitude":"98.96W"}
{"date":"2010-04-01","average_temperature":"20.512","city":"Tunja","latitude":"5.63N","longitude":"72.65W"}
{"date":"2011-09-01","average_temperature":"18.967","city":"Turhal","latitude":"40.99N","longitude":"36.21E"}
{"date":"2012-01-01","average_temperature":"-3.859","city":"Turku","latitude":"60.27N","longitude":"22.70E"}
{"date":"2010-03-01","average_temperature":"24.504","city":"Tuxtla Gutiérrez","latitude":"16.87N","longitude":"93.77W"}
{"date":"2013-09-01","city":"Tver","latitude":"57.05N","longitude":"36.89E"}
{"date":"2011-08-01","average_temperature":"15.511","city":"Uitenhage","latitude":"34.56S","longitude":"25.30E"}
{"date":"2013-04-01","average_temperature":"29.119","city":"Unnao","latitude":"26.52N","longitude":"80.60E"}
{"date":"2010-11-01","average_temperature":"9.515","city":"Urayasu","latitude":"36.17N","longitude":"139.23E"}
{"date":"2011-01-01","average_temperature":"-1.4949999999999997","city":"Vanadzor","latitude":"40.99N","longitude":"44.73E"}
{"date":"2013-04-01","average_temperature":"10.290999999999999","city":"Vanadzor","latitude":"40.99N","longitude":"44.73E"}
{"date":"2012-07-01","average_temperature":"9.036","city":"Vanderbijlpark","latitude":"26.52S","longitude":"28.66E"}
{"date":"2011-04-01","average_temperature":"30.427","city":"Vejalpur","latitude":"23.31N","longitude":"74.27E"}
{"date":"2012-10-01","average_temperature":"26.666","city":"Vejalpur","latitude":"23.31N","longitude":"74.27E"}
{"date":"2010-01-01","average_temperature":"18.531","city":"Veracruz","latitude":"18.48N","longitude":"96.34W"}
{"date":"2011-08-01","average_temperature":"10.824000000000002","city":"Vereeniging","latitude":"26.52S","longitude":"28.66E"}
{"date":"2010-01-01","average_temperature":"17.265","city":"Villa Nueva","latitude":"15.27N","longitude":"90.83W"}
{"date":"2010-02-01","average_temperature":"28.469","city":"Vinh Long","latitude":"10.45N","longitude":"105.55E"}
{"date":"2011-06-01","average_temperature":"28.769","city":"Visakhapatnam","latitude":"18.48N","longitude":"82.82E"}
{"date":"2011-08-01","average_temperature":"19.088","city":"Vladimir","latitude":"55.45N","longitude":"39.69E"}
{"date":"2011-11-01","average_temperature":"-0.959","city":"Volgodonsk","latitude":"47.42N","longitude":"41.45E"}
{"date":"2012-05-01","average_temperature":"20.413","city":"Volzhskiy","latitude":"49.03N","longitude":"44.08E"}
{"date":"2012-08-01","average_temperature":"24.689","city":"Volzhskiy","latitude":"49.03N","longitude":"44.08E"}
{"date":"2011-12-01","average_temperature":"12.972999999999999","city":"Wahran","latitude":"36.17N","longitude":"0.00W"}
{"date":"2013-04-01","average_temperature":"24.196","city":"Warqla","latitude":"31.35N","longitude":"5.65E"}
{"date":"2011-07-01","average_temperature":"22.263","city":"Wencheng","latitude":"37.78N","longitude":"122.03E"}
{"date":"2013-02-01","average_temperature":"23.358","city":"Westonaria","latitude":"26.52S","longitude":"26.87E"}
{"date":"2010-12-01","average_temperature":"-3.9160000000000004","city":"Windsor","latitude":"42.59N","longitude":"82.91W"}
{"date":"2013-05-01","average_temperature":"18.612000000000002","city":"Winston Salem","latitude":"36.17N","longitude":"79.56W"}
{"date":"2012-10-01","average_temperature":"18.14","city":"Wuhu","latitude":"31.35N","longitude":"118.74E"}
{"date":"2010-01-01","average_temperature":"4.635","city":"Wuxi","latitude":"31.35N","longitude":"120.63E"}
{"date":"2010-04-01","average_temperature":"19.81","city":"Wuzhou","latitude":"23.31N","longitude":"110.97E"}
{"date":"2011-11-01","average_temperature":"7.542999999999999","city":"Xian","latitude":"34.56N","longitude":"108.97E"}
{"date":"2012-08-01","average_temperature":"28.622","city":"Xiangdong","latitude":"28.13N","longitude":"113.64E"}
{"date":"2012-08-01","average_temperature":"25.294","city":"Xintai","latitude":"36.17N","longitude":"117.35E"}
{"date":"2012-08-01","average_temperature":"26.469","city":"Xinyang","latitude":"32.95N","longitude":"113.94E"}
{"date":"2013-05-01","average_temperature":"18.84","city":"Yaan","latitude":"29.74N","longitude":"103.38E"}
{"date":"2012-05-01","average_temperature":"21.485","city":"Yancheng","latitude":"32.95N","longitude":"119.68E"}
{"date":"2010-04-01","average_temperature":"21.405","city":"Yangjiang","latitude":"21.70N","longitude":"111.63E"}
{"date":"2012-04-01","average_temperature":"12.481","city":"Yevpatoriya","latitude":"45.81N","longitude":"33.46E"}
{"date":"2011-01-01","average_temperature":"1.0930000000000002","city":"Yingzhong","latitude":"31.35N","longitude":"113.09E"}
{"date":"2013-07-01","average_temperature":"30.296000000000006","city":"Yingzhong","latitude":"31.35N","longitude":"113.09E"}
{"date":"2011-08-01","average_temperature":"19.451","city":"Zalantun","latitude":"47.42N","longitude":"121.97E"}
{"date":"2012-02-01","average_temperature":"1.8419999999999999","city":"Zama","latitude":"36.17N","longitude":"139.23E"}
{"date":"2012-10-01","average_temperature":"15.722000000000001","city":"Zama","latitude":"36.17N","longitude":"139.23E"}
{"date":"2010-03-01","average_temperature":"20.235000000000007","city":"Zapopan","latitude":"20.09N","longitude":"104.08W"}
{"date":"2013-01-01","average_temperature":"-1.3489999999999998","city":"Zaporizhzhya","latitude":"47.42N","longitude":"34.34E"}
{"date":"2010-03-01","average_temperature":"5.159","city":"Zenica","latitude":"44.20N","longitude":"17.89E"}
{"date":"2013-01-01","average_temperature":"7.879","city":"Zhoucheng","latitude":"24.92N","longitude":"102.86E"}
{"date":"2011-05-01","average_temperature":"20.563000000000002","city":"Zhoucun","latitude":"36.17N","longitude":"117.35E"}
{"date":"2010-09-01","average_temperature":"22.19","city":"Zhumadian","latitude":"32.95N","longitude":"113.94E"}
{"date":"2011-12-01","average_temperature":"3.51","city":"Zielona Gora","latitude":"52.24N","longitude":"15.77E"}
{"date":"2011-07-01","average_temperature":"27.251","city":"Zigong","latitude":"29.74N","longitude":"105.23E"}
{"date":"2011-01-01","average_temperature":"2.18","city":"Zonguldak","latitude":"40.99N","longitude":"31.95E"}
{"date":"2012-10-01","average_temperature":"25.194000000000006","city":"Zuwarah","latitude":"32.95N","longitude":"12.45E"}
