{"date":"2010-03-01","average_temperature":"2.4290000000000003","city":"Århus","latitude":"57.05N","longitude":"10.33E"}
{"date":"2010-06-01","average_temperature":"19.639000000000006","city":"Çorum","latitude":"40.99N","longitude":"34.08E"}
{"date":"2012-05-01","average_temperature":"12.380999999999998","city":"Öskemen","latitude":"50.63N","longitude":"82.39E"}
{"date":"2011-02-01","average_temperature":"-0.307","city":"Aalborg","latitude":"57.05N","longitude":"10.33E"}
{"date":"2011-03-01","average_temperature":"22.579","city":"Abha","latitude":"18.48N","longitude":"42.25E"}
{"date":"2013-01-01","average_temperature":"20.855","city":"Abha","latitude":"18.48N","longitude":"42.25E"}
{"date":"2013-06-01","average_temperature":"20.927","city":"Abiko","latitude":"36.17N","longitude":"139.23E"}
{"date":"2011-03-01","average_temperature":"14.561","city":"Abilene","latitude":"32.95N","longitude":"100.53W"}
{"date":"2012-09-01","average_temperature":"25.891","city":"Abomey Calavi","latitude":"7.23N","longitude":"2.43E"}
{"date":"2012-11-01","average_temperature":"28.342","city":"Acarigua","latitude":"8.84N","longitude":"68.92W"}
{"date":"2012-06-01","average_temperature":"29.671","city":"Acuña","latitude":"29.74N","longitude":"101.54W"}
{"date":"2011-06-01","average_temperature":"26.433000000000003","city":"Adiwerna","latitude":"7.23S","longitude":"109.46E"}
{"date":"2010-04-01","average_temperature":"28.962","city":"Agboville","latitude":"5.63N","longitude":"4.84W"}
{"date":"2010-06-01","average_temperature":"35.661","city":"Agra","latitude":"26.52N","longitude":"78.81E"}
{"date":"2011-06-01","average_temperature":"32.508","city":"Agra","latitude":"26.52N","longitude":"78.81E"}
{"date":"2011-07-01","average_temperature":"24.965","city":"Ahmadnagar","latitude":"18.48N","longitude":"74.37E"}
{"date":"2011-01-01","average_temperature":"12.210999999999999","city":"Ahmadpur East","latitude":"29.74N","longitude":"72.00E"}
{"date":"2011-08-01","average_temperature":"32.952","city":"Ahmadpur East","latitude":"29.74N","longitude":"72.00E"}
{"date":"2012-04-01","average_temperature":"10.652999999999999","city":"Aix En Provence","latitude":"44.20N","longitude":"4.47E"}
{"date":"2013-03-01","average_temperature":"7.955","city":"Akishima","latitude":"36.17N","longitude":"139.23E"}
{"date":"2010-02-01","average_temperature":"-3.592","city":"Aktau","latitude":"44.20N","longitude":"51.43E"}
{"date":"2010-05-01","average_temperature":"32.831","city":"Alandur","latitude":"13.66N","longitude":"80.09E"}
{"date":"2013-05-01","average_temperature":"12.154000000000002","city":"Alberton","latitude":"26.52S","longitude":"28.66E"}
{"date":"2011-06-01","average_temperature":"19.625","city":"Alcalá De Henares","latitude":"40.99N","longitude":"4.26W"}
{"date":"2012-10-01","average_temperature":"12.509","city":"Alcorcón","latitude":"40.99N","longitude":"4.26W"}
{"date":"2011-01-01","average_temperature":"14.107","city":"Almería","latitude":"36.17N","longitude":"1.99W"}
{"date":"2012-03-01","average_temperature":"7.862999999999999","city":"Almere","latitude":"52.24N","longitude":"5.26E"}
{"date":"2011-02-01","average_temperature":"28.436","city":"Amaigbo","latitude":"5.63N","longitude":"8.07E"}
{"date":"2010-07-01","average_temperature":"28.447000000000006","city":"Ambur","latitude":"12.05N","longitude":"78.90E"}
{"date":"2012-09-01","average_temperature":"4.7330000000000005","city":"Anchorage","latitude":"61.88N","longitude":"151.13W"}
{"date":"2012-09-01","average_temperature":"20.726","city":"Ancona","latitude":"44.20N","longitude":"13.42E"}
{"date":"2010-10-01","average_temperature":"5.517","city":"Anda","latitude":"45.81N","longitude":"125.77E"}
{"date":"2010-08-01","average_temperature":"20.271","city":"Angra Dos Reis","latitude":"23.31S","longitude":"44.56W"}
{"date":"2010-12-01","average_temperature":"23.775","city":"Angra Dos Reis","latitude":"23.31S","longitude":"44.56W"}
{"date":"2011-10-01","average_temperature":"12.922","city":"Ankang","latitude":"32.95N","longitude":"108.19E"}
{"date":"2010-08-01","average_temperature":"25.974","city":"Anqiu","latitude":"36.17N","longitude":"119.34E"}
{"date":"2011-08-01","average_temperature":"23.877","city":"Anshan","latitude":"40.99N","longitude":"123.55E"}
{"date":"2012-06-01","average_temperature":"20.282","city":"Anshan","latitude":"40.99N","longitude":"123.55E"}
{"date":"2012-05-01","average_temperature":"18.7","city":"Antananarivo","latitude":"18.48S","longitude":"47.32E"}
{"date":"2012-12-01","average_temperature":"22.023000000000003","city":"Antananarivo","latitude":"18.48S","longitude":"47.32E"}
{"date":"2012-12-01","average_temperature":"-0.996","city":"Arad","latitude":"45.81N","longitude":"21.92E"}
{"date":"2011-04-01","average_temperature":"13.627","city":"Arlington","latitude":"39.38N","longitude":"76.99W"}
{"date":"2010-07-01","average_temperature":"29.67","city":"Aryanah","latitude":"36.17N","longitude":"9.94E"}
{"date":"2010-08-01","average_temperature":"22.502","city":"Asahikawa","latitude":"44.20N","longitude":"143.11E"}
{"date":"2011-11-01","average_temperature":"22.522","city":"Asansol","latitude":"23.31N","longitude":"86.50E"}
{"date":"2013-07-01","average_temperature":"25.389","city":"Astrakhan","latitude":"45.81N","longitude":"47.31E"}
{"date":"2010-02-01","average_temperature":"18.334","city":"Asyut","latitude":"26.52N","longitude":"30.45E"}
{"date":"2013-08-01","average_temperature":"18.215","city":"Atibaia","latitude":"23.31S","longitude":"46.31W"}
{"date":"2013-06-01","average_temperature":"28.651999999999997","city":"Austin","latitude":"29.74N","longitude":"97.85W"}
{"date":"2013-07-01","average_temperature":"28.695","city":"Ayer Itam","latitude":"5.63N","longitude":"100.09E"}
{"date":"2011-04-01","average_temperature":"25.14","city":"Babakan","latitude":"7.23S","longitude":"107.84E"}
{"date":"2010-11-01","average_temperature":"10.566","city":"Babol","latitude":"36.17N","longitude":"51.71E"}
{"date":"2010-03-01","average_temperature":"24.919","city":"Bahraich","latitude":"28.13N","longitude":"80.91E"}
{"date":"2012-07-01","average_temperature":"29.362","city":"Bahraich","latitude":"28.13N","longitude":"80.91E"}
{"date":"2011-01-01","average_temperature":"2.102","city":"Baku","latitude":"40.99N","longitude":"48.99E"}
{"date":"2011-10-01","average_temperature":"12.385","city":"Baku","latitude":"40.99N","longitude":"48.99E"}
{"date":"2010-05-01","average_temperature":"34.991","city":"Bama","latitude":"12.05N","longitude":"13.15E"}
{"date":"2011-11-01","average_temperature":"26.342","city":"Bama","latitude":"12.05N","longitude":"13.15E"}
{"date":"2012-11-01","average_temperature":"26.993000000000002","city":"Banda Aceh","latitude":"5.63N","longitude":"95.25E"}
{"date":"2010-11-01","average_temperature":"26.608","city":"Bandar Penggaram","latitude":"2.41N","longitude":"103.66E"}
{"date":"2010-03-01","average_temperature":"25.827","city":"Bandung","latitude":"7.23S","longitude":"107.84E"}
{"date":"2010-12-01","average_temperature":"4.92","city":"Baneh","latitude":"36.17N","longitude":"45.75E"}
{"date":"2010-09-01","average_temperature":"24.781","city":"Bangui","latitude":"4.02N","longitude":"18.48E"}
{"date":"2010-08-01","average_temperature":"25.756999999999998","city":"Banjaran","latitude":"7.23S","longitude":"107.84E"}
{"date":"2010-10-01","average_temperature":"17.689999999999994","city":"Barcelona","latitude":"40.99N","longitude":"2.13E"}
{"date":"2013-03-01","average_temperature":"24.027","city":"Bareli","latitude":"28.13N","longitude":"79.09E"}
{"date":"2012-10-01","average_temperature":"24.011999999999997","city":"Barinas","latitude":"8.84N","longitude":"70.54W"}
{"date":"2011-09-01","average_temperature":"29.35","city":"Barnala","latitude":"29.74N","longitude":"75.69E"}
{"date":"2010-06-01","average_temperature":"24.449","city":"Barreiras","latitude":"12.05S","longitude":"44.38W"}
{"date":"2013-05-01","average_temperature":"33.985","city":"Barsi","latitude":"18.48N","longitude":"76.06E"}
{"date":"2012-07-01","average_temperature":"20.479","city":"Bauru","latitude":"21.70S","longitude":"49.33W"}
{"date":"2011-09-01","average_temperature":"26.456999999999997","city":"Beirut","latitude":"34.56N","longitude":"35.03E"}
{"date":"2010-02-01","average_temperature":"1.73","city":"Belgrade","latitude":"44.20N","longitude":"20.12E"}
{"date":"2011-10-01","average_temperature":"7.977000000000001","city":"Bellevue","latitude":"47.42N","longitude":"121.97W"}
{"date":"2013-04-01","average_temperature":"20.155","city":"Bello","latitude":"5.63N","longitude":"75.87W"}
{"date":"2012-10-01","average_temperature":"17.923000000000005","city":"Bengbu","latitude":"32.95N","longitude":"117.77E"}
{"date":"2010-10-01","average_temperature":"25.983","city":"Benha","latitude":"29.74N","longitude":"31.38E"}
{"date":"2011-11-01","average_temperature":"17.498","city":"Beni Suef","latitude":"29.74N","longitude":"31.38E"}
{"date":"2011-01-01","average_temperature":"-13.738","city":"Benxi","latitude":"40.99N","longitude":"123.55E"}
{"date":"2012-11-01","average_temperature":"25.632","city":"Bhadravati","latitude":"13.66N","longitude":"75.14E"}
{"date":"2012-06-01","average_temperature":"31.959","city":"Bhadreswar","latitude":"23.31N","longitude":"88.25E"}
{"date":"2011-05-01","average_temperature":"35.312","city":"Bharatpur","latitude":"26.52N","longitude":"77.01E"}
{"date":"2011-09-01","average_temperature":"27.096","city":"Bhilai","latitude":"21.70N","longitude":"82.21E"}
{"date":"2011-06-01","average_temperature":"28.515","city":"Bhiwandi","latitude":"20.09N","longitude":"73.36E"}
{"date":"2012-12-01","average_temperature":"21.674","city":"Bhiwandi","latitude":"20.09N","longitude":"73.36E"}
{"date":"2011-01-01","average_temperature":"19.19","city":"Bhuj","latitude":"23.31N","longitude":"69.03E"}
{"date":"2010-10-01","average_temperature":"4.708","city":"Bialystok","latitude":"53.84N","longitude":"23.18E"}
{"date":"2011-07-01","average_temperature":"16.557000000000002","city":"Bielefeld","latitude":"52.24N","longitude":"7.88E"}
{"date":"2010-11-01","average_temperature":"8.05","city":"Bila Tserkva","latitude":"49.03N","longitude":"29.39E"}
{"date":"2012-07-01","average_temperature":"26.617","city":"Bintulu","latitude":"2.41N","longitude":"113.30E"}
{"date":"2011-06-01","average_temperature":"30.366999999999997","city":"Birganj","latitude":"26.52N","longitude":"84.18E"}
{"date":"2010-04-01","average_temperature":"18.218","city":"Birmingham","latitude":"32.95N","longitude":"87.13W"}
{"date":"2012-08-01","average_temperature":"26.285","city":"Bissau","latitude":"12.05N","longitude":"14.79W"}
{"date":"2012-01-01","average_temperature":"4.225","city":"Blackburn","latitude":"53.84N","longitude":"1.36W"}
{"date":"2011-06-01","average_temperature":"25.205","city":"Blitar","latitude":"8.84S","longitude":"112.70E"}
{"date":"2011-12-01","average_temperature":"28.344","city":"Boa Vista","latitude":"2.41N","longitude":"60.27W"}
{"date":"2013-01-01","average_temperature":"4.21","city":"Bojnurd","latitude":"37.78N","longitude":"56.95E"}
{"date":"2011-11-01","average_temperature":"22.522","city":"Bokaro","latitude":"23.31N","longitude":"86.50E"}
{"date":"2013-03-01","average_temperature":"1.8340000000000003","city":"Bonn","latitude":"50.63N","longitude":"6.34E"}
{"date":"2012-11-01","average_temperature":"9.061","city":"Bordeaux","latitude":"44.20N","longitude":"0.00W"}
{"date":"2010-05-01","average_temperature":"22.815","city":"Brasília","latitude":"15.27S","longitude":"47.50W"}
{"date":"2010-09-01","average_temperature":"14.439","city":"Brasov","latitude":"45.81N","longitude":"26.54E"}
{"date":"2012-12-01","average_temperature":"-3.0860000000000003","city":"Brasov","latitude":"45.81N","longitude":"26.54E"}
{"date":"2011-02-01","average_temperature":"7.606","city":"Brighton","latitude":"50.63N","longitude":"1.27W"}
{"date":"2012-06-01","average_temperature":"18.169","city":"Brno","latitude":"49.03N","longitude":"17.14E"}
{"date":"2013-02-01","average_temperature":"-0.6200000000000001","city":"Brno","latitude":"49.03N","longitude":"17.14E"}
{"date":"2010-03-01","average_temperature":"17.503","city":"Brownsville","latitude":"26.52N","longitude":"96.72W"}
{"date":"2010-01-01","average_temperature":"-3.219","city":"Bucharest","latitude":"44.20N","longitude":"26.83E"}
{"date":"2012-10-01","average_temperature":"25.875","city":"Budaun","latitude":"28.13N","longitude":"79.09E"}
{"date":"2013-01-01","average_temperature":"13.737","city":"Budaun","latitude":"28.13N","longitude":"79.09E"}
{"date":"2011-07-01","average_temperature":"29.535","city":"Buhe","latitude":"29.74N","longitude":"112.62E"}
{"date":"2012-03-01","average_temperature":"26.81","city":"Burhanpur","latitude":"21.70N","longitude":"77.02E"}
{"date":"2012-09-01","average_temperature":"27.86","city":"Bushehr","latitude":"29.74N","longitude":"51.69E"}
{"date":"2013-06-01","average_temperature":"26.566","city":"Córdoba","latitude":"18.48N","longitude":"96.34W"}
{"date":"2010-01-01","average_temperature":"8.107000000000001","city":"Córdoba","latitude":"37.78N","longitude":"4.07W"}
{"date":"2013-09-01","city":"Cadiz","latitude":"10.45N","longitude":"123.55E"}
{"date":"2013-04-01","average_temperature":"27.618","city":"Cagayan De Oro","latitude":"8.84N","longitude":"124.05E"}
{"date":"2012-12-01","average_temperature":"12.432","city":"Cagliari","latitude":"39.38N","longitude":"8.32E"}
{"date":"2010-05-01","average_temperature":"28.357","city":"Calabar","latitude":"5.63N","longitude":"8.07E"}
{"date":"2011-02-01","average_temperature":"25.444000000000006","city":"Calamba","latitude":"13.66N","longitude":"121.38E"}
{"date":"2012-12-01","average_temperature":"26.851","city":"Camaragibe","latitude":"7.23S","longitude":"34.86W"}
{"date":"2013-03-01","average_temperature":"3.2319999999999998","city":"Cambridge","latitude":"52.24N","longitude":"0.00W"}
{"date":"2011-11-01","average_temperature":"16.314","city":"Canberra","latitude":"36.17S","longitude":"149.17E"}
{"date":"2011-01-01","average_temperature":"20.607000000000006","city":"Cape Town","latitude":"32.95S","longitude":"18.19E"}
{"date":"2011-08-01","average_temperature":"27.545","city":"Carúpano","latitude":"10.45N","longitude":"63.00W"}
{"date":"2012-07-01","average_temperature":"15.386","city":"Cardiff","latitude":"52.24N","longitude":"2.63W"}
{"date":"2013-04-01","average_temperature":"30.435","city":"Champdani","latitude":"23.31N","longitude":"88.25E"}
{"date":"2013-07-01","average_temperature":"29.65","city":"Chandpur","latitude":"23.31N","longitude":"90.00E"}
{"date":"2012-11-01","average_temperature":"19.195","city":"Chaozhou","latitude":"23.31N","longitude":"116.21E"}
{"date":"2010-05-01","average_temperature":"17.324","city":"Cheboksary","latitude":"55.45N","longitude":"48.19E"}
{"date":"2012-06-01","average_temperature":"13.477","city":"Chelmsford","latitude":"52.24N","longitude":"0.00W"}
{"date":"2011-06-01","average_temperature":"18.834","city":"Chengdu","latitude":"31.35N","longitude":"103.66E"}
{"date":"2011-03-01","average_temperature":"-3.4810000000000003","city":"Cherepovets","latitude":"58.66N","longitude":"36.92E"}
{"date":"2012-08-01","average_temperature":"15.325","city":"Cherepovets","latitude":"58.66N","longitude":"36.92E"}
{"date":"2010-04-01","average_temperature":"27.664","city":"Chetumal","latitude":"18.48N","longitude":"87.89W"}
{"date":"2012-09-01","average_temperature":"28.941999999999997","city":"Chetumal","latitude":"18.48N","longitude":"87.89W"}
{"date":"2010-04-01","average_temperature":"30.695","city":"Chiang Mai","latitude":"18.48N","longitude":"99.72E"}
{"date":"2010-03-01","average_temperature":"-2.417","city":"Chifeng","latitude":"42.59N","longitude":"120.00E"}
{"date":"2013-06-01","average_temperature":"21.61","city":"Chifeng","latitude":"42.59N","longitude":"120.00E"}
{"date":"2011-10-01","average_temperature":"18.517","city":"Chihuahua","latitude":"28.13N","longitude":"106.36W"}
{"date":"2013-08-01","average_temperature":"6.688","city":"Chillan","latitude":"36.17S","longitude":"71.60W"}
{"date":"2012-02-01","average_temperature":"14.095999999999998","city":"Chimalhuacán","latitude":"20.09N","longitude":"98.96W"}
{"date":"2011-01-01","average_temperature":"22.52","city":"Chitradurga","latitude":"13.66N","longitude":"76.79E"}
{"date":"2012-05-01","average_temperature":"28.727","city":"Chitradurga","latitude":"13.66N","longitude":"76.79E"}
{"date":"2011-10-01","average_temperature":"26.194000000000003","city":"Chittaurgarh","latitude":"24.92N","longitude":"74.48E"}
{"date":"2010-03-01","average_temperature":"9.665","city":"Chizhou","latitude":"31.35N","longitude":"116.86E"}
{"date":"2011-08-01","average_temperature":"26.381999999999998","city":"Choloma","latitude":"15.27N","longitude":"87.50W"}
{"date":"2011-10-01","average_temperature":"23.619","city":"Choloma","latitude":"15.27N","longitude":"87.50W"}
{"date":"2012-04-01","average_temperature":"26.281","city":"Choloma","latitude":"15.27N","longitude":"87.50W"}
{"date":"2012-02-01","average_temperature":"-5.932","city":"Chorzow","latitude":"50.63N","longitude":"19.01E"}
{"date":"2012-03-01","average_temperature":"13.669","city":"Chula Vista","latitude":"32.95N","longitude":"117.77W"}
{"date":"2012-09-01","average_temperature":"22.851999999999997","city":"Chula Vista","latitude":"32.95N","longitude":"117.77W"}
{"date":"2013-07-01","average_temperature":"19.929","city":"Chula Vista","latitude":"32.95N","longitude":"117.77W"}
{"date":"2010-10-01","average_temperature":"25.313","city":"Ciamis","latitude":"7.23S","longitude":"107.84E"}
{"date":"2012-06-01","average_temperature":"26.78","city":"Cibadak","latitude":"7.23S","longitude":"106.22E"}
{"date":"2012-01-01","average_temperature":"26.913","city":"Cikarang","latitude":"5.63S","longitude":"106.55E"}
{"date":"2012-05-01","average_temperature":"28.129","city":"Cikupa","latitude":"5.63S","longitude":"106.55E"}
{"date":"2011-11-01","average_temperature":"25.775","city":"Cirebon","latitude":"7.23S","longitude":"107.84E"}
{"date":"2010-02-01","average_temperature":"21.276","city":"Coatzacoalcos","latitude":"18.48N","longitude":"94.65W"}
{"date":"2012-09-01","average_temperature":"16.399","city":"Cochabamba","latitude":"16.87S","longitude":"66.98W"}
{"date":"2010-01-01","average_temperature":"1.381","city":"Colchester","latitude":"52.24N","longitude":"0.00W"}
{"date":"2012-07-01","average_temperature":"14.093","city":"Colombo","latitude":"24.92S","longitude":"49.66W"}
{"date":"2013-02-01","average_temperature":"-1.882","city":"Colorado Springs","latitude":"39.38N","longitude":"104.05W"}
{"date":"2010-05-01","average_temperature":"23.133000000000003","city":"Columbus","latitude":"32.95N","longitude":"85.21W"}
{"date":"2013-08-01","average_temperature":"12.797999999999998","city":"Concordia","latitude":"31.35S","longitude":"58.43W"}
{"date":"2011-12-01","average_temperature":"22.054","city":"Conselheiro Lafaiete","latitude":"20.09S","longitude":"44.36W"}
{"date":"2012-05-01","average_temperature":"17.585","city":"Constanta","latitude":"44.20N","longitude":"29.07E"}
{"date":"2012-12-01","average_temperature":"3.375","city":"Constanta","latitude":"44.20N","longitude":"29.07E"}
{"date":"2012-03-01","average_temperature":"23.299","city":"Contagem","latitude":"20.09S","longitude":"44.36W"}
{"date":"2010-05-01","average_temperature":"26.882","city":"Coral Springs","latitude":"26.52N","longitude":"80.60W"}
{"date":"2011-07-01","average_temperature":"26.893","city":"Cotabato","latitude":"7.23N","longitude":"124.05E"}
{"date":"2011-01-01","average_temperature":"-0.7490000000000001","city":"Cracow","latitude":"50.63N","longitude":"19.01E"}
{"date":"2010-07-01","average_temperature":"17.417","city":"Crawley","latitude":"50.63N","longitude":"1.27W"}
{"date":"2010-06-01","average_temperature":"31.458000000000002","city":"Cuddapah","latitude":"15.27N","longitude":"79.17E"}
{"date":"2011-07-01","average_temperature":"21.33","city":"Cuenca","latitude":"2.41S","longitude":"79.55W"}
{"date":"2011-09-01","average_temperature":"22.104","city":"Cuernavaca","latitude":"18.48N","longitude":"99.72W"}
{"date":"2010-04-01","average_temperature":"13.327","city":"Curico","latitude":"34.56S","longitude":"72.00W"}
{"date":"2012-03-01","average_temperature":"20.891","city":"Curitiba","latitude":"24.92S","longitude":"49.66W"}
{"date":"2011-07-01","average_temperature":"15.847000000000001","city":"Düsseldorf","latitude":"50.63N","longitude":"6.34E"}
{"date":"2013-04-01","average_temperature":"27.651999999999997","city":"Da Nang","latitude":"15.27N","longitude":"107.50E"}
{"date":"2010-11-01","average_temperature":"15.414000000000001","city":"Dahuk","latitude":"36.17N","longitude":"43.76E"}
{"date":"2011-11-01","average_temperature":"21.586","city":"Daliang","latitude":"23.31N","longitude":"112.72E"}
{"date":"2010-09-01","average_temperature":"26.138","city":"Dallas","latitude":"32.95N","longitude":"96.70W"}
{"date":"2012-03-01","average_temperature":"17.529","city":"Dallas","latitude":"32.95N","longitude":"96.70W"}
{"date":"2012-01-01","average_temperature":"22.971","city":"Damaturu","latitude":"12.05N","longitude":"11.51E"}
{"date":"2011-08-01","average_temperature":"24.473000000000003","city":"Dar Es Salaam","latitude":"7.23S","longitude":"39.73E"}
{"date":"2010-01-01","average_temperature":"14.440999999999999","city":"Darjiling","latitude":"26.52N","longitude":"87.76E"}
{"date":"2012-05-01","average_temperature":"26.333","city":"Darjiling","latitude":"26.52N","longitude":"87.76E"}
{"date":"2012-07-01","average_temperature":"25.967","city":"Darjiling","latitude":"26.52N","longitude":"87.76E"}
{"date":"2010-12-01","average_temperature":"-3.911000000000001","city":"Darmstadt","latitude":"50.63N","longitude":"8.87E"}
{"date":"2011-08-01","average_temperature":"29.320999999999998","city":"Daska","latitude":"32.95N","longitude":"73.72E"}
{"date":"2013-01-01","average_temperature":"25.316999999999997","city":"Davao","latitude":"7.23N","longitude":"125.68E"}
{"date":"2011-01-01","average_temperature":"-19.623","city":"Dehui","latitude":"44.20N","longitude":"125.22E"}
{"date":"2010-07-01","average_temperature":"31.465","city":"Delhi","latitude":"28.13N","longitude":"77.27E"}
{"date":"2012-12-01","average_temperature":"16.566","city":"Delhi","latitude":"28.13N","longitude":"77.27E"}
{"date":"2011-11-01","average_temperature":"12.918","city":"Delicias","latitude":"28.13N","longitude":"106.36W"}
{"date":"2010-08-01","average_temperature":"29.362","city":"Delmas","latitude":"18.48N","longitude":"72.68W"}
{"date":"2011-12-01","average_temperature":"-3.0610000000000004","city":"Denver","latitude":"39.38N","longitude":"104.05W"}
{"date":"2012-09-01","average_temperature":"19.727","city":"Derbent","latitude":"42.59N","longitude":"48.00E"}
{"date":"2011-12-01","average_temperature":"4.819","city":"Derby","latitude":"53.84N","longitude":"1.36W"}
{"date":"2013-05-01","average_temperature":"20.951999999999998","city":"Dezful","latitude":"32.95N","longitude":"48.83E"}
{"date":"2013-05-01","average_temperature":"29.607","city":"Dinajpur","latitude":"24.92N","longitude":"88.67E"}
{"date":"2011-11-01","average_temperature":"2.057","city":"Dingzhou","latitude":"39.38N","longitude":"114.45E"}
{"date":"2011-09-01","average_temperature":"30.9","city":"Dire Dawa","latitude":"10.45N","longitude":"41.73E"}
{"date":"2013-06-01","average_temperature":"31.662","city":"Dire Dawa","latitude":"10.45N","longitude":"41.73E"}
{"date":"2010-04-01","average_temperature":"23.598000000000003","city":"Dongli","latitude":"20.09N","longitude":"110.90E"}
{"date":"2010-12-01","average_temperature":"20.270000000000003","city":"Dongli","latitude":"20.09N","longitude":"110.90E"}
{"date":"2013-07-01","average_temperature":"29.754","city":"Dongtai","latitude":"32.95N","longitude":"119.68E"}
{"date":"2010-07-01","average_temperature":"19.775","city":"Dordrecht","latitude":"52.24N","longitude":"5.26E"}
{"date":"2013-01-01","average_temperature":"1.06","city":"Dortmund","latitude":"52.24N","longitude":"7.88E"}
{"date":"2010-07-01","average_temperature":"36.26300000000001","city":"Dubai","latitude":"24.92N","longitude":"54.98E"}
{"date":"2010-12-01","average_temperature":"19.602999999999998","city":"Dum Dum","latitude":"23.31N","longitude":"88.25E"}
{"date":"2011-07-01","average_temperature":"1.308","city":"Dunedin","latitude":"45.81S","longitude":"169.62E"}
{"date":"2011-07-01","average_temperature":"16.671","city":"Durban","latitude":"29.74S","longitude":"31.38E"}
{"date":"2011-02-01","average_temperature":"9.308","city":"Durrës","latitude":"40.99N","longitude":"19.17E"}
{"date":"2012-06-01","average_temperature":"21.066","city":"East Los Angeles","latitude":"34.56N","longitude":"118.70W"}
{"date":"2010-05-01","average_temperature":"21.023000000000003","city":"El Paso","latitude":"31.35N","longitude":"105.55W"}
{"date":"2012-10-01","average_temperature":"13.673","city":"Elista","latitude":"45.81N","longitude":"45.00E"}
{"date":"2010-08-01","average_temperature":"16.442999999999998","city":"Erfurt","latitude":"50.63N","longitude":"11.41E"}
{"date":"2011-02-01","average_temperature":"-0.247","city":"Erfurt","latitude":"50.63N","longitude":"11.41E"}
{"date":"2012-03-01","average_temperature":"4.299","city":"Esfahan","latitude":"32.95N","longitude":"50.74E"}
{"date":"2013-05-01","average_temperature":"16.283","city":"Esfahan","latitude":"32.95N","longitude":"50.74E"}
{"date":"2011-08-01","average_temperature":"17.58","city":"Essen","latitude":"50.63N","longitude":"6.34E"}
{"date":"2012-07-01","average_temperature":"17.346","city":"Essen","latitude":"50.63N","longitude":"6.34E"}
{"date":"2011-06-01","average_temperature":"32.508","city":"Etawah","latitude":"26.52N","longitude":"78.81E"}
{"date":"2012-02-01","average_temperature":"4.755","city":"Eugene","latitude":"44.20N","longitude":"122.98W"}
{"date":"2013-07-01","average_temperature":"20.968000000000004","city":"Fürth","latitude":"49.03N","longitude":"9.80E"}
{"date":"2013-05-01","average_temperature":"17.434","city":"Fairfield","latitude":"37.78N","longitude":"122.03W"}
{"date":"2011-04-01","average_temperature":"28.758000000000006","city":"Farrukhabad","latitude":"28.13N","longitude":"79.09E"}
{"date":"2013-07-01","average_temperature":"29.805999999999997","city":"Farrukhabad","latitude":"28.13N","longitude":"79.09E"}
{"date":"2012-05-01","average_temperature":"17.554000000000002","city":"Fengcheng","latitude":"40.99N","longitude":"123.55E"}
{"date":"2011-01-01","average_temperature":"15.018","city":"Fengshan","latitude":"23.31N","longitude":"119.71E"}
{"date":"2012-10-01","average_temperature":"24.624000000000002","city":"Foz Do Iguaçu","latitude":"24.92S","longitude":"54.98W"}
{"date":"2011-03-01","average_temperature":"4.674","city":"Fuchu","latitude":"36.17N","longitude":"139.23E"}
{"date":"2013-04-01","average_temperature":"14.461","city":"Fujieda","latitude":"34.56N","longitude":"138.16E"}
{"date":"2012-02-01","average_temperature":"3.587","city":"Fukuyama","latitude":"34.56N","longitude":"134.27E"}
{"date":"2011-06-01","average_temperature":"24.991999999999997","city":"Fuling","latitude":"29.74N","longitude":"107.08E"}
{"date":"2012-09-01","average_temperature":"17.563","city":"Fuxin","latitude":"42.59N","longitude":"122.18E"}
{"date":"2013-03-01","average_temperature":"13.718","city":"Fuzhou","latitude":"26.52N","longitude":"120.00E"}
{"date":"2011-03-01","average_temperature":"18.545","city":"Gainesville","latitude":"29.74N","longitude":"83.08W"}
{"date":"2011-10-01","average_temperature":"9.734","city":"Galati","latitude":"45.81N","longitude":"28.85E"}
{"date":"2010-03-01","average_temperature":"14.462","city":"Garden Grove","latitude":"32.95N","longitude":"117.77W"}
{"date":"2012-02-01","average_temperature":"25.362","city":"Garut","latitude":"7.23S","longitude":"107.84E"}
{"date":"2012-10-01","average_temperature":"26.503","city":"Garut","latitude":"7.23S","longitude":"107.84E"}
{"date":"2010-06-01","average_temperature":"22.245","city":"Gejiu","latitude":"23.31N","longitude":"103.98E"}
{"date":"2013-02-01","average_temperature":"27.166","city":"Gemena","latitude":"4.02N","longitude":"20.09E"}
{"date":"2010-05-01","average_temperature":"10.501","city":"Gera","latitude":"50.63N","longitude":"11.41E"}
{"date":"2010-06-01","average_temperature":"35.165","city":"Ghaziabad","latitude":"28.13N","longitude":"77.27E"}
{"date":"2012-10-01","average_temperature":"23.183000000000003","city":"Gilbert","latitude":"32.95N","longitude":"112.02W"}
{"date":"2013-05-01","average_temperature":"25.926","city":"Gilbert","latitude":"32.95N","longitude":"112.02W"}
{"date":"2013-08-01","average_temperature":"26.397","city":"Girón","latitude":"7.23N","longitude":"73.78W"}
{"date":"2011-09-01","average_temperature":"27.406999999999996","city":"Gizeh","latitude":"29.74N","longitude":"31.38E"}
{"date":"2013-01-01","average_temperature":"9.58","city":"Glendale","latitude":"32.95N","longitude":"112.02W"}
{"date":"2010-07-01","average_temperature":"21.101","city":"Gliwice","latitude":"50.63N","longitude":"19.01E"}
{"date":"2013-06-01","average_temperature":"17.879","city":"Gliwice","latitude":"50.63N","longitude":"19.01E"}
{"date":"2011-12-01","average_temperature":"20.980999999999998","city":"Gold Coast","latitude":"28.13S","longitude":"153.64E"}
{"date":"2011-01-01","average_temperature":"0.278","city":"Gorzow Wielkopolski","latitude":"52.24N","longitude":"15.77E"}
{"date":"2011-08-01","average_temperature":"19.529","city":"Gorzow Wielkopolski","latitude":"52.24N","longitude":"15.77E"}
{"date":"2013-01-01","average_temperature":"-1.947","city":"Graz","latitude":"47.42N","longitude":"15.39E"}
{"date":"2012-01-01","average_temperature":"5.916","city":"Greensboro","latitude":"36.17N","longitude":"79.56W"}
{"date":"2012-03-01","average_temperature":"14.806","city":"Greensboro","latitude":"36.17N","longitude":"79.56W"}
{"date":"2011-03-01","average_temperature":"22.516","city":"Guadalupe","latitude":"26.52N","longitude":"100.30W"}
{"date":"2013-08-01","average_temperature":"29.974","city":"Guangshui","latitude":"31.35N","longitude":"113.09E"}
{"date":"2013-08-01","average_temperature":"21.129","city":"Guarapari","latitude":"20.09S","longitude":"40.95W"}
{"date":"2013-05-01","average_temperature":"18.317","city":"Guarulhos","latitude":"23.31S","longitude":"46.31W"}
{"date":"2011-04-01","average_temperature":"25.96","city":"Gulu","latitude":"2.41N","longitude":"32.95E"}
{"date":"2010-07-01","average_temperature":"29.537000000000006","city":"Guna","latitude":"24.92N","longitude":"78.03E"}
{"date":"2011-03-01","average_temperature":"28.734","city":"Guntur","latitude":"16.87N","longitude":"80.37E"}
{"date":"2011-06-01","average_temperature":"32.508","city":"Gwalior","latitude":"26.52N","longitude":"78.81E"}
{"date":"2012-01-01","average_temperature":"13.884","city":"Gwalior","latitude":"26.52N","longitude":"78.81E"}
{"date":"2012-08-01","average_temperature":"18.588","city":"Haarlem","latitude":"52.24N","longitude":"5.26E"}
{"date":"2011-10-01","average_temperature":"17.774","city":"Habikino","latitude":"34.56N","longitude":"136.22E"}
{"date":"2012-12-01","average_temperature":"-22.765","city":"Hailun","latitude":"47.42N","longitude":"126.71E"}
{"date":"2011-07-01","average_temperature":"28.794","city":"Haimen","latitude":"23.31N","longitude":"116.21E"}
{"date":"2011-09-01","average_temperature":"29.092","city":"Halisahar","latitude":"23.31N","longitude":"88.25E"}
{"date":"2010-01-01","average_temperature":"3.0090000000000003","city":"Hamadan","latitude":"34.56N","longitude":"48.65E"}
{"date":"2010-03-01","average_temperature":"9.176","city":"Hamadan","latitude":"34.56N","longitude":"48.65E"}
{"date":"2012-11-01","average_temperature":"6.291","city":"Handan","latitude":"36.17N","longitude":"115.36E"}
{"date":"2013-09-01","city":"Hangu","latitude":"39.38N","longitude":"118.61E"}
{"date":"2013-09-01","city":"Harbin","latitude":"45.81N","longitude":"125.77E"}
{"date":"2010-02-01","average_temperature":"19.178","city":"Hathras","latitude":"28.13N","longitude":"77.27E"}
{"date":"2010-06-01","average_temperature":"35.165","city":"Hathras","latitude":"28.13N","longitude":"77.27E"}
{"date":"2010-01-01","average_temperature":"15.806","city":"Hazaribag","latitude":"23.31N","longitude":"84.76E"}
{"date":"2013-06-01","average_temperature":"19.938","city":"Hegang","latitude":"47.42N","longitude":"131.45E"}
{"date":"2011-02-01","average_temperature":"-11.104000000000001","city":"Helsinki","latitude":"60.27N","longitude":"25.95E"}
{"date":"2011-06-01","average_temperature":"26.096","city":"Henderson","latitude":"36.17N","longitude":"115.36W"}
{"date":"2010-01-01","average_temperature":"-2.9019999999999997","city":"Hengshui","latitude":"37.78N","longitude":"115.93E"}
{"date":"2011-02-01","average_temperature":"1.0959999999999999","city":"Hengshui","latitude":"37.78N","longitude":"115.93E"}
{"date":"2012-07-01","average_temperature":"29.144","city":"Hengyang","latitude":"26.52N","longitude":"112.84E"}
{"date":"2010-01-01","average_temperature":"-2.3070000000000004","city":"Herne","latitude":"52.24N","longitude":"7.88E"}
{"date":"2013-06-01","average_temperature":"26.838","city":"Honghu","latitude":"29.74N","longitude":"112.62E"}
{"date":"2012-10-01","average_temperature":"25.41","city":"Hosur","latitude":"12.05N","longitude":"77.26E"}
{"date":"2011-11-01","average_temperature":"-3.0840000000000005","city":"Huadian","latitude":"42.59N","longitude":"126.55E"}
{"date":"2010-06-01","average_temperature":"26.011999999999997","city":"Huaibei","latitude":"34.56N","longitude":"116.76E"}
{"date":"2011-07-01","average_temperature":"17.135","city":"Huambo","latitude":"13.66S","longitude":"15.69E"}
{"date":"2011-01-01","average_temperature":"-5.667000000000001","city":"Huangcun","latitude":"39.38N","longitude":"116.53E"}
{"date":"2010-03-01","average_temperature":"5.792999999999999","city":"Huddersfield","latitude":"53.84N","longitude":"1.36W"}
{"date":"2011-04-01","average_temperature":"18.351","city":"Huelva","latitude":"37.78N","longitude":"6.10W"}
{"date":"2011-10-01","average_temperature":"25.976000000000006","city":"Ibadan","latitude":"7.23N","longitude":"4.05E"}
{"date":"2010-08-01","average_temperature":"20.301","city":"Ibirité","latitude":"20.09S","longitude":"44.36W"}
{"date":"2011-03-01","average_temperature":"11.242","city":"Ica","latitude":"13.66S","longitude":"75.14W"}
{"date":"2012-07-01","average_temperature":"25.958","city":"Ichalkaranji","latitude":"16.87N","longitude":"73.67E"}
{"date":"2010-04-01","average_temperature":"13.765","city":"Ichihara","latitude":"34.56N","longitude":"140.11E"}
{"date":"2013-08-01","average_temperature":"27.986","city":"Idlib","latitude":"36.17N","longitude":"35.80E"}
{"date":"2012-03-01","average_temperature":"30.630000000000006","city":"Igboho","latitude":"8.84N","longitude":"4.05E"}
{"date":"2011-04-01","average_temperature":"28.71","city":"Ikorodu","latitude":"7.23N","longitude":"4.05E"}
{"date":"2013-08-01","average_temperature":"24.296000000000006","city":"Ila","latitude":"7.23N","longitude":"5.68E"}
{"date":"2013-04-01","average_temperature":"27.879","city":"Ilobu","latitude":"7.23N","longitude":"4.05E"}
{"date":"2010-10-01","average_temperature":"26.311999999999998","city":"Inisa","latitude":"7.23N","longitude":"4.05E"}
{"date":"2010-04-01","average_temperature":"5.551","city":"Innsbruck","latitude":"47.42N","longitude":"10.66E"}
{"date":"2010-04-01","average_temperature":"18.803","city":"Iquique","latitude":"20.09S","longitude":"69.95W"}
{"date":"2011-07-01","average_temperature":"34.593","city":"Iranshahr","latitude":"26.52N","longitude":"60.90E"}
{"date":"2011-11-01","average_temperature":"15.977","city":"Irapuato","latitude":"20.09N","longitude":"100.66W"}
{"date":"2012-11-01","average_temperature":"8.718","city":"Isesaki","latitude":"36.17N","longitude":"139.23E"}
{"date":"2013-02-01","average_temperature":"24.859","city":"Isiro","latitude":"2.41N","longitude":"28.13E"}
{"date":"2012-07-01","average_temperature":"24.444000000000006","city":"Iwatsuki","latitude":"36.17N","longitude":"139.23E"}
{"date":"2013-08-01","average_temperature":"27.43","city":"Izmir","latitude":"37.78N","longitude":"26.44E"}
{"date":"2011-10-01","average_temperature":"17.774","city":"Izumi","latitude":"34.56N","longitude":"136.22E"}
{"date":"2010-10-01","average_temperature":"16.586","city":"Jaén","latitude":"37.78N","longitude":"4.07W"}
{"date":"2012-12-01","average_temperature":"9.353","city":"Jaén","latitude":"37.78N","longitude":"4.07W"}
{"date":"2012-02-01","average_temperature":"17.838","city":"Jacksonville","latitude":"29.74N","longitude":"81.23W"}
{"date":"2011-01-01","average_temperature":"12.286","city":"Jahrom","latitude":"28.13N","longitude":"53.64E"}
{"date":"2010-07-01","average_temperature":"27.292","city":"Jalpaiguri","latitude":"26.52N","longitude":"89.55E"}
{"date":"2010-09-01","average_temperature":"29.631","city":"Jamalpur","latitude":"24.92N","longitude":"86.90E"}
{"date":"2012-11-01","average_temperature":"26.989","city":"Jambi","latitude":"0.80S","longitude":"103.66E"}
{"date":"2011-11-01","average_temperature":"12.513","city":"Jammu","latitude":"32.95N","longitude":"75.64E"}
{"date":"2010-09-01","average_temperature":"29.235000000000007","city":"Jaunpur","latitude":"26.52N","longitude":"82.39E"}
{"date":"2011-05-01","average_temperature":"21.985","city":"Jequié","latitude":"13.66S","longitude":"40.46W"}
{"date":"2010-03-01","average_temperature":"27.92","city":"Jhansi","latitude":"24.92N","longitude":"78.03E"}
{"date":"2013-08-01","average_temperature":"25.585","city":"Ji Paraná","latitude":"10.45S","longitude":"61.36W"}
{"date":"2012-05-01","average_temperature":"22.47","city":"Jiangyou","latitude":"31.35N","longitude":"105.55E"}
{"date":"2012-11-01","average_temperature":"-9.017999999999999","city":"Jiayuguan","latitude":"39.38N","longitude":"97.80E"}
{"date":"2011-12-01","average_temperature":"14.039000000000001","city":"Jiazi","latitude":"23.31N","longitude":"116.21E"}
{"date":"2010-01-01","average_temperature":"12.318","city":"Jind","latitude":"29.74N","longitude":"75.69E"}
{"date":"2010-09-01","average_temperature":"19.06","city":"Jinxi","latitude":"40.99N","longitude":"121.42E"}
{"date":"2011-08-01","average_temperature":"23.877","city":"Jiupu","latitude":"40.99N","longitude":"123.55E"}
{"date":"2012-08-01","average_temperature":"12.859000000000002","city":"Johannesburg","latitude":"26.52S","longitude":"28.66E"}
{"date":"2010-07-01","average_temperature":"27.356","city":"Johor Bahru","latitude":"0.80N","longitude":"103.66E"}
{"date":"2011-12-01","average_temperature":"21.823","city":"Jos","latitude":"10.45N","longitude":"9.00E"}
{"date":"2012-09-01","average_temperature":"24.026999999999997","city":"Jos","latitude":"10.45N","longitude":"9.00E"}
{"date":"2013-04-01","average_temperature":"26.566","city":"Juba","latitude":"4.02N","longitude":"31.34E"}
{"date":"2012-06-01","average_temperature":"28.093000000000004","city":"Kabankalan","latitude":"10.45N","longitude":"123.55E"}
{"date":"2012-09-01","average_temperature":"19.89","city":"Kaili","latitude":"26.52N","longitude":"107.46E"}
{"date":"2011-08-01","average_temperature":"28.627","city":"Kakinada","latitude":"16.87N","longitude":"82.05E"}
{"date":"2010-06-01","average_temperature":"19.754","city":"Kaluga","latitude":"53.84N","longitude":"36.82E"}
{"date":"2010-10-01","average_temperature":"26.183000000000003","city":"Kalyan","latitude":"20.09N","longitude":"73.36E"}
{"date":"2010-02-01","average_temperature":"28.561","city":"Kaolack","latitude":"13.66N","longitude":"15.69W"}
{"date":"2010-06-01","average_temperature":"30.639","city":"Kapra","latitude":"16.87N","longitude":"78.70E"}
{"date":"2012-04-01","average_temperature":"26.921","city":"Karang Tengah","latitude":"7.23S","longitude":"106.22E"}
{"date":"2013-07-01","average_temperature":"27.779","city":"Karimnagar","latitude":"18.48N","longitude":"79.44E"}
{"date":"2011-10-01","average_temperature":"9.382","city":"Kassel","latitude":"50.63N","longitude":"8.87E"}
{"date":"2012-12-01","average_temperature":"7.359","city":"Kathmandu","latitude":"28.13N","longitude":"84.55E"}
{"date":"2011-01-01","average_temperature":"15.928","city":"Katihar","latitude":"24.92N","longitude":"86.90E"}
{"date":"2011-01-01","average_temperature":"21.583","city":"Katumba","latitude":"8.84S","longitude":"33.24E"}
{"date":"2011-01-01","average_temperature":"0.8170000000000001","city":"Kawagoe","latitude":"36.17N","longitude":"139.23E"}
{"date":"2010-08-01","average_temperature":"19.909000000000002","city":"Khabarovsk","latitude":"49.03N","longitude":"134.69E"}
{"date":"2011-09-01","average_temperature":"31.835","city":"Khartoum","latitude":"15.27N","longitude":"32.50E"}
{"date":"2011-10-01","average_temperature":"8.499","city":"Kherson","latitude":"47.42N","longitude":"31.97E"}
{"date":"2013-08-01","average_temperature":"17.485","city":"Khimki","latitude":"55.45N","longitude":"36.85E"}
{"date":"2012-04-01","average_temperature":"30.435","city":"Khlong Luang","latitude":"13.66N","longitude":"99.91E"}
{"date":"2012-03-01","average_temperature":"21.458","city":"Kigoma","latitude":"4.02S","longitude":"29.73E"}
{"date":"2012-11-01","average_temperature":"24.739","city":"Kikwit","latitude":"5.63S","longitude":"19.37E"}
{"date":"2011-05-01","average_temperature":"14.130999999999998","city":"Kingston","latitude":"44.20N","longitude":"76.02W"}
{"date":"2011-05-01","average_temperature":"16.147000000000002","city":"Kiryu","latitude":"36.17N","longitude":"139.23E"}
{"date":"2012-02-01","average_temperature":"-7.962000000000001","city":"Kislovodsk","latitude":"44.20N","longitude":"42.48E"}
{"date":"2013-08-01","average_temperature":"26.95","city":"Klaten","latitude":"7.23S","longitude":"111.08E"}
{"date":"2013-02-01","average_temperature":"-3.228","city":"Kolpino","latitude":"60.27N","longitude":"29.19E"}
{"date":"2010-09-01","average_temperature":"27.67","city":"Korba","latitude":"21.70N","longitude":"82.21E"}
{"date":"2013-01-01","average_temperature":"26.175","city":"Koronadal","latitude":"5.63N","longitude":"124.30E"}
{"date":"2013-08-01","average_temperature":"17.088","city":"Kostroma","latitude":"57.05N","longitude":"39.84E"}
{"date":"2011-02-01","average_temperature":"25.046999999999997","city":"Kota Kinabalu","latitude":"5.63N","longitude":"116.23E"}
{"date":"2013-03-01","average_temperature":"26.959","city":"Kota Kinabalu","latitude":"5.63N","longitude":"116.23E"}
{"date":"2012-12-01","average_temperature":"26.266","city":"Kuching","latitude":"0.80N","longitude":"110.09E"}
{"date":"2010-10-01","average_temperature":"15.880999999999998","city":"Kumagaya","latitude":"36.17N","longitude":"139.23E"}
{"date":"2012-04-01","average_temperature":"13.759","city":"Kurashiki","latitude":"34.56N","longitude":"134.27E"}
{"date":"2013-05-01","average_temperature":"19.492","city":"Kurume","latitude":"32.95N","longitude":"131.17E"}
{"date":"2010-06-01","average_temperature":"19.589","city":"López Mateos","latitude":"20.09N","longitude":"98.96W"}
{"date":"2013-08-01","average_temperature":"13.452","city":"La Rioja","latitude":"29.74S","longitude":"66.46W"}
{"date":"2012-06-01","average_temperature":"27.233","city":"La Vega","latitude":"18.48N","longitude":"70.99W"}
{"date":"2012-04-01","average_temperature":"8.625","city":"Lansing","latitude":"42.59N","longitude":"85.09W"}
{"date":"2010-06-01","average_temperature":"17.256999999999998","city":"Lanzhou","latitude":"36.17N","longitude":"103.43E"}
{"date":"2012-11-01","average_temperature":"-6.097","city":"Lasa","latitude":"29.74N","longitude":"90.46E"}
{"date":"2012-01-01","average_temperature":"1.5319999999999998","city":"Lausanne","latitude":"45.81N","longitude":"5.77E"}
{"date":"2010-10-01","average_temperature":"11.684000000000001","city":"Leganés","latitude":"40.99N","longitude":"4.26W"}
{"date":"2011-11-01","average_temperature":"6.99","city":"Leiden","latitude":"52.24N","longitude":"5.26E"}
{"date":"2010-09-01","average_temperature":"13.204","city":"Leverkusen","latitude":"50.63N","longitude":"6.34E"}
{"date":"2010-09-01","average_temperature":"21.713","city":"Lexington Fayette","latitude":"37.78N","longitude":"85.42W"}
{"date":"2011-09-01","average_temperature":"27.48","city":"Liancheng","latitude":"21.70N","longitude":"109.90E"}
{"date":"2012-05-01","average_temperature":"18.868","city":"Lilongwe","latitude":"13.66S","longitude":"33.85E"}
{"date":"2013-05-01","average_temperature":"23.636","city":"Linchuan","latitude":"28.13N","longitude":"115.45E"}
{"date":"2010-07-01","average_temperature":"28.743","city":"Linqing","latitude":"36.17N","longitude":"115.36E"}
{"date":"2012-06-01","average_temperature":"22.674","city":"Linxi","latitude":"39.38N","longitude":"118.61E"}
{"date":"2012-09-01","average_temperature":"13.402000000000001","city":"Linz","latitude":"49.03N","longitude":"14.69E"}
{"date":"2012-10-01","average_temperature":"16.049","city":"Little Rock","latitude":"34.56N","longitude":"91.46W"}
{"date":"2011-11-01","average_temperature":"27.828000000000003","city":"Livingstone","latitude":"18.48S","longitude":"25.35E"}
{"date":"2011-03-01","average_temperature":"27.115","city":"Lobito","latitude":"12.05S","longitude":"13.15E"}
{"date":"2013-04-01","average_temperature":"7.53","city":"London","latitude":"52.24N","longitude":"0.00W"}
{"date":"2012-11-01","average_temperature":"17.245","city":"Long Beach","latitude":"32.95N","longitude":"117.77W"}
{"date":"2013-02-01","average_temperature":"12.835","city":"Long Beach","latitude":"32.95N","longitude":"117.77W"}
{"date":"2011-12-01","average_temperature":"26.72","city":"Long Xuyên","latitude":"10.45N","longitude":"105.55E"}
{"date":"2010-04-01","average_temperature":"2.2","city":"Longjing","latitude":"42.59N","longitude":"128.73E"}
{"date":"2010-05-01","average_temperature":"25.066000000000006","city":"Loum","latitude":"5.63N","longitude":"9.69E"}
{"date":"2011-02-01","average_temperature":"17.902","city":"Lower Hutt","latitude":"40.99S","longitude":"174.67E"}
{"date":"2011-10-01","average_temperature":"17.234","city":"Luan","latitude":"31.35N","longitude":"116.86E"}
{"date":"2012-07-01","average_temperature":"16.89","city":"Luanshya","latitude":"13.66S","longitude":"28.90E"}
{"date":"2011-03-01","average_temperature":"21.78","city":"Lubango","latitude":"15.27S","longitude":"14.17E"}
{"date":"2010-10-01","average_temperature":"23.38","city":"Luchou","latitude":"24.92N","longitude":"120.59E"}
{"date":"2013-07-01","average_temperature":"23.513","city":"Málaga","latitude":"36.17N","longitude":"3.98W"}
{"date":"2012-03-01","average_temperature":"8.16","city":"Mönchengladbach","latitude":"50.63N","longitude":"6.34E"}
{"date":"2012-05-01","average_temperature":"14.508","city":"Maastricht","latitude":"50.63N","longitude":"6.34E"}
{"date":"2011-03-01","average_temperature":"20.631","city":"Machala","latitude":"4.02S","longitude":"79.55W"}
{"date":"2012-11-01","average_temperature":"3.35","city":"Madison","latitude":"42.59N","longitude":"89.45W"}
{"date":"2010-11-01","average_temperature":"26.932","city":"Madras","latitude":"13.66N","longitude":"80.09E"}
{"date":"2012-11-01","average_temperature":"7.6099999999999985","city":"Madrid","latitude":"40.99N","longitude":"4.26W"}
{"date":"2010-12-01","average_temperature":"24.951","city":"Majalaya","latitude":"7.23S","longitude":"107.84E"}
{"date":"2010-11-01","average_temperature":"27.766","city":"Makurdi","latitude":"7.23N","longitude":"8.92E"}
{"date":"2012-07-01","average_temperature":"25.105999999999998","city":"Malabo","latitude":"4.02N","longitude":"8.84E"}
{"date":"2012-10-01","average_temperature":"28.018","city":"Malakal","latitude":"8.84N","longitude":"31.62E"}
{"date":"2013-02-01","average_temperature":"27.364","city":"Malang","latitude":"7.23S","longitude":"112.70E"}
{"date":"2011-08-01","average_temperature":"26.794","city":"Malolos","latitude":"15.27N","longitude":"120.83E"}
{"date":"2011-11-01","average_temperature":"26.258000000000006","city":"Managua","latitude":"12.05N","longitude":"85.48W"}
{"date":"2011-07-01","average_temperature":"36.543","city":"Manama","latitude":"26.52N","longitude":"50.15E"}
{"date":"2011-03-01","average_temperature":"0.8679999999999999","city":"Manchester","latitude":"42.59N","longitude":"72.00W"}
{"date":"2010-12-01","average_temperature":"22.719","city":"Mandya","latitude":"12.05N","longitude":"77.26E"}
{"date":"2012-04-01","average_temperature":"28.877","city":"Mangaluru","latitude":"13.66N","longitude":"75.14E"}
{"date":"2010-06-01","average_temperature":"23.947","city":"Manisa","latitude":"39.38N","longitude":"27.05E"}
{"date":"2013-08-01","average_temperature":"28.48","city":"Marabá","latitude":"5.63S","longitude":"48.43W"}
{"date":"2011-04-01","average_temperature":"9.617","city":"Maragheh","latitude":"37.78N","longitude":"46.78E"}
{"date":"2012-05-01","average_temperature":"26.934","city":"Mariara","latitude":"10.45N","longitude":"67.91W"}
{"date":"2011-06-01","average_temperature":"17.456","city":"Maringá","latitude":"23.31S","longitude":"51.55W"}
{"date":"2012-05-01","average_temperature":"22.886999999999997","city":"Marv Dasht","latitude":"29.74N","longitude":"53.54E"}
{"date":"2013-07-01","average_temperature":"27.182","city":"Masaya","latitude":"12.05N","longitude":"85.48W"}
{"date":"2011-01-01","average_temperature":"19.778","city":"Maseru","latitude":"29.74S","longitude":"27.69E"}
{"date":"2013-09-01","average_temperature":"27.880000000000006","city":"Matanzas","latitude":"23.31N","longitude":"81.26W"}
{"date":"2012-07-01","average_temperature":"32.448","city":"Mathura","latitude":"28.13N","longitude":"77.27E"}
{"date":"2013-09-01","city":"Mathura","latitude":"28.13N","longitude":"77.27E"}
{"date":"2011-09-01","average_temperature":"27.8","city":"Maturín","latitude":"10.45N","longitude":"63.00W"}
{"date":"2012-06-01","average_temperature":"18.113","city":"Mauá","latitude":"23.31S","longitude":"46.31W"}
{"date":"2013-02-01","average_temperature":"-1.255","city":"Mazyr","latitude":"52.24N","longitude":"28.91E"}
{"date":"2012-04-01","average_temperature":"20.475","city":"Mbeya","latitude":"8.84S","longitude":"33.24E"}
{"date":"2012-07-01","average_temperature":"22.336","city":"Mbouda","latitude":"5.63N","longitude":"9.69E"}
{"date":"2010-12-01","average_temperature":"16.479000000000006","city":"Meilu","latitude":"21.70N","longitude":"109.90E"}
{"date":"2011-11-01","average_temperature":"20.68","city":"Metepec","latitude":"18.48N","longitude":"99.72W"}
{"date":"2011-06-01","average_temperature":"16.069000000000003","city":"Mezhdurechensk","latitude":"53.84N","longitude":"88.64E"}
{"date":"2012-03-01","average_temperature":"-6.347","city":"Mezhdurechensk","latitude":"53.84N","longitude":"88.64E"}
{"date":"2012-11-01","average_temperature":"24.621","city":"Minatitlán","latitude":"18.48N","longitude":"94.65W"}
{"date":"2010-09-01","average_temperature":"11.796","city":"Minsk","latitude":"53.84N","longitude":"28.64E"}
{"date":"2011-02-01","average_temperature":"15.962","city":"Moga","latitude":"31.35N","longitude":"75.39E"}
{"date":"2012-03-01","average_temperature":"30.791","city":"Mokolo","latitude":"10.45N","longitude":"13.91E"}
{"date":"2013-03-01","average_temperature":"28.243000000000002","city":"Mormugao","latitude":"15.27N","longitude":"74.17E"}
{"date":"2012-03-01","average_temperature":"26.506","city":"Morvi","latitude":"23.31N","longitude":"70.78E"}
{"date":"2011-04-01","average_temperature":"16.616","city":"Murcia","latitude":"37.78N","longitude":"2.03W"}
{"date":"2012-02-01","average_temperature":"15.552","city":"Muzaffarnagar","latitude":"29.74N","longitude":"77.54E"}
{"date":"2011-02-01","average_temperature":"27.948","city":"Nacala","latitude":"15.27S","longitude":"40.83E"}
{"date":"2012-09-01","average_temperature":"23.257","city":"Nador","latitude":"34.56N","longitude":"3.89W"}
{"date":"2012-10-01","average_temperature":"15.722000000000001","city":"Nagareyama","latitude":"36.17N","longitude":"139.23E"}
{"date":"2010-10-01","average_temperature":"26.273000000000003","city":"Nagercoil","latitude":"8.84N","longitude":"77.03E"}
{"date":"2012-09-01","average_temperature":"27.295","city":"Nagpur","latitude":"21.70N","longitude":"78.75E"}
{"date":"2013-03-01","average_temperature":"18.823","city":"Nairobi","latitude":"0.80S","longitude":"36.16E"}
{"date":"2010-01-01","average_temperature":"26.615","city":"Nakhon Pathom","latitude":"13.66N","longitude":"99.91E"}
{"date":"2012-08-01","average_temperature":"28.56","city":"Nakhon Si Thammarat","latitude":"8.84N","longitude":"99.73E"}
{"date":"2010-07-01","average_temperature":"26.996","city":"Nalgonda","latitude":"16.87N","longitude":"78.70E"}
{"date":"2010-03-01","average_temperature":"13.16","city":"Nanchong","latitude":"31.35N","longitude":"105.55E"}
{"date":"2010-07-01","average_temperature":"31.465","city":"Nangloi Jat","latitude":"28.13N","longitude":"77.27E"}
{"date":"2011-11-01","average_temperature":"10.925999999999998","city":"Nantes","latitude":"47.42N","longitude":"1.18W"}
{"date":"2012-06-01","average_temperature":"24.565","city":"Nantong","latitude":"31.35N","longitude":"120.63E"}
{"date":"2013-04-01","average_temperature":"14.373","city":"Naples","latitude":"40.99N","longitude":"14.91E"}
{"date":"2013-09-01","city":"Naples","latitude":"40.99N","longitude":"14.91E"}
{"date":"2012-11-01","average_temperature":"27.618","city":"Natal","latitude":"5.63S","longitude":"35.52W"}
{"date":"2012-11-01","average_temperature":"7.607","city":"Navoi","latitude":"39.38N","longitude":"64.51E"}
{"date":"2010-08-01","average_temperature":"30.293000000000003","city":"Nawabganj","latitude":"24.92N","longitude":"88.67E"}
{"date":"2013-08-01","average_temperature":"29.673000000000002","city":"Nawabganj","latitude":"24.92N","longitude":"88.67E"}
{"date":"2012-06-01","average_temperature":"25.556","city":"Nazret","latitude":"8.84N","longitude":"39.73E"}
{"date":"2010-08-01","average_temperature":"21.406999999999996","city":"Neftekamsk","latitude":"55.45N","longitude":"53.86E"}
{"date":"2013-07-01","average_temperature":"25.593000000000004","city":"Neiva","latitude":"2.41N","longitude":"74.73W"}
{"date":"2013-08-01","average_temperature":"26.136999999999997","city":"Neiva","latitude":"2.41N","longitude":"74.73W"}
{"date":"2012-10-01","average_temperature":"23.186999999999998","city":"Netanya","latitude":"32.95N","longitude":"35.43E"}
{"date":"2010-10-01","average_temperature":"8.538","city":"Nevinnomyssk","latitude":"44.20N","longitude":"42.48E"}
{"date":"2011-05-01","average_temperature":"20.024","city":"Newport News","latitude":"37.78N","longitude":"77.29W"}
{"date":"2011-03-01","average_temperature":"16.922","city":"Nezahualcóyotl","latitude":"20.09N","longitude":"98.96W"}
{"date":"2010-10-01","average_temperature":"18.347","city":"Niihama","latitude":"34.56N","longitude":"134.27E"}
{"date":"2011-10-01","average_temperature":"17.774","city":"Nishio","latitude":"34.56N","longitude":"136.22E"}
{"date":"2012-08-01","average_temperature":"30.336","city":"Nouakchott","latitude":"18.48N","longitude":"15.21W"}
{"date":"2011-03-01","average_temperature":"31.08","city":"Nsukka","latitude":"7.23N","longitude":"7.30E"}
{"date":"2012-05-01","average_temperature":"27.029","city":"Nuevo Laredo","latitude":"28.13N","longitude":"99.09W"}
{"date":"2013-05-01","average_temperature":"25.906999999999996","city":"Nuevo Laredo","latitude":"28.13N","longitude":"99.09W"}
{"date":"2011-08-01","average_temperature":"20.383","city":"Oaxaca","latitude":"16.87N","longitude":"97.12W"}
{"date":"2012-12-01","average_temperature":"-2.146","city":"Obihiro","latitude":"42.59N","longitude":"144.00E"}
{"date":"2010-06-01","average_temperature":"21.521","city":"Odawara","latitude":"36.17N","longitude":"139.23E"}
{"date":"2011-12-01","average_temperature":"6.8130000000000015","city":"Odesa","latitude":"45.81N","longitude":"31.15E"}
{"date":"2010-10-01","average_temperature":"26.195","city":"Offa","latitude":"8.84N","longitude":"4.05E"}
{"date":"2012-03-01","average_temperature":"8.296","city":"Okazaki","latitude":"34.56N","longitude":"136.22E"}
{"date":"2012-04-01","average_temperature":"29.293000000000003","city":"Olongapo","latitude":"15.27N","longitude":"120.83E"}
{"date":"2013-06-01","average_temperature":"28.572","city":"Olongapo","latitude":"15.27N","longitude":"120.83E"}
{"date":"2011-09-01","average_temperature":"23.654","city":"Omuta","latitude":"32.95N","longitude":"131.17E"}
{"date":"2010-08-01","average_temperature":"30.781999999999996","city":"Ongole","latitude":"15.27N","longitude":"80.83E"}
{"date":"2010-05-01","average_temperature":"28.42","city":"Onitsha","latitude":"5.63N","longitude":"6.46E"}
{"date":"2010-01-01","average_temperature":"-6.533","city":"Opole","latitude":"50.63N","longitude":"19.01E"}
{"date":"2012-02-01","average_temperature":"-6.0059999999999985","city":"Oradea","latitude":"47.42N","longitude":"22.50E"}
{"date":"2010-02-01","average_temperature":"8.471","city":"Ordu","latitude":"40.99N","longitude":"38.34E"}
{"date":"2010-09-01","average_temperature":"20.57","city":"Orumiyeh","latitude":"37.78N","longitude":"44.75E"}
{"date":"2010-03-01","average_temperature":"5.551","city":"Osnabrück","latitude":"52.24N","longitude":"7.88E"}
{"date":"2010-04-01","average_temperature":"9.074","city":"Ostrava","latitude":"50.63N","longitude":"19.01E"}
{"date":"2011-12-01","average_temperature":"5.707999999999999","city":"Oxford","latitude":"52.24N","longitude":"0.00W"}
{"date":"2012-08-01","average_temperature":"17.697000000000006","city":"Oxford","latitude":"52.24N","longitude":"0.00W"}
{"date":"2011-08-01","average_temperature":"23.16","city":"Pécs","latitude":"45.81N","longitude":"17.31E"}
{"date":"2010-02-01","average_temperature":"26.455","city":"Pôrto Velho","latitude":"8.84S","longitude":"64.05W"}
{"date":"2013-08-01","average_temperature":"27.569000000000006","city":"Palmas","latitude":"10.45S","longitude":"48.27W"}
{"date":"2013-03-01","average_temperature":"27.291","city":"Palu","latitude":"0.80S","longitude":"119.73E"}
{"date":"2012-04-01","average_temperature":"29.340999999999998","city":"Palwal","latitude":"28.13N","longitude":"77.27E"}
{"date":"2011-01-01","average_temperature":"6.006","city":"Panzhihua","latitude":"26.52N","longitude":"102.09E"}
{"date":"2013-08-01","average_temperature":"24.447","city":"Parsabad","latitude":"39.38N","longitude":"47.86E"}
{"date":"2010-12-01","average_temperature":"24.951","city":"Paseh","latitude":"7.23S","longitude":"107.84E"}
{"date":"2012-01-01","average_temperature":"23.534000000000002","city":"Passo Fundo","latitude":"28.13S","longitude":"51.82W"}
{"date":"2011-11-01","average_temperature":"26.451999999999998","city":"Patan","latitude":"23.31N","longitude":"72.52E"}
{"date":"2010-08-01","average_temperature":"28.75","city":"Pate","latitude":"24.92N","longitude":"120.59E"}
{"date":"2013-04-01","average_temperature":"30.014","city":"Patna","latitude":"24.92N","longitude":"85.12E"}
{"date":"2012-03-01","average_temperature":"-0.408","city":"Pavlohrad","latitude":"49.03N","longitude":"36.73E"}
{"date":"2010-01-01","average_temperature":"25.090999999999998","city":"Pelotas","latitude":"31.35S","longitude":"52.77W"}
{"date":"2011-11-01","average_temperature":"27.114","city":"Pemalang","latitude":"7.23S","longitude":"109.46E"}
{"date":"2011-10-01","average_temperature":"26.378","city":"Pemba","latitude":"13.66S","longitude":"40.46E"}
{"date":"2010-07-01","average_temperature":"22.194000000000003","city":"Perpignan","latitude":"42.59N","longitude":"2.18E"}
{"date":"2010-08-01","average_temperature":"26.778000000000002","city":"Peshawar","latitude":"34.56N","longitude":"72.00E"}
{"date":"2011-09-01","average_temperature":"25.41","city":"Peshawar","latitude":"34.56N","longitude":"72.00E"}
{"date":"2010-07-01","average_temperature":"26.41","city":"Petare","latitude":"10.45N","longitude":"66.27W"}
{"date":"2010-06-01","average_temperature":"19.117","city":"Petropavl","latitude":"55.45N","longitude":"68.03E"}
{"date":"2010-08-01","average_temperature":"12.895","city":"Petropavlovsk Kamchatskiy","latitude":"53.84N","longitude":"159.55E"}
{"date":"2010-04-01","average_temperature":"3.2","city":"Petrozavodsk","latitude":"61.88N","longitude":"35.66E"}
{"date":"2010-11-01","average_temperature":"-2.717","city":"Petrozavodsk","latitude":"61.88N","longitude":"35.66E"}
{"date":"2010-01-01","average_temperature":"24.822","city":"Phalaborwa","latitude":"23.31S","longitude":"30.58E"}
{"date":"2010-10-01","average_temperature":"26.899","city":"Phitsanulok","latitude":"16.87N","longitude":"100.47E"}
{"date":"2012-05-01","average_temperature":"17.551","city":"Piatra Neamt","latitude":"47.42N","longitude":"27.24E"}
{"date":"2011-11-01","average_temperature":"4.21","city":"Pingliang","latitude":"36.17N","longitude":"107.40E"}
{"date":"2012-12-01","average_temperature":"25.456","city":"Plumbon","latitude":"7.23S","longitude":"107.84E"}
{"date":"2011-05-01","average_temperature":"17.857","city":"Poá","latitude":"23.31S","longitude":"46.31W"}
{"date":"2011-09-01","average_temperature":"19.023","city":"Poá","latitude":"23.31S","longitude":"46.31W"}
{"date":"2013-01-01","average_temperature":"22.9","city":"Poços De Caldas","latitude":"21.70S","longitude":"45.87W"}
{"date":"2010-03-01","average_temperature":"28.985","city":"Port Blair","latitude":"12.05N","longitude":"92.05E"}
{"date":"2012-07-01","average_temperature":"22.033","city":"Port Louis","latitude":"20.09S","longitude":"58.01E"}
{"date":"2010-03-01","average_temperature":"25.397","city":"Portmore","latitude":"18.48N","longitude":"76.06W"}
{"date":"2011-10-01","average_temperature":"19.035999999999998","city":"Porto Alegre","latitude":"29.74S","longitude":"51.69W"}
{"date":"2010-09-01","average_temperature":"18.903","city":"Potchefstroom","latitude":"26.52S","longitude":"26.87E"}
{"date":"2010-04-01","average_temperature":"9.458","city":"Potsdam","latitude":"52.24N","longitude":"13.14E"}
{"date":"2011-03-01","average_temperature":"-6.459999999999999","city":"Prokopyevsk","latitude":"53.84N","longitude":"85.91E"}
{"date":"2013-02-01","average_temperature":"-3.362","city":"Pskov","latitude":"57.05N","longitude":"28.03E"}
{"date":"2013-03-01","average_temperature":"-6.768","city":"Pskov","latitude":"57.05N","longitude":"28.03E"}
{"date":"2013-06-01","average_temperature":"18.168","city":"Pskov","latitude":"57.05N","longitude":"28.03E"}
{"date":"2013-03-01","average_temperature":"26.24","city":"Pucallpa","latitude":"8.84S","longitude":"73.78W"}
{"date":"2010-05-01","average_temperature":"23.87","city":"Puebla","latitude":"18.48N","longitude":"98.03W"}
{"date":"2011-02-01","average_temperature":"14.526","city":"Puerto Montt","latitude":"40.99S","longitude":"72.43W"}
{"date":"2011-08-01","average_temperature":"28.476","city":"Puerto Plata","latitude":"20.09N","longitude":"69.95W"}
{"date":"2013-03-01","average_temperature":"2.024","city":"Pulandian","latitude":"39.38N","longitude":"122.77E"}
{"date":"2012-08-01","average_temperature":"28.273000000000003","city":"Puri","latitude":"20.09N","longitude":"85.31E"}
{"date":"2011-06-01","average_temperature":"23.979","city":"Qazvin","latitude":"36.17N","longitude":"49.72E"}
{"date":"2012-03-01","average_temperature":"4.6","city":"Qazvin","latitude":"36.17N","longitude":"49.72E"}
{"date":"2011-03-01","average_temperature":"-3.736","city":"Qianguo","latitude":"45.81N","longitude":"125.77E"}
{"date":"2012-04-01","average_temperature":"19.601","city":"Quchan","latitude":"37.78N","longitude":"58.98E"}
{"date":"2011-09-01","average_temperature":"21.803","city":"Queluz","latitude":"39.38N","longitude":"8.32W"}
{"date":"2012-11-01","average_temperature":"18.145","city":"Quito","latitude":"0.80S","longitude":"77.95W"}
{"date":"2012-10-01","average_temperature":"26.194000000000003","city":"Raichur","latitude":"16.87N","longitude":"77.02E"}
{"date":"2011-06-01","average_temperature":"29.292","city":"Rajshahi","latitude":"24.92N","longitude":"88.67E"}
{"date":"2012-05-01","average_temperature":"21.443","city":"Raleigh","latitude":"36.17N","longitude":"79.56W"}
{"date":"2013-06-01","average_temperature":"24.031999999999996","city":"Raleigh","latitude":"36.17N","longitude":"79.56W"}
{"date":"2010-03-01","average_temperature":"16.615000000000002","city":"Ramat Gan","latitude":"32.95N","longitude":"35.43E"}
{"date":"2011-05-01","average_temperature":"33.172999999999995","city":"Rampur","latitude":"28.13N","longitude":"79.09E"}
{"date":"2012-10-01","average_temperature":"26.503","city":"Rancaekek","latitude":"7.23S","longitude":"107.84E"}
{"date":"2011-11-01","average_temperature":"11.81","city":"Rancagua","latitude":"34.56S","longitude":"70.05W"}
{"date":"2010-06-01","average_temperature":"24.892000000000003","city":"Ranghulu","latitude":"47.42N","longitude":"124.34E"}
{"date":"2010-07-01","average_temperature":"27.038","city":"Rangkasbitung","latitude":"5.63S","longitude":"106.55E"}
{"date":"2011-10-01","average_temperature":"27.035999999999998","city":"Rangkasbitung","latitude":"5.63S","longitude":"106.55E"}
{"date":"2013-02-01","average_temperature":"21.352","city":"Raniganj","latitude":"23.31N","longitude":"86.50E"}
{"date":"2012-08-01","average_temperature":"19.23","city":"Ratisbon","latitude":"49.03N","longitude":"12.24E"}
{"date":"2012-05-01","average_temperature":"14.821000000000002","city":"Recklinghausen","latitude":"52.24N","longitude":"7.88E"}
{"date":"2010-03-01","average_temperature":"-1.0440000000000005","city":"Regina","latitude":"50.63N","longitude":"105.21W"}
{"date":"2012-08-01","average_temperature":"27.049","city":"Rengasdengklok","latitude":"5.63S","longitude":"106.55E"}
{"date":"2011-07-01","average_temperature":"17.365","city":"Resende","latitude":"21.70S","longitude":"44.13W"}
{"date":"2012-08-01","average_temperature":"19.05","city":"Resistencia","latitude":"28.13S","longitude":"59.09W"}
{"date":"2012-02-01","average_temperature":"10.550999999999998","city":"Richardson","latitude":"32.95N","longitude":"96.70W"}
{"date":"2010-06-01","average_temperature":"18.643","city":"Richmond","latitude":"37.78N","longitude":"122.03W"}
{"date":"2012-12-01","average_temperature":"25.256","city":"Rio Grande","latitude":"31.35S","longitude":"52.77W"}
{"date":"2011-11-01","average_temperature":"10.627","city":"Riverside","latitude":"34.56N","longitude":"116.76W"}
{"date":"2012-07-01","average_temperature":"21.867","city":"Rivne","latitude":"50.63N","longitude":"26.62E"}
{"date":"2011-04-01","average_temperature":"26.337","city":"Riyadh","latitude":"24.92N","longitude":"46.11E"}
{"date":"2010-09-01","average_temperature":"26.941","city":"Rondonópolis","latitude":"16.87S","longitude":"55.26W"}
{"date":"2013-01-01","average_temperature":"26.89","city":"Rondonópolis","latitude":"16.87S","longitude":"55.26W"}
{"date":"2012-09-01","average_temperature":"23.338","city":"Rongcheng","latitude":"29.74N","longitude":"112.62E"}
{"date":"2013-08-01","average_temperature":"11.394","city":"Rosario","latitude":"32.95S","longitude":"60.32W"}
{"date":"2010-11-01","average_temperature":"4.522","city":"Rotherham","latitude":"53.84N","longitude":"1.36W"}
{"date":"2010-12-01","average_temperature":"-1.7780000000000005","city":"Rotterdam","latitude":"52.24N","longitude":"5.26E"}
{"date":"2012-10-01","average_temperature":"20.124000000000002","city":"Rustenburg","latitude":"26.52S","longitude":"26.87E"}
{"date":"2012-11-01","average_temperature":"1.0740000000000005","city":"Ryazan","latitude":"53.84N","longitude":"39.55E"}
{"date":"2010-10-01","average_temperature":"5.5619999999999985","city":"Rzeszow","latitude":"50.63N","longitude":"21.55E"}
{"date":"2011-04-01","average_temperature":"22.868000000000002","city":"São Carlos","latitude":"21.70S","longitude":"47.60W"}
{"date":"2010-11-01","average_temperature":"21.508000000000003","city":"São Vicente","latitude":"23.31S","longitude":"46.31W"}
{"date":"2011-09-01","average_temperature":"30.476000000000006","city":"Sadiqabad","latitude":"28.13N","longitude":"70.00E"}
{"date":"2010-09-01","average_temperature":"25.72","city":"Safaqis","latitude":"34.56N","longitude":"11.68E"}
{"date":"2011-03-01","average_temperature":"7.189","city":"Saga","latitude":"32.95N","longitude":"131.17E"}
{"date":"2012-04-01","average_temperature":"7.539","city":"Saint Étienne","latitude":"45.81N","longitude":"3.46E"}
{"date":"2010-08-01","average_temperature":"26.048","city":"Saint Louis","latitude":"39.38N","longitude":"89.48W"}
{"date":"2010-10-01","average_temperature":"23.905","city":"Saint Petersburg","latitude":"28.13N","longitude":"82.73W"}
{"date":"2012-10-01","average_temperature":"27.462","city":"Salalah","latitude":"16.87N","longitude":"53.58E"}
{"date":"2013-09-01","city":"Salatiga","latitude":"7.23S","longitude":"111.08E"}
{"date":"2013-03-01","average_temperature":"7.617000000000001","city":"Salem","latitude":"44.20N","longitude":"122.98W"}
{"date":"2010-11-01","average_temperature":"17.46","city":"Salta","latitude":"24.92S","longitude":"65.62W"}
{"date":"2012-04-01","average_temperature":"5.646","city":"Salzburg","latitude":"47.42N","longitude":"13.03E"}
{"date":"2013-07-01","average_temperature":"27.24","city":"Samarkand","latitude":"39.38N","longitude":"66.59E"}
{"date":"2012-04-01","average_temperature":"30.435","city":"Samut Prakan","latitude":"13.66N","longitude":"99.91E"}
{"date":"2012-12-01","average_temperature":"13.435","city":"San Antonio","latitude":"29.74N","longitude":"97.85W"}
{"date":"2013-02-01","average_temperature":"8.765","city":"San Bernardino","latitude":"34.56N","longitude":"116.76W"}
{"date":"2011-06-01","average_temperature":"27.956999999999997","city":"San Cristóbal","latitude":"18.48N","longitude":"69.30W"}
{"date":"2011-01-01","average_temperature":"24.963","city":"San Fernando","latitude":"15.27N","longitude":"120.83E"}
{"date":"2011-06-01","average_temperature":"27.416","city":"San Fernando","latitude":"15.27N","longitude":"120.83E"}
{"date":"2011-12-01","average_temperature":"9.118","city":"San Francisco","latitude":"37.78N","longitude":"122.03W"}
{"date":"2011-09-01","average_temperature":"27.625","city":"San Juan","latitude":"18.48N","longitude":"65.92W"}
{"date":"2011-12-01","average_temperature":"26.92","city":"San Lorenzo","latitude":"24.92S","longitude":"56.75W"}
{"date":"2010-10-01","average_temperature":"26.883000000000006","city":"San Mateo","latitude":"15.27N","longitude":"120.83E"}
{"date":"2011-12-01","average_temperature":"25.881999999999998","city":"San Mateo","latitude":"15.27N","longitude":"120.83E"}
{"date":"2011-02-01","average_temperature":"27.893","city":"San Miguelito","latitude":"8.84N","longitude":"80.27W"}
{"date":"2012-05-01","average_temperature":"11.825999999999999","city":"San Rafael","latitude":"34.56S","longitude":"68.11W"}
{"date":"2010-01-01","average_temperature":"5.974","city":"Sanandaj","latitude":"34.56N","longitude":"46.70E"}
{"date":"2011-10-01","average_temperature":"17.753","city":"Sanda","latitude":"34.56N","longitude":"134.27E"}
{"date":"2012-05-01","average_temperature":"24.476999999999997","city":"Sanhsia","latitude":"24.92N","longitude":"120.59E"}
{"date":"2012-05-01","average_temperature":"19.47","city":"Santa Luzia","latitude":"20.09S","longitude":"44.36W"}
{"date":"2011-04-01","average_temperature":"20.325","city":"Santiago Del Estero","latitude":"28.13S","longitude":"64.55W"}
{"date":"2010-04-01","average_temperature":"19.12","city":"Sapucaia","latitude":"29.74S","longitude":"51.69W"}
{"date":"2012-11-01","average_temperature":"13.489","city":"Sasebo","latitude":"32.95N","longitude":"129.26E"}
{"date":"2010-07-01","average_temperature":"25.308000000000003","city":"Sassari","latitude":"40.99N","longitude":"8.52E"}
{"date":"2010-03-01","average_temperature":"13.014000000000001","city":"Saveh","latitude":"34.56N","longitude":"50.59E"}
{"date":"2012-12-01","average_temperature":"26.191","city":"Sekondi","latitude":"5.63N","longitude":"1.61W"}
{"date":"2010-03-01","average_temperature":"27.881999999999998","city":"Sekudai","latitude":"0.80N","longitude":"103.66E"}
{"date":"2012-09-01","average_temperature":"14.523","city":"Semey","latitude":"50.63N","longitude":"79.86E"}
{"date":"2010-06-01","average_temperature":"32.452","city":"Seoni","latitude":"21.70N","longitude":"78.75E"}
{"date":"2010-03-01","average_temperature":"27.899","city":"Sepatan","latitude":"5.63S","longitude":"106.55E"}
{"date":"2012-12-01","average_temperature":"26.706","city":"Seremban","latitude":"2.41N","longitude":"102.05E"}
{"date":"2012-01-01","average_temperature":"25.204","city":"Serra","latitude":"20.09S","longitude":"40.95W"}
{"date":"2011-11-01","average_temperature":"8.645999999999999","city":"Shahe","latitude":"36.17N","longitude":"115.36E"}
{"date":"2012-11-01","average_temperature":"7.443","city":"Shahr E Kord","latitude":"32.95N","longitude":"50.74E"}
{"date":"2011-03-01","average_temperature":"27.394","city":"Shantipur","latitude":"23.31N","longitude":"88.25E"}
{"date":"2011-08-01","average_temperature":"29.136000000000006","city":"Shenzhen","latitude":"23.31N","longitude":"114.47E"}
{"date":"2011-10-01","average_temperature":"25.983","city":"Shillong","latitude":"24.92N","longitude":"92.22E"}
{"date":"2012-12-01","average_temperature":"23.028000000000002","city":"Sholapur","latitude":"18.48N","longitude":"76.06E"}
{"date":"2010-10-01","average_temperature":"18.848","city":"Shreveport","latitude":"32.95N","longitude":"92.87W"}
{"date":"2011-11-01","average_temperature":"24.11","city":"Shrirampur","latitude":"23.31N","longitude":"88.25E"}
{"date":"2012-07-01","average_temperature":"26.995","city":"Shunyi","latitude":"39.38N","longitude":"116.53E"}
{"date":"2013-06-01","average_temperature":"23.662","city":"Shymkent","latitude":"42.59N","longitude":"69.82E"}
{"date":"2011-07-01","average_temperature":"27.904","city":"Si Racha","latitude":"13.66N","longitude":"101.56E"}
{"date":"2011-05-01","average_temperature":"25.909000000000002","city":"Silchar","latitude":"24.92N","longitude":"92.22E"}
{"date":"2011-09-01","average_temperature":"28.324","city":"Sincelejo","latitude":"8.84N","longitude":"75.41W"}
{"date":"2010-01-01","average_temperature":"26.285999999999998","city":"Sinnar","latitude":"13.66N","longitude":"33.85E"}
{"date":"2010-07-01","average_temperature":"23.018","city":"Sioux Falls","latitude":"44.20N","longitude":"96.15W"}
{"date":"2012-03-01","average_temperature":"25.388","city":"Sirajganj","latitude":"24.92N","longitude":"90.44E"}
{"date":"2012-08-01","average_temperature":"27.234","city":"Sirjan","latitude":"29.74N","longitude":"55.38E"}
{"date":"2011-06-01","average_temperature":"21.085","city":"Soka","latitude":"36.17N","longitude":"139.23E"}
{"date":"2010-05-01","average_temperature":"28.946","city":"Sokodé","latitude":"8.84N","longitude":"0.81E"}
{"date":"2010-03-01","average_temperature":"28.523000000000003","city":"Soubré","latitude":"5.63N","longitude":"6.46W"}
{"date":"2010-06-01","average_temperature":"17.535","city":"Srinagar","latitude":"34.56N","longitude":"73.95E"}
{"date":"2013-04-01","average_temperature":"6.2","city":"Sterlitamak","latitude":"53.84N","longitude":"55.91E"}
{"date":"2011-07-01","average_temperature":"15.249","city":"Stockport","latitude":"53.84N","longitude":"1.36W"}
{"date":"2013-02-01","average_temperature":"17.557000000000002","city":"Sukkur","latitude":"28.13N","longitude":"68.18E"}
{"date":"2012-03-01","average_temperature":"24.171999999999997","city":"Sultanpur","latitude":"26.52N","longitude":"82.39E"}
{"date":"2010-04-01","average_temperature":"9.51","city":"Sumy","latitude":"50.63N","longitude":"34.23E"}
{"date":"2010-02-01","average_temperature":"27.809","city":"Sunggal","latitude":"4.02N","longitude":"98.84E"}
{"date":"2011-09-01","average_temperature":"20.54","city":"Sunnyvale","latitude":"37.78N","longitude":"122.03W"}
{"date":"2010-08-01","average_temperature":"27.87","city":"Surat","latitude":"21.70N","longitude":"73.56E"}
{"date":"2013-06-01","average_temperature":"28.305999999999997","city":"Surat Thani","latitude":"8.84N","longitude":"99.73E"}
{"date":"2011-11-01","average_temperature":"26.451999999999998","city":"Surendranagar","latitude":"23.31N","longitude":"72.52E"}
{"date":"2013-02-01","average_temperature":"14.833","city":"Surt","latitude":"31.35N","longitude":"16.96E"}
{"date":"2013-03-01","average_temperature":"10.935","city":"Suzhou","latitude":"31.35N","longitude":"120.63E"}
{"date":"2010-11-01","average_temperature":"18.344","city":"Sydney","latitude":"34.56S","longitude":"151.78E"}
{"date":"2013-05-01","average_temperature":"16.237000000000002","city":"Székesfehérvár","latitude":"47.42N","longitude":"17.76E"}
{"date":"2011-08-01","average_temperature":"18.687","city":"Taboão Da Serra","latitude":"23.31S","longitude":"46.31W"}
{"date":"2013-06-01","average_temperature":"26.182","city":"Taitung","latitude":"23.31N","longitude":"121.46E"}
{"date":"2010-01-01","average_temperature":"-6.5139999999999985","city":"Taiyuan","latitude":"37.78N","longitude":"111.86E"}
{"date":"2013-09-01","city":"Takaoka","latitude":"36.17N","longitude":"137.24E"}
{"date":"2010-08-01","average_temperature":"28.454","city":"Takarazuka","latitude":"34.56N","longitude":"136.22E"}
{"date":"2011-01-01","average_temperature":"19.078000000000007","city":"Talca","latitude":"36.17S","longitude":"71.60W"}
{"date":"2011-11-01","average_temperature":"3.426","city":"Tallinn","latitude":"58.66N","longitude":"24.62E"}
{"date":"2012-08-01","average_temperature":"16.277","city":"Tallinn","latitude":"58.66N","longitude":"24.62E"}
{"date":"2013-06-01","average_temperature":"28.572","city":"Tanza","latitude":"15.27N","longitude":"120.83E"}
{"date":"2010-02-01","average_temperature":"17.665","city":"Tarhunah","latitude":"32.95N","longitude":"14.36E"}
{"date":"2012-05-01","average_temperature":"25.945","city":"Tasikmalaya","latitude":"7.23S","longitude":"107.84E"}
{"date":"2013-06-01","average_temperature":"25.64","city":"Tasikmalaya","latitude":"7.23S","longitude":"107.84E"}
{"date":"2010-09-01","average_temperature":"22.764","city":"Tengzhou","latitude":"34.56N","longitude":"116.76E"}
{"date":"2012-07-01","average_temperature":"18.57","city":"Teresópolis","latitude":"21.70S","longitude":"42.40W"}
{"date":"2010-11-01","average_temperature":"13.656","city":"Terrassa","latitude":"40.99N","longitude":"2.13E"}
{"date":"2012-03-01","average_temperature":"13.620999999999999","city":"Terrassa","latitude":"40.99N","longitude":"2.13E"}
{"date":"2011-11-01","average_temperature":"20.607","city":"Thái Nguyên","latitude":"21.70N","longitude":"106.44E"}
{"date":"2013-01-01","average_temperature":"24.186999999999998","city":"Thana","latitude":"18.48N","longitude":"72.68E"}
{"date":"2012-07-01","average_temperature":"30.346999999999998","city":"Thanesar","latitude":"29.74N","longitude":"77.54E"}
{"date":"2011-05-01","average_temperature":"15.729000000000001","city":"Thousand Oaks","latitude":"34.56N","longitude":"118.70W"}
{"date":"2012-01-01","average_temperature":"-15.536","city":"Tieling","latitude":"42.59N","longitude":"124.36E"}
{"date":"2013-06-01","average_temperature":"32.996","city":"Tirupati","latitude":"13.66N","longitude":"80.09E"}
{"date":"2010-01-01","average_temperature":"17.503","city":"Titagarh","latitude":"23.31N","longitude":"88.25E"}
{"date":"2010-08-01","average_temperature":"23.226999999999997","city":"Tlaquepaque","latitude":"20.09N","longitude":"104.08W"}
{"date":"2011-07-01","average_temperature":"23.037","city":"Tlaquepaque","latitude":"20.09N","longitude":"104.08W"}
{"date":"2011-12-01","average_temperature":"3.25","city":"Toda","latitude":"36.17N","longitude":"139.23E"}
{"date":"2010-11-01","average_temperature":"12.079","city":"Tokat","latitude":"40.99N","longitude":"36.21E"}
{"date":"2012-10-01","average_temperature":"14.584000000000001","city":"Toms River","latitude":"39.38N","longitude":"74.91W"}
{"date":"2010-09-01","average_temperature":"14.892","city":"Toronto","latitude":"44.20N","longitude":"80.50W"}
{"date":"2010-06-01","average_temperature":"18.203","city":"Torrejón De Ardoz","latitude":"40.99N","longitude":"4.26W"}
{"date":"2012-04-01","average_temperature":"9.831","city":"Torun","latitude":"52.24N","longitude":"18.39E"}
{"date":"2012-07-01","average_temperature":"28.774","city":"Touliu","latitude":"23.31N","longitude":"119.71E"}
{"date":"2010-10-01","average_temperature":"10.99","city":"Toulouse","latitude":"44.20N","longitude":"2.24E"}
{"date":"2011-02-01","average_temperature":"6.2970000000000015","city":"Tours","latitude":"47.42N","longitude":"1.18E"}
{"date":"2011-02-01","average_temperature":"8.667","city":"Toyokawa","latitude":"34.56N","longitude":"138.16E"}
{"date":"2012-07-01","average_temperature":"26.26","city":"Toyota","latitude":"34.56N","longitude":"136.22E"}
{"date":"2010-01-01","average_temperature":"22.639","city":"Trelew","latitude":"42.59S","longitude":"65.45W"}
{"date":"2011-09-01","average_temperature":"12.137","city":"Trelew","latitude":"42.59S","longitude":"65.45W"}
{"date":"2013-04-01","average_temperature":"10.096","city":"Trento","latitude":"45.81N","longitude":"10.38E"}
{"date":"2013-05-01","average_temperature":"13.17","city":"Trento","latitude":"45.81N","longitude":"10.38E"}
{"date":"2010-12-01","average_temperature":"2.146","city":"Trieste","latitude":"45.81N","longitude":"12.69E"}
{"date":"2012-12-01","average_temperature":"2.958","city":"Trieste","latitude":"45.81N","longitude":"12.69E"}
{"date":"2012-04-01","average_temperature":"2.68","city":"Trondheim","latitude":"63.49N","longitude":"9.00E"}
{"date":"2010-10-01","average_temperature":"23.557","city":"Tubruq","latitude":"31.35N","longitude":"24.50E"}
{"date":"2010-11-01","average_temperature":"3.585","city":"Tula","latitude":"53.84N","longitude":"36.82E"}
{"date":"2013-08-01","average_temperature":"18.033","city":"Tula","latitude":"53.84N","longitude":"36.82E"}
{"date":"2012-04-01","average_temperature":"26.394000000000002","city":"Turmero","latitude":"10.45N","longitude":"67.91W"}
{"date":"2013-04-01","average_temperature":"9.016","city":"Tychy","latitude":"50.63N","longitude":"19.01E"}
{"date":"2011-08-01","average_temperature":"14.802","city":"Tyumen","latitude":"57.05N","longitude":"66.39E"}
{"date":"2010-04-01","average_temperature":"11.959000000000001","city":"Ube","latitude":"34.56N","longitude":"130.38E"}
{"date":"2013-01-01","average_temperature":"27.628","city":"Ugep","latitude":"5.63N","longitude":"8.07E"}
{"date":"2011-07-01","average_temperature":"14.824000000000002","city":"Uitenhage","latitude":"34.56S","longitude":"25.30E"}
{"date":"2012-07-01","average_temperature":"15.251","city":"Uitenhage","latitude":"34.56S","longitude":"25.30E"}
{"date":"2012-07-01","average_temperature":"16.631","city":"Ulaanbaatar","latitude":"47.42N","longitude":"107.76E"}
{"date":"2013-06-01","average_temperature":"26.909000000000002","city":"Ungaran","latitude":"7.23S","longitude":"111.08E"}
{"date":"2011-09-01","average_temperature":"26.502","city":"Uyo","latitude":"5.63N","longitude":"8.07E"}
{"date":"2012-04-01","average_temperature":"8.126000000000001","city":"Valladolid","latitude":"40.99N","longitude":"4.26W"}
{"date":"2012-06-01","average_temperature":"24.235","city":"Varamin","latitude":"36.17N","longitude":"51.71E"}
{"date":"2010-04-01","average_temperature":"6.001","city":"Velikiy Novgorod","latitude":"58.66N","longitude":"30.77E"}
{"date":"2013-05-01","average_temperature":"14.738","city":"Velikiy Novgorod","latitude":"58.66N","longitude":"30.77E"}
{"date":"2011-11-01","average_temperature":"2.338","city":"Victoria","latitude":"49.03N","longitude":"122.45W"}
{"date":"2010-12-01","average_temperature":"18.276","city":"Vidisha","latitude":"23.31N","longitude":"77.77E"}
{"date":"2012-06-01","average_temperature":"28.469","city":"Vientiane","latitude":"18.48N","longitude":"103.10E"}
{"date":"2011-11-01","average_temperature":"12.19","city":"Vigo","latitude":"42.59N","longitude":"8.73W"}
{"date":"2013-05-01","average_temperature":"12.805","city":"Vigo","latitude":"42.59N","longitude":"8.73W"}
{"date":"2010-06-01","average_temperature":"35.163000000000004","city":"Vihari","latitude":"29.74N","longitude":"72.00E"}
{"date":"2012-10-01","average_temperature":"26.668000000000003","city":"Vihari","latitude":"29.74N","longitude":"72.00E"}
{"date":"2012-04-01","average_temperature":"31.939","city":"Vijayawada","latitude":"16.87N","longitude":"80.37E"}
{"date":"2011-03-01","average_temperature":"24.866999999999997","city":"Vila Velha","latitude":"20.09S","longitude":"40.95W"}
{"date":"2011-04-01","average_temperature":"28.156999999999996","city":"Villahermosa","latitude":"18.48N","longitude":"92.96W"}
{"date":"2012-12-01","average_temperature":"25.079","city":"Villahermosa","latitude":"18.48N","longitude":"92.96W"}
{"date":"2010-11-01","average_temperature":"8.05","city":"Vinnytsya","latitude":"49.03N","longitude":"29.39E"}
{"date":"2011-01-01","average_temperature":"23.807","city":"Vitória Da Conquista","latitude":"15.27S","longitude":"40.83W"}
{"date":"2010-01-01","average_temperature":"-8.934000000000003","city":"Vladivostok","latitude":"42.59N","longitude":"130.91E"}
{"date":"2013-05-01","average_temperature":"20.83","city":"Volgograd","latitude":"49.03N","longitude":"44.08E"}
{"date":"2011-12-01","average_temperature":"-2.319000000000001","city":"Vologda","latitude":"58.66N","longitude":"40.00E"}
{"date":"2013-09-01","city":"Volzhskiy","latitude":"49.03N","longitude":"44.08E"}
{"date":"2011-12-01","average_temperature":"20.487","city":"Vryheid","latitude":"28.13S","longitude":"30.00E"}
{"date":"2011-01-01","average_temperature":"25.985","city":"Vung Tau","latitude":"10.45N","longitude":"107.18E"}
{"date":"2010-10-01","average_temperature":"19.500999999999998","city":"Wahran","latitude":"36.17N","longitude":"0.00W"}
{"date":"2012-10-01","average_temperature":"20.842","city":"Wahran","latitude":"36.17N","longitude":"0.00W"}
{"date":"2012-04-01","average_temperature":"7.034","city":"Walsall","latitude":"52.24N","longitude":"2.63W"}
{"date":"2011-03-01","average_temperature":"29.377","city":"Warangal","latitude":"18.48N","longitude":"79.44E"}
{"date":"2013-07-01","average_temperature":"27.324","city":"Wardha","latitude":"20.09N","longitude":"78.48E"}
{"date":"2010-06-01","average_temperature":"16.13","city":"Watford","latitude":"52.24N","longitude":"0.00W"}
{"date":"2012-03-01","average_temperature":"30.624000000000002","city":"Waw","latitude":"7.23N","longitude":"28.38E"}
{"date":"2010-03-01","average_temperature":"4.481000000000001","city":"Weifang","latitude":"36.17N","longitude":"119.34E"}
{"date":"2011-12-01","average_temperature":"-0.36","city":"Weifang","latitude":"36.17N","longitude":"119.34E"}
{"date":"2010-09-01","average_temperature":"25.455","city":"Weru","latitude":"7.23S","longitude":"107.84E"}
{"date":"2012-09-01","average_temperature":"24.843000000000004","city":"Wichita Falls","latitude":"34.56N","longitude":"99.24W"}
{"date":"2012-12-01","average_temperature":"6.204","city":"Wichita Falls","latitude":"34.56N","longitude":"99.24W"}
{"date":"2012-09-01","average_temperature":"17.172","city":"Windsor","latitude":"42.59N","longitude":"82.91W"}
{"date":"2010-07-01","average_temperature":"21.162","city":"Witten","latitude":"52.24N","longitude":"7.88E"}
{"date":"2011-03-01","average_temperature":"6.607","city":"Wolverhampton","latitude":"52.24N","longitude":"2.63W"}
{"date":"2011-08-01","average_temperature":"18.252","city":"Wroclaw","latitude":"50.63N","longitude":"16.48E"}
{"date":"2010-02-01","average_temperature":"-15.914000000000001","city":"Wulanhaote","latitude":"45.81N","longitude":"121.15E"}
{"date":"2013-04-01","average_temperature":"16.039","city":"Wuxue","latitude":"29.74N","longitude":"116.31E"}
{"date":"2011-03-01","average_temperature":"14.677","city":"Wuzhou","latitude":"23.31N","longitude":"110.97E"}
{"date":"2011-09-01","average_temperature":"22.763","city":"Xai Xai","latitude":"24.92S","longitude":"33.69E"}
{"date":"2012-12-01","average_temperature":"14.911","city":"Xiaolan","latitude":"23.31N","longitude":"112.72E"}
{"date":"2012-07-01","average_temperature":"25.840000000000003","city":"Xingtai","latitude":"37.78N","longitude":"113.90E"}
{"date":"2013-02-01","average_temperature":"13.388","city":"Xingyi","latitude":"24.92N","longitude":"104.63E"}
{"date":"2012-09-01","average_temperature":"21.296","city":"Xinyang","latitude":"32.95N","longitude":"113.94E"}
{"date":"2013-04-01","average_temperature":"15.323","city":"Xinyang","latitude":"32.95N","longitude":"113.94E"}
{"date":"2010-03-01","average_temperature":"2.274","city":"Xinzhou","latitude":"37.78N","longitude":"111.86E"}
{"date":"2012-09-01","average_temperature":"14.864","city":"Xinzhou","latitude":"37.78N","longitude":"111.86E"}
{"date":"2011-06-01","average_temperature":"24.83","city":"Xuanzhou","latitude":"31.35N","longitude":"118.74E"}
{"date":"2010-06-01","average_temperature":"26.517","city":"Yamoussoukro","latitude":"7.23N","longitude":"5.68W"}
{"date":"2010-06-01","average_temperature":"29.729","city":"Yazd","latitude":"31.35N","longitude":"54.66E"}
{"date":"2012-10-01","average_temperature":"15.21","city":"Yevpatoriya","latitude":"45.81N","longitude":"33.46E"}
{"date":"2012-12-01","average_temperature":"3.868","city":"Yingcheng","latitude":"31.35N","longitude":"113.09E"}
{"date":"2011-08-01","average_temperature":"27.609","city":"Yiyang","latitude":"28.13N","longitude":"111.82E"}
{"date":"2011-08-01","average_temperature":"20.11","city":"Zacatecas","latitude":"23.31N","longitude":"102.23W"}
{"date":"2011-09-01","average_temperature":"18.924","city":"Zagreb","latitude":"45.81N","longitude":"15.00E"}
{"date":"2011-07-01","average_temperature":"25.288","city":"Zama","latitude":"36.17N","longitude":"139.23E"}
{"date":"2013-04-01","average_temperature":"21.686999999999998","city":"Zamora","latitude":"20.09N","longitude":"102.37W"}
{"date":"2011-07-01","average_temperature":"27.603","city":"Zhenjiang","latitude":"32.95N","longitude":"119.68E"}
{"date":"2010-02-01","average_temperature":"2.306","city":"Zhoucun","latitude":"36.17N","longitude":"117.35E"}
{"date":"2012-09-01","average_temperature":"20.733","city":"Zhoucun","latitude":"36.17N","longitude":"117.35E"}
{"date":"2013-07-01","average_temperature":"28.381","city":"Zhuhai","latitude":"21.70N","longitude":"113.37E"}
{"date":"2011-12-01","average_temperature":"5.824","city":"Zhuji","latitude":"29.74N","longitude":"120.00E"}
{"date":"2013-04-01","average_temperature":"12.22","city":"Zhuozhou","latitude":"39.38N","longitude":"116.53E"}
{"date":"2010-11-01","average_temperature":"5.385","city":"Zwolle","latitude":"52.24N","longitude":"5.26E"}
