{"date":"2013-03-01","average_temperature":"-0.4740000000000002","city":"Århus","latitude":"57.05N","longitude":"10.33E"}
{"date":"2012-01-01","average_temperature":"3.011","city":"Çorlu","latitude":"40.99N","longitude":"27.69E"}
{"date":"2013-01-01","average_temperature":"27.750999999999998","city":"Abidjan","latitude":"5.63N","longitude":"3.23W"}
{"date":"2012-05-01","average_temperature":"27.462","city":"Accra","latitude":"5.63N","longitude":"0.00W"}
{"date":"2010-11-01","average_temperature":"-6.565","city":"Achinsk","latitude":"57.05N","longitude":"90.00E"}
{"date":"2012-12-01","average_temperature":"12.958","city":"Adana","latitude":"36.17N","longitude":"35.80E"}
{"date":"2013-02-01","average_temperature":"24.667","city":"Aden","latitude":"13.66N","longitude":"45.41E"}
{"date":"2012-10-01","average_temperature":"26.78","city":"Adilabad","latitude":"20.09N","longitude":"78.48E"}
{"date":"2011-07-01","average_temperature":"28.291999999999998","city":"Agartala","latitude":"23.31N","longitude":"91.75E"}
{"date":"2012-12-01","average_temperature":"3.6489999999999996","city":"Aksaray","latitude":"37.78N","longitude":"34.58E"}
{"date":"2011-01-01","average_temperature":"-12.385","city":"Aksu","latitude":"40.99N","longitude":"80.95E"}
{"date":"2010-06-01","average_temperature":"28.406999999999996","city":"Aktau","latitude":"44.20N","longitude":"51.43E"}
{"date":"2012-10-01","average_temperature":"17.829","city":"Alberton","latitude":"26.52S","longitude":"28.66E"}
{"date":"2012-09-01","average_temperature":"18.577","city":"Albuquerque","latitude":"34.56N","longitude":"107.03W"}
{"date":"2013-08-01","average_temperature":"22.599","city":"Alcobendas","latitude":"40.99N","longitude":"4.26W"}
{"date":"2011-03-01","average_temperature":"7.5790000000000015","city":"Alcorcón","latitude":"40.99N","longitude":"4.26W"}
{"date":"2010-11-01","average_temperature":"12.041","city":"Amadora","latitude":"39.38N","longitude":"8.32W"}
{"date":"2011-04-01","average_temperature":"29.829","city":"Ambur","latitude":"12.05N","longitude":"78.90E"}
{"date":"2010-06-01","average_temperature":"16.213","city":"Amersfoort","latitude":"52.24N","longitude":"5.26E"}
{"date":"2010-11-01","average_temperature":"12.864","city":"Ancona","latitude":"44.20N","longitude":"13.42E"}
{"date":"2013-05-01","average_temperature":"17.69","city":"Antalya","latitude":"37.78N","longitude":"30.51E"}
{"date":"2011-03-01","average_temperature":"27.156999999999996","city":"Antipolo","latitude":"15.27N","longitude":"120.83E"}
{"date":"2011-09-01","average_temperature":"14.372","city":"Antofagasta","latitude":"23.31S","longitude":"70.78W"}
{"date":"2010-09-01","average_temperature":"13.661","city":"Apeldoorn","latitude":"52.24N","longitude":"5.26E"}
{"date":"2011-11-01","average_temperature":"23.776","city":"Apucarana","latitude":"23.31S","longitude":"51.55W"}
{"date":"2012-05-01","average_temperature":"21.58","city":"Araçatuba","latitude":"21.70S","longitude":"51.06W"}
{"date":"2012-02-01","average_temperature":"2.8630000000000004","city":"Arak","latitude":"34.56N","longitude":"50.59E"}
{"date":"2011-06-01","average_temperature":"17.799","city":"Araras","latitude":"21.70S","longitude":"47.60W"}
{"date":"2013-02-01","average_temperature":"5.796","city":"Ardabil","latitude":"37.78N","longitude":"48.81E"}
{"date":"2013-04-01","average_temperature":"25.78","city":"Arjawinangun","latitude":"7.23S","longitude":"107.84E"}
{"date":"2012-01-01","average_temperature":"-9.07","city":"Arkhangelsk","latitude":"65.09N","longitude":"40.21E"}
{"date":"2010-08-01","average_temperature":"24.851999999999997","city":"Arlington","latitude":"39.38N","longitude":"76.99W"}
{"date":"2011-09-01","average_temperature":"17.227999999999998","city":"Asahikawa","latitude":"44.20N","longitude":"143.11E"}
{"date":"2012-06-01","average_temperature":"19.359","city":"Asaka","latitude":"36.17N","longitude":"139.23E"}
{"date":"2010-12-01","average_temperature":"16.857","city":"Ashdod","latitude":"31.35N","longitude":"33.93E"}
{"date":"2013-08-01","average_temperature":"18.183","city":"Astana","latitude":"50.63N","longitude":"72.25E"}
{"date":"2011-01-01","average_temperature":"24.927","city":"Astanajapura","latitude":"7.23S","longitude":"107.84E"}
{"date":"2012-12-01","average_temperature":"29.027","city":"Asunción","latitude":"24.92S","longitude":"58.52W"}
{"date":"2012-01-01","average_temperature":"14.564","city":"Aswan","latitude":"23.31N","longitude":"32.33E"}
{"date":"2011-03-01","average_temperature":"18.495","city":"Asyut","latitude":"26.52N","longitude":"30.45E"}
{"date":"2013-08-01","average_temperature":"30.456","city":"Asyut","latitude":"26.52N","longitude":"30.45E"}
{"date":"2010-08-01","average_temperature":"30.081","city":"Avadi","latitude":"13.66N","longitude":"80.09E"}
{"date":"2011-01-01","average_temperature":"27.048","city":"Awka","latitude":"5.63N","longitude":"6.46E"}
{"date":"2010-05-01","average_temperature":"27.765","city":"Bénin","latitude":"7.23N","longitude":"5.68E"}
{"date":"2010-12-01","average_temperature":"10.815999999999999","city":"Badalona","latitude":"40.99N","longitude":"2.13E"}
{"date":"2010-05-01","average_temperature":"17.134","city":"Baglan","latitude":"36.17N","longitude":"69.61E"}
{"date":"2012-11-01","average_temperature":"26.249000000000002","city":"Baguio","latitude":"16.87N","longitude":"120.56E"}
{"date":"2010-06-01","average_temperature":"19.326","city":"Baia Mare","latitude":"47.42N","longitude":"22.50E"}
{"date":"2013-02-01","average_temperature":"-2.4710000000000005","city":"Baiyin","latitude":"36.17N","longitude":"103.43E"}
{"date":"2010-06-01","average_temperature":"27.185","city":"Balikpapan","latitude":"0.80S","longitude":"116.52E"}
{"date":"2012-01-01","average_temperature":"18.815","city":"Bally","latitude":"23.31N","longitude":"88.25E"}
{"date":"2012-06-01","average_temperature":"23.133000000000003","city":"Bamenda","latitude":"5.63N","longitude":"9.69E"}
{"date":"2013-02-01","average_temperature":"25.419","city":"Bamenda","latitude":"5.63N","longitude":"9.69E"}
{"date":"2012-01-01","average_temperature":"15.219","city":"Banda","latitude":"24.92N","longitude":"79.80E"}
{"date":"2010-06-01","average_temperature":"27.894000000000002","city":"Banda Aceh","latitude":"5.63N","longitude":"95.25E"}
{"date":"2011-05-01","average_temperature":"28.025","city":"Bangalore","latitude":"12.05N","longitude":"77.26E"}
{"date":"2013-04-01","average_temperature":"25.811","city":"Bangui","latitude":"4.02N","longitude":"18.48E"}
{"date":"2010-02-01","average_temperature":"22.367","city":"Bankura","latitude":"23.31N","longitude":"86.50E"}
{"date":"2012-10-01","average_temperature":"25.908","city":"Bankura","latitude":"23.31N","longitude":"86.50E"}
{"date":"2010-06-01","average_temperature":"23.003","city":"Baoshan","latitude":"47.42N","longitude":"131.45E"}
{"date":"2010-04-01","average_temperature":"32.318000000000005","city":"Barakpur","latitude":"23.31N","longitude":"88.25E"}
{"date":"2013-07-01","average_temperature":"30.0","city":"Barddhaman","latitude":"23.31N","longitude":"88.25E"}
{"date":"2013-01-01","average_temperature":"13.737","city":"Bareli","latitude":"28.13N","longitude":"79.09E"}
{"date":"2010-02-01","average_temperature":"26.991999999999997","city":"Barreiras","latitude":"12.05S","longitude":"44.38W"}
{"date":"2011-12-01","average_temperature":"25.331","city":"Bauru","latitude":"21.70S","longitude":"49.33W"}
{"date":"2010-06-01","average_temperature":"27.044","city":"Belgaum","latitude":"15.27N","longitude":"74.17E"}
{"date":"2011-04-01","average_temperature":"7.5710000000000015","city":"Belgorod","latitude":"50.63N","longitude":"36.76E"}
{"date":"2012-07-01","average_temperature":"24.301","city":"Belgrade","latitude":"44.20N","longitude":"20.12E"}
{"date":"2010-10-01","average_temperature":"26.889","city":"Bellary","latitude":"15.27N","longitude":"77.50E"}
{"date":"2011-02-01","average_temperature":"19.313","city":"Bello","latitude":"5.63N","longitude":"75.87W"}
{"date":"2010-09-01","average_temperature":"22.191000000000006","city":"Belo Horizonte","latitude":"20.09S","longitude":"44.36W"}
{"date":"2011-12-01","average_temperature":"14.591","city":"Beni Suef","latitude":"29.74N","longitude":"31.38E"}
{"date":"2011-06-01","average_temperature":"17.544","city":"Berkeley","latitude":"37.78N","longitude":"122.03W"}
{"date":"2012-05-01","average_temperature":"16.555","city":"Berkeley","latitude":"37.78N","longitude":"122.03W"}
{"date":"2011-11-01","average_temperature":"19.573","city":"Bethal","latitude":"26.52S","longitude":"28.66E"}
{"date":"2010-06-01","average_temperature":"27.951999999999998","city":"Bhairab Bazar","latitude":"24.92N","longitude":"90.44E"}
{"date":"2010-09-01","average_temperature":"28.304000000000002","city":"Bharatpur","latitude":"26.52N","longitude":"77.01E"}
{"date":"2011-12-01","average_temperature":"19.767000000000003","city":"Bhatpara","latitude":"23.31N","longitude":"88.25E"}
{"date":"2012-09-01","average_temperature":"27.231","city":"Bhilwara","latitude":"24.92N","longitude":"74.48E"}
{"date":"2013-01-01","average_temperature":"19.897","city":"Bhiwandi","latitude":"20.09N","longitude":"73.36E"}
{"date":"2012-02-01","average_temperature":"25.211","city":"Bid","latitude":"18.48N","longitude":"76.06E"}
{"date":"2011-11-01","average_temperature":"3.315","city":"Bielsko Biala","latitude":"50.63N","longitude":"19.01E"}
{"date":"2010-12-01","average_temperature":"15.571","city":"Bikaner","latitude":"28.13N","longitude":"73.64E"}
{"date":"2013-06-01","average_temperature":"19.839000000000002","city":"Bila Tserkva","latitude":"49.03N","longitude":"29.39E"}
{"date":"2010-03-01","average_temperature":"26.786","city":"Birganj","latitude":"26.52N","longitude":"84.18E"}
{"date":"2012-04-01","average_temperature":"29.348000000000006","city":"Birganj","latitude":"26.52N","longitude":"84.18E"}
{"date":"2013-03-01","average_temperature":"30.332","city":"Bissau","latitude":"12.05N","longitude":"14.79W"}
{"date":"2012-01-01","average_temperature":"26.187","city":"Bitung","latitude":"0.80N","longitude":"124.55E"}
{"date":"2011-04-01","average_temperature":"11.12","city":"Blackburn","latitude":"53.84N","longitude":"1.36W"}
{"date":"2011-11-01","average_temperature":"8.651","city":"Blackburn","latitude":"53.84N","longitude":"1.36W"}
{"date":"2012-10-01","average_temperature":"27.516","city":"Bontang","latitude":"0.80N","longitude":"118.13E"}
{"date":"2011-01-01","average_temperature":"23.878","city":"Bragança Paulista","latitude":"23.31S","longitude":"46.31W"}
{"date":"2010-01-01","average_temperature":"-2.262","city":"Bratislava","latitude":"47.42N","longitude":"17.76E"}
{"date":"2010-12-01","average_temperature":"26.254","city":"Brebes","latitude":"7.23S","longitude":"109.46E"}
{"date":"2012-11-01","average_temperature":"6.822","city":"Brescia","latitude":"45.81N","longitude":"10.38E"}
{"date":"2010-10-01","average_temperature":"10.131","city":"Buffalo","latitude":"42.59N","longitude":"78.55W"}
{"date":"2011-02-01","average_temperature":"18.136","city":"Bulandshahr","latitude":"28.13N","longitude":"77.27E"}
{"date":"2010-08-01","average_temperature":"26.889","city":"Burhanpur","latitude":"21.70N","longitude":"77.02E"}
{"date":"2013-08-01","average_temperature":"22.027","city":"Butembo","latitude":"0.80N","longitude":"29.73E"}
{"date":"2011-10-01","average_temperature":"26.813","city":"Cabanatuan","latitude":"15.27N","longitude":"120.83E"}
{"date":"2010-10-01","average_temperature":"25.806","city":"Cabudare","latitude":"10.45N","longitude":"69.55W"}
{"date":"2011-01-01","average_temperature":"12.765999999999998","city":"Cadiz","latitude":"36.17N","longitude":"5.97W"}
{"date":"2011-04-01","average_temperature":"13.01","city":"Caen","latitude":"49.03N","longitude":"0.00W"}
{"date":"2013-09-01","city":"Cagua","latitude":"10.45N","longitude":"67.91W"}
{"date":"2010-10-01","average_temperature":"25.983","city":"Cairo","latitude":"29.74N","longitude":"31.38E"}
{"date":"2011-06-01","average_temperature":"27.425","city":"Calabozo","latitude":"8.84N","longitude":"67.30W"}
{"date":"2010-10-01","average_temperature":"28.071","city":"Calcutta","latitude":"23.31N","longitude":"88.25E"}
{"date":"2013-07-01","average_temperature":"23.2","city":"Cali","latitude":"4.02N","longitude":"76.34W"}
{"date":"2012-10-01","average_temperature":"26.149","city":"Campina Grande","latitude":"7.23S","longitude":"36.49W"}
{"date":"2012-12-01","average_temperature":"24.51","city":"Campinas","latitude":"23.31S","longitude":"46.31W"}
{"date":"2013-01-01","average_temperature":"-3.2070000000000003","city":"Cangzhou","latitude":"37.78N","longitude":"115.93E"}
{"date":"2013-05-01","average_temperature":"27.084","city":"Cap Haïtien","latitude":"20.09N","longitude":"71.66W"}
{"date":"2011-10-01","average_temperature":"24.495","city":"Capiatá","latitude":"24.92S","longitude":"56.75W"}
{"date":"2010-10-01","average_temperature":"26.391","city":"Caracas","latitude":"10.45N","longitude":"66.27W"}
{"date":"2010-06-01","average_temperature":"28.71","city":"Carrefour","latitude":"18.48N","longitude":"72.68W"}
{"date":"2011-01-01","average_temperature":"25.212","city":"Caruaru","latitude":"8.84S","longitude":"36.49W"}
{"date":"2012-07-01","average_temperature":"27.656","city":"Cary","latitude":"36.17N","longitude":"79.56W"}
{"date":"2013-03-01","average_temperature":"23.057","city":"Cascavel","latitude":"24.92S","longitude":"53.20W"}
{"date":"2012-08-01","average_temperature":"26.434","city":"Castanhal","latitude":"0.80S","longitude":"47.41W"}
{"date":"2011-09-01","average_temperature":"23.271","city":"Catania","latitude":"37.78N","longitude":"14.24E"}
{"date":"2010-02-01","average_temperature":"25.511999999999997","city":"Caxias Do Sul","latitude":"29.74S","longitude":"51.69W"}
{"date":"2013-02-01","average_temperature":"-5.244","city":"Cedar Rapids","latitude":"42.59N","longitude":"91.64W"}
{"date":"2013-02-01","average_temperature":"15.979000000000001","city":"Chalco","latitude":"20.09N","longitude":"98.96W"}
{"date":"2013-05-01","average_temperature":"36.856","city":"Chandrapur","latitude":"20.09N","longitude":"78.48E"}
{"date":"2011-11-01","average_temperature":"14.707","city":"Chaohu","latitude":"31.35N","longitude":"118.74E"}
{"date":"2012-12-01","average_temperature":"14.03","city":"Charleston","latitude":"32.95N","longitude":"79.47W"}
{"date":"2010-04-01","average_temperature":"17.709","city":"Charlotte","latitude":"34.56N","longitude":"81.73W"}
{"date":"2012-02-01","average_temperature":"8.853","city":"Chattanooga","latitude":"34.56N","longitude":"85.62W"}
{"date":"2012-02-01","average_temperature":"27.771","city":"Chavakachcheri","latitude":"8.84N","longitude":"80.27E"}
{"date":"2012-04-01","average_temperature":"9.547","city":"Cheboksary","latitude":"55.45N","longitude":"48.19E"}
{"date":"2013-02-01","average_temperature":"-0.391","city":"Cherkasy","latitude":"49.03N","longitude":"31.84E"}
{"date":"2010-08-01","average_temperature":"21.651","city":"Chernivtsi","latitude":"49.03N","longitude":"26.94E"}
{"date":"2012-11-01","average_temperature":"20.509","city":"Chhatarpur","latitude":"24.92N","longitude":"79.80E"}
{"date":"2012-12-01","average_temperature":"20.465","city":"Chhindwara","latitude":"21.70N","longitude":"78.75E"}
{"date":"2011-10-01","average_temperature":"13.837","city":"Chicago","latitude":"42.59N","longitude":"87.27W"}
{"date":"2010-04-01","average_temperature":"11.058","city":"Chillan","latitude":"36.17S","longitude":"71.60W"}
{"date":"2010-11-01","average_temperature":"13.654000000000002","city":"Chimalhuacán","latitude":"20.09N","longitude":"98.96W"}
{"date":"2013-01-01","average_temperature":"26.741999999999997","city":"Cibinong","latitude":"5.63S","longitude":"106.55E"}
{"date":"2012-04-01","average_temperature":"27.609","city":"Cikarang","latitude":"5.63S","longitude":"106.55E"}
{"date":"2013-05-01","average_temperature":"27.182","city":"Ciomas","latitude":"7.23S","longitude":"106.22E"}
{"date":"2010-06-01","average_temperature":"13.148","city":"Concordia","latitude":"31.35S","longitude":"58.43W"}
{"date":"2010-09-01","average_temperature":"22.191000000000006","city":"Contagem","latitude":"20.09S","longitude":"44.36W"}
{"date":"2013-04-01","average_temperature":"24.28","city":"Coral Springs","latitude":"26.52N","longitude":"80.60W"}
{"date":"2012-05-01","average_temperature":"28.595","city":"Coro","latitude":"12.05N","longitude":"69.04W"}
{"date":"2012-01-01","average_temperature":"26.449","city":"Cotabato","latitude":"7.23N","longitude":"124.05E"}
{"date":"2011-03-01","average_temperature":"4.12","city":"Cracow","latitude":"50.63N","longitude":"19.01E"}
{"date":"2012-12-01","average_temperature":"-1.073","city":"Craiova","latitude":"44.20N","longitude":"24.60E"}
{"date":"2011-11-01","average_temperature":"20.68","city":"Cuautla","latitude":"18.48N","longitude":"99.72W"}
{"date":"2013-08-01","average_temperature":"10.378","city":"Curico","latitude":"34.56S","longitude":"72.00W"}
{"date":"2010-10-01","average_temperature":"6.2269999999999985","city":"Czestochowa","latitude":"50.63N","longitude":"19.01E"}
{"date":"2010-03-01","average_temperature":"5.355","city":"Düsseldorf","latitude":"50.63N","longitude":"6.34E"}
{"date":"2011-01-01","average_temperature":"-0.7490000000000001","city":"Dabrowa Gornicza","latitude":"50.63N","longitude":"19.01E"}
{"date":"2012-07-01","average_temperature":"25.141","city":"Daloa","latitude":"7.23N","longitude":"5.68W"}
{"date":"2012-12-01","average_temperature":"14.448","city":"Danshui","latitude":"23.31N","longitude":"114.47E"}
{"date":"2010-07-01","average_temperature":"26.908","city":"Darjiling","latitude":"26.52N","longitude":"87.76E"}
{"date":"2011-04-01","average_temperature":"5.775","city":"Datong","latitude":"40.99N","longitude":"112.90E"}
{"date":"2012-11-01","average_temperature":"28.154","city":"Dawei","latitude":"13.66N","longitude":"98.26E"}
{"date":"2013-09-01","city":"Dawei","latitude":"13.66N","longitude":"98.26E"}
{"date":"2011-03-01","average_temperature":"0.02200000000000002","city":"Dawukou","latitude":"39.38N","longitude":"106.13E"}
{"date":"2013-01-01","average_temperature":"0.536","city":"Dayton","latitude":"39.38N","longitude":"83.24W"}
{"date":"2011-03-01","average_temperature":"16.983","city":"Dekernes","latitude":"31.35N","longitude":"32.04E"}
{"date":"2012-10-01","average_temperature":"25.633000000000003","city":"Deoria","latitude":"26.52N","longitude":"84.18E"}
{"date":"2010-09-01","average_temperature":"26.296999999999997","city":"Depok","latitude":"5.63S","longitude":"106.55E"}
{"date":"2013-03-01","average_temperature":"27.719","city":"Depok","latitude":"5.63S","longitude":"106.55E"}
{"date":"2010-09-01","average_temperature":"30.824","city":"Dera Ismail Khan","latitude":"31.35N","longitude":"71.62E"}
{"date":"2010-09-01","average_temperature":"26.655","city":"Dezful","latitude":"32.95N","longitude":"48.83E"}
{"date":"2013-06-01","average_temperature":"25.828000000000007","city":"Dezhou","latitude":"37.78N","longitude":"115.93E"}
{"date":"2010-05-01","average_temperature":"29.816","city":"Dhaka","latitude":"23.31N","longitude":"90.00E"}
{"date":"2012-12-01","average_temperature":"24.51","city":"Diadema","latitude":"23.31S","longitude":"46.31W"}
{"date":"2012-03-01","average_temperature":"8.49","city":"Dijon","latitude":"47.42N","longitude":"5.92E"}
{"date":"2012-12-01","average_temperature":"24.761999999999997","city":"Divinópolis","latitude":"20.09S","longitude":"44.36W"}
{"date":"2011-07-01","average_temperature":"27.513","city":"Dongying","latitude":"37.78N","longitude":"117.97E"}
{"date":"2012-08-01","average_temperature":"26.125999999999998","city":"Dongying","latitude":"37.78N","longitude":"117.97E"}
{"date":"2010-09-01","average_temperature":"13.874","city":"Dunhua","latitude":"42.59N","longitude":"128.73E"}
{"date":"2011-07-01","average_temperature":"23.136","city":"Duque De Caxias","latitude":"23.31S","longitude":"42.82W"}
{"date":"2012-11-01","average_temperature":"9.088","city":"Eastbourne","latitude":"50.63N","longitude":"1.27E"}
{"date":"2010-07-01","average_temperature":"23.109","city":"Edirne","latitude":"42.59N","longitude":"26.18E"}
{"date":"2010-05-01","average_temperature":"24.741999999999997","city":"Ejido","latitude":"8.84N","longitude":"70.54W"}
{"date":"2011-04-01","average_temperature":"21.453000000000003","city":"El Faiyûm","latitude":"29.74N","longitude":"31.38E"}
{"date":"2011-10-01","average_temperature":"23.44","city":"El Faiyûm","latitude":"29.74N","longitude":"31.38E"}
{"date":"2013-07-01","average_temperature":"28.026","city":"Encheng","latitude":"21.70N","longitude":"111.63E"}
{"date":"2010-11-01","average_temperature":"5.2810000000000015","city":"Enschede","latitude":"52.24N","longitude":"7.88E"}
{"date":"2012-06-01","average_temperature":"18.04","city":"Erzurum","latitude":"39.38N","longitude":"41.62E"}
{"date":"2011-01-01","average_temperature":"14.786","city":"Escondido","latitude":"32.95N","longitude":"117.77W"}
{"date":"2010-07-01","average_temperature":"28.073","city":"Eslamshahr","latitude":"36.17N","longitude":"51.71E"}
{"date":"2010-02-01","average_temperature":"-0.5669999999999997","city":"Evansville","latitude":"37.78N","longitude":"87.46W"}
{"date":"2010-06-01","average_temperature":"17.708000000000006","city":"Fürth","latitude":"49.03N","longitude":"9.80E"}
{"date":"2010-03-01","average_temperature":"12.308","city":"Fairfield","latitude":"37.78N","longitude":"122.03W"}
{"date":"2010-04-01","average_temperature":"32.809","city":"Faridabad","latitude":"28.13N","longitude":"77.27E"}
{"date":"2012-05-01","average_temperature":"21.202","city":"Fez","latitude":"34.56N","longitude":"5.84W"}
{"date":"2011-07-01","average_temperature":"19.049","city":"Florencia","latitude":"2.41N","longitude":"76.34W"}
{"date":"2012-09-01","average_temperature":"19.525","city":"Florencia","latitude":"2.41N","longitude":"76.34W"}
{"date":"2010-05-01","average_temperature":"14.602","city":"Focsani","latitude":"45.81N","longitude":"26.54E"}
{"date":"2011-10-01","average_temperature":"7.523","city":"Focsani","latitude":"45.81N","longitude":"26.54E"}
{"date":"2012-06-01","average_temperature":"17.088","city":"Formosa","latitude":"26.52S","longitude":"57.31W"}
{"date":"2010-12-01","average_temperature":"-4.532","city":"Fort Wayne","latitude":"40.99N","longitude":"85.21W"}
{"date":"2010-11-01","average_temperature":"23.66","city":"Foz Do Iguaçu","latitude":"24.92S","longitude":"54.98W"}
{"date":"2011-05-01","average_temperature":"14.526","city":"Fremont","latitude":"37.78N","longitude":"122.03W"}
{"date":"2010-02-01","average_temperature":"4.061","city":"Fuenlabrada","latitude":"40.99N","longitude":"4.26W"}
{"date":"2013-01-01","average_temperature":"1.288","city":"Fujimi","latitude":"36.17N","longitude":"139.23E"}
{"date":"2010-12-01","average_temperature":"-8.517000000000001","city":"Fushun","latitude":"40.99N","longitude":"123.55E"}
{"date":"2010-02-01","average_temperature":"5.354","city":"Fuyang","latitude":"32.95N","longitude":"115.85E"}
{"date":"2013-02-01","average_temperature":"4.6869999999999985","city":"Fuyang","latitude":"32.95N","longitude":"115.85E"}
{"date":"2012-11-01","average_temperature":"24.202","city":"Gadag","latitude":"15.27N","longitude":"75.83E"}
{"date":"2010-08-01","average_temperature":"25.079","city":"Gandajika","latitude":"7.23S","longitude":"23.51E"}
{"date":"2010-10-01","average_temperature":"24.68","city":"Garanhuns","latitude":"8.84S","longitude":"36.49W"}
{"date":"2012-05-01","average_temperature":"24.072000000000006","city":"Garanhuns","latitude":"8.84S","longitude":"36.49W"}
{"date":"2012-05-01","average_temperature":"27.321","city":"Garza García","latitude":"26.52N","longitude":"100.30W"}
{"date":"2010-08-01","average_temperature":"19.193","city":"Gdansk","latitude":"53.84N","longitude":"17.73E"}
{"date":"2013-01-01","average_temperature":"9.856","city":"Gejiu","latitude":"23.31N","longitude":"103.98E"}
{"date":"2011-06-01","average_temperature":"16.956","city":"Gent","latitude":"50.63N","longitude":"3.80E"}
{"date":"2010-08-01","average_temperature":"29.659000000000002","city":"Ghazipur","latitude":"24.92N","longitude":"83.35E"}
{"date":"2011-07-01","average_temperature":"29.956","city":"Ghazipur","latitude":"24.92N","longitude":"83.35E"}
{"date":"2010-01-01","average_temperature":"11.818","city":"Gilbert","latitude":"32.95N","longitude":"112.02W"}
{"date":"2013-02-01","average_temperature":"3.64","city":"Gillingham","latitude":"50.63N","longitude":"1.27E"}
{"date":"2013-04-01","average_temperature":"14.373","city":"Giugliano In Campania","latitude":"40.99N","longitude":"14.91E"}
{"date":"2010-04-01","average_temperature":"23.462","city":"Goiânia","latitude":"16.87S","longitude":"48.56W"}
{"date":"2011-02-01","average_temperature":"9.785","city":"Granada","latitude":"37.78N","longitude":"4.07W"}
{"date":"2012-05-01","average_temperature":"24.774","city":"Grand Prairie","latitude":"32.95N","longitude":"96.70W"}
{"date":"2011-12-01","average_temperature":"22.44","city":"Gravataí","latitude":"29.74S","longitude":"51.69W"}
{"date":"2011-09-01","average_temperature":"15.835","city":"Groningen","latitude":"53.84N","longitude":"6.82E"}
{"date":"2011-02-01","average_temperature":"18.868","city":"Guadalajara","latitude":"20.09N","longitude":"104.08W"}
{"date":"2013-04-01","average_temperature":"15.429","city":"Guangyuan","latitude":"32.95N","longitude":"106.28E"}
{"date":"2011-01-01","average_temperature":"9.207999999999998","city":"Guangzhou","latitude":"23.31N","longitude":"112.72E"}
{"date":"2011-01-01","average_temperature":"23.798","city":"Guantánamo","latitude":"20.09N","longitude":"75.07W"}
{"date":"2012-05-01","average_temperature":"27.557","city":"Guantánamo","latitude":"20.09N","longitude":"75.07W"}
{"date":"2011-10-01","average_temperature":"25.441","city":"Guarenas","latitude":"10.45N","longitude":"66.27W"}
{"date":"2011-10-01","average_temperature":"25.441","city":"Guatire","latitude":"10.45N","longitude":"66.27W"}
{"date":"2012-05-01","average_temperature":"34.484","city":"Gudivada","latitude":"16.87N","longitude":"80.37E"}
{"date":"2012-10-01","average_temperature":"27.491000000000003","city":"Gudivada","latitude":"16.87N","longitude":"80.37E"}
{"date":"2010-07-01","average_temperature":"25.349","city":"Guiyang","latitude":"26.52N","longitude":"107.46E"}
{"date":"2011-06-01","average_temperature":"29.016","city":"Gulbarga","latitude":"16.87N","longitude":"77.02E"}
{"date":"2012-06-01","average_temperature":"24.68","city":"Gulu","latitude":"2.41N","longitude":"32.95E"}
{"date":"2011-11-01","average_temperature":"25.351999999999997","city":"Guntakal","latitude":"15.27N","longitude":"77.50E"}
{"date":"2012-03-01","average_temperature":"29.593000000000004","city":"Guntur","latitude":"16.87N","longitude":"80.37E"}
{"date":"2013-03-01","average_temperature":"29.198","city":"Guntur","latitude":"16.87N","longitude":"80.37E"}
{"date":"2011-09-01","average_temperature":"16.574","city":"Gyumri","latitude":"40.99N","longitude":"44.73E"}
{"date":"2011-08-01","average_temperature":"28.19","city":"Hòa Bình","latitude":"20.09N","longitude":"105.78E"}
{"date":"2013-02-01","average_temperature":"0.667","city":"Hagen","latitude":"52.24N","longitude":"7.88E"}
{"date":"2012-08-01","average_temperature":"26.531","city":"Hagonoy","latitude":"15.27N","longitude":"120.83E"}
{"date":"2011-03-01","average_temperature":"14.106","city":"Haifa","latitude":"32.95N","longitude":"35.43E"}
{"date":"2012-07-01","average_temperature":"28.525","city":"Haifa","latitude":"32.95N","longitude":"35.43E"}
{"date":"2013-06-01","average_temperature":"20.511999999999997","city":"Haikou","latitude":"24.92N","longitude":"102.86E"}
{"date":"2012-03-01","average_temperature":"17.848","city":"Haimen","latitude":"23.31N","longitude":"116.21E"}
{"date":"2011-05-01","average_temperature":"23.453000000000007","city":"Haldwani","latitude":"29.74N","longitude":"79.38E"}
{"date":"2010-04-01","average_temperature":"32.318000000000005","city":"Halisahar","latitude":"23.31N","longitude":"88.25E"}
{"date":"2010-10-01","average_temperature":"8.216000000000001","city":"Hami","latitude":"42.59N","longitude":"93.82E"}
{"date":"2011-02-01","average_temperature":"20.56","city":"Hamilton","latitude":"37.78S","longitude":"174.92E"}
{"date":"2011-09-01","average_temperature":"23.851000000000006","city":"Handa","latitude":"34.56N","longitude":"136.22E"}
{"date":"2012-01-01","average_temperature":"-5.212999999999999","city":"Hangu","latitude":"39.38N","longitude":"118.61E"}
{"date":"2012-11-01","average_temperature":"20.085","city":"Hanumangarh","latitude":"29.74N","longitude":"73.85E"}
{"date":"2013-01-01","average_temperature":"13.755999999999998","city":"Hapur","latitude":"28.13N","longitude":"77.27E"}
{"date":"2010-06-01","average_temperature":"32.585","city":"Haridwar","latitude":"29.74N","longitude":"77.54E"}
{"date":"2012-05-01","average_temperature":"9.599","city":"Helsinki","latitude":"60.27N","longitude":"25.95E"}
{"date":"2013-06-01","average_temperature":"20.063","city":"Hengshan","latitude":"45.81N","longitude":"130.38E"}
{"date":"2013-04-01","average_temperature":"8.291","city":"Herne","latitude":"52.24N","longitude":"7.88E"}
{"date":"2011-10-01","average_temperature":"7.1800000000000015","city":"Hohhot","latitude":"40.99N","longitude":"110.77E"}
{"date":"2012-04-01","average_temperature":"26.533","city":"Holguín","latitude":"20.09N","longitude":"76.78W"}
{"date":"2013-09-01","city":"Hsinchu","latitude":"24.92N","longitude":"120.59E"}
{"date":"2011-03-01","average_temperature":"9.645","city":"Huaihua","latitude":"28.13N","longitude":"110.00E"}
{"date":"2010-11-01","average_temperature":"24.409000000000002","city":"Hubli","latitude":"15.27N","longitude":"75.83E"}
{"date":"2013-01-01","average_temperature":"3.0269999999999997","city":"Huddersfield","latitude":"53.84N","longitude":"1.36W"}
{"date":"2011-09-01","average_temperature":"24.638","city":"Huelva","latitude":"37.78N","longitude":"6.10W"}
{"date":"2013-03-01","average_temperature":"-6.914","city":"Hulan","latitude":"45.81N","longitude":"125.77E"}
{"date":"2013-04-01","average_temperature":"30.621","city":"Hyderabad","latitude":"24.92N","longitude":"69.16E"}
{"date":"2013-01-01","average_temperature":"-3.52","city":"Iasi","latitude":"47.42N","longitude":"27.24E"}
{"date":"2011-09-01","average_temperature":"25.293000000000003","city":"Ichihara","latitude":"34.56N","longitude":"140.11E"}
{"date":"2012-04-01","average_temperature":"28.303","city":"Ikirun","latitude":"7.23N","longitude":"4.05E"}
{"date":"2010-03-01","average_temperature":"29.75","city":"Ikole","latitude":"7.23N","longitude":"5.68E"}
{"date":"2012-08-01","average_temperature":"24.944000000000006","city":"Ila","latitude":"7.23N","longitude":"5.68E"}
{"date":"2011-06-01","average_temperature":"25.429000000000002","city":"Ilebo","latitude":"4.02S","longitude":"20.09E"}
{"date":"2013-08-01","average_temperature":"24.264","city":"Ilesha","latitude":"8.84N","longitude":"4.05E"}
{"date":"2011-07-01","average_temperature":"26.44","city":"Inazawa","latitude":"34.56N","longitude":"136.22E"}
{"date":"2010-02-01","average_temperature":"21.396","city":"Indore","latitude":"23.31N","longitude":"76.02E"}
{"date":"2013-01-01","average_temperature":"17.076","city":"Indore","latitude":"23.31N","longitude":"76.02E"}
{"date":"2010-04-01","average_temperature":"28.397","city":"Indramayu","latitude":"5.63S","longitude":"108.16E"}
{"date":"2011-01-01","average_temperature":"10.432","city":"Inglewood","latitude":"34.56N","longitude":"118.70W"}
{"date":"2013-03-01","average_temperature":"26.221999999999998","city":"Ingraj Bazar","latitude":"24.92N","longitude":"88.67E"}
{"date":"2010-04-01","average_temperature":"26.789","city":"Iquitos","latitude":"4.02S","longitude":"73.13W"}
{"date":"2012-11-01","average_temperature":"6.959","city":"Ishinomaki","latitude":"39.38N","longitude":"141.50E"}
{"date":"2010-05-01","average_temperature":"22.136999999999997","city":"Iskenderun","latitude":"36.17N","longitude":"35.80E"}
{"date":"2012-05-01","average_temperature":"30.636999999999997","city":"Islamabad","latitude":"32.95N","longitude":"73.72E"}
{"date":"2012-10-01","average_temperature":"18.723","city":"Istanbul","latitude":"40.99N","longitude":"29.82E"}
{"date":"2013-09-01","city":"Itajaí","latitude":"26.52S","longitude":"48.36W"}
{"date":"2012-07-01","average_temperature":"17.765","city":"Itapetininga","latitude":"23.31S","longitude":"48.06W"}
{"date":"2011-07-01","average_temperature":"17.597","city":"Itapevi","latitude":"23.31S","longitude":"46.31W"}
{"date":"2013-01-01","average_temperature":"17.363","city":"Itarsi","latitude":"23.31N","longitude":"77.77E"}
{"date":"2010-09-01","average_temperature":"21.419","city":"Iwaki","latitude":"37.78N","longitude":"140.34E"}
{"date":"2012-01-01","average_temperature":"12.901","city":"Ixtapaluca","latitude":"20.09N","longitude":"98.96W"}
{"date":"2012-01-01","average_temperature":"8.353000000000002","city":"Izmir","latitude":"37.78N","longitude":"26.44E"}
{"date":"2010-01-01","average_temperature":"5.089","city":"Jackson","latitude":"32.95N","longitude":"90.96W"}
{"date":"2012-08-01","average_temperature":"27.272","city":"Jacksonville","latitude":"29.74N","longitude":"81.23W"}
{"date":"2010-09-01","average_temperature":"31.955","city":"Jacobabad","latitude":"28.13N","longitude":"68.18E"}
{"date":"2011-01-01","average_temperature":"25.81","city":"Jaffna","latitude":"8.84N","longitude":"80.27E"}
{"date":"2011-07-01","average_temperature":"29.326999999999998","city":"Jagadhri","latitude":"29.74N","longitude":"77.54E"}
{"date":"2012-03-01","average_temperature":"17.201","city":"Jahrom","latitude":"28.13N","longitude":"53.64E"}
{"date":"2012-12-01","average_temperature":"14.417","city":"Jahrom","latitude":"28.13N","longitude":"53.64E"}
{"date":"2011-12-01","average_temperature":"27.246","city":"Jakarta","latitude":"5.63S","longitude":"106.55E"}
{"date":"2011-01-01","average_temperature":"19.492","city":"Jalna","latitude":"20.09N","longitude":"75.07E"}
{"date":"2012-02-01","average_temperature":"21.825","city":"Jamnagar","latitude":"21.70N","longitude":"70.10E"}
{"date":"2010-01-01","average_temperature":"21.842","city":"Jetpur","latitude":"21.70N","longitude":"70.10E"}
{"date":"2011-12-01","average_temperature":"13.095999999999998","city":"Jhelum","latitude":"32.95N","longitude":"73.72E"}
{"date":"2011-09-01","average_temperature":"23.781999999999996","city":"Jiaxing","latitude":"31.35N","longitude":"120.63E"}
{"date":"2010-05-01","average_temperature":"12.882","city":"Jining","latitude":"40.99N","longitude":"112.90E"}
{"date":"2011-03-01","average_temperature":"10.029","city":"Jiujiang","latitude":"29.74N","longitude":"116.31E"}
{"date":"2013-07-01","average_temperature":"24.933000000000003","city":"Jiupu","latitude":"40.99N","longitude":"123.55E"}
{"date":"2010-01-01","average_temperature":"-15.830000000000002","city":"Jiutai","latitude":"44.20N","longitude":"125.22E"}
{"date":"2013-09-01","average_temperature":"22.833000000000002","city":"Jiutepec","latitude":"18.48N","longitude":"99.72W"}
{"date":"2013-09-01","city":"Jixi","latitude":"45.81N","longitude":"130.38E"}
{"date":"2011-04-01","average_temperature":"23.269000000000002","city":"Joinville","latitude":"26.52S","longitude":"48.36W"}
{"date":"2010-10-01","average_temperature":"20.25","city":"Juiz De Fora","latitude":"21.70S","longitude":"44.13W"}
{"date":"2012-04-01","average_temperature":"29.309","city":"Junagadh","latitude":"21.70N","longitude":"70.10E"}
{"date":"2013-03-01","average_temperature":"22.48","city":"Jundiaí","latitude":"23.31S","longitude":"46.31W"}
{"date":"2011-05-01","average_temperature":"15.952","city":"Kakamigahara","latitude":"36.17N","longitude":"137.24E"}
{"date":"2013-03-01","average_temperature":"20.229","city":"Kamoke","latitude":"31.35N","longitude":"73.51E"}
{"date":"2010-06-01","average_temperature":"23.813","city":"Kampala","latitude":"0.80N","longitude":"32.95E"}
{"date":"2010-11-01","average_temperature":"24.329","city":"Kampala","latitude":"0.80N","longitude":"32.95E"}
{"date":"2013-02-01","average_temperature":"-6.1370000000000005","city":"Kamyshin","latitude":"50.63N","longitude":"44.37E"}
{"date":"2010-10-01","average_temperature":"28.855999999999998","city":"Kanchipuram","latitude":"13.66N","longitude":"80.09E"}
{"date":"2011-12-01","average_temperature":"6.476","city":"Kariya","latitude":"34.56N","longitude":"136.22E"}
{"date":"2010-05-01","average_temperature":"18.657","city":"Kasuga","latitude":"32.95N","longitude":"131.17E"}
{"date":"2010-07-01","average_temperature":"17.798","city":"Katumba","latitude":"8.84S","longitude":"33.24E"}
{"date":"2010-06-01","average_temperature":"21.521","city":"Kawaguchi","latitude":"36.17N","longitude":"139.23E"}
{"date":"2010-10-01","average_temperature":"15.880999999999998","city":"Kawaguchi","latitude":"36.17N","longitude":"139.23E"}
{"date":"2010-11-01","average_temperature":"27.24","city":"Kebumen","latitude":"7.23S","longitude":"109.46E"}
{"date":"2012-08-01","average_temperature":"25.895","city":"Kedungwuni","latitude":"7.23S","longitude":"109.46E"}
{"date":"2012-11-01","average_temperature":"11.508","city":"Kerman","latitude":"29.74N","longitude":"57.23E"}
{"date":"2011-08-01","average_temperature":"28.876","city":"Khuzdar","latitude":"28.13N","longitude":"66.36E"}
{"date":"2011-04-01","average_temperature":"10.642000000000001","city":"Kielce","latitude":"50.63N","longitude":"21.55E"}
{"date":"2011-12-01","average_temperature":"1.4940000000000002","city":"Kiev","latitude":"50.63N","longitude":"31.69E"}
{"date":"2010-12-01","average_temperature":"23.874000000000002","city":"Kikwit","latitude":"5.63S","longitude":"19.37E"}
{"date":"2012-12-01","average_temperature":"24.413","city":"Kikwit","latitude":"5.63S","longitude":"19.37E"}
{"date":"2011-07-01","average_temperature":"25.288","city":"Kiryu","latitude":"36.17N","longitude":"139.23E"}
{"date":"2012-06-01","average_temperature":"26.497000000000003","city":"Kishi","latitude":"8.84N","longitude":"4.05E"}
{"date":"2010-11-01","average_temperature":"11.601","city":"Kishiwada","latitude":"34.56N","longitude":"136.22E"}
{"date":"2011-08-01","average_temperature":"20.919","city":"Kitami","latitude":"44.20N","longitude":"143.11E"}
{"date":"2012-03-01","average_temperature":"8.16","city":"Koblenz","latitude":"50.63N","longitude":"6.34E"}
{"date":"2011-02-01","average_temperature":"3.734","city":"Kodaira","latitude":"36.17N","longitude":"139.23E"}
{"date":"2010-12-01","average_temperature":"24.042","city":"Koidu","latitude":"8.84N","longitude":"10.54W"}
{"date":"2011-05-01","average_temperature":"16.147000000000002","city":"Kokubunji","latitude":"36.17N","longitude":"139.23E"}
{"date":"2010-08-01","average_temperature":"26.738000000000003","city":"Kolar","latitude":"13.66N","longitude":"78.44E"}
{"date":"2011-07-01","average_temperature":"25.614","city":"Komatsu","latitude":"36.17N","longitude":"137.24E"}
{"date":"2010-02-01","average_temperature":"29.761","city":"Korhogo","latitude":"8.84N","longitude":"5.68W"}
{"date":"2010-07-01","average_temperature":"25.847","city":"Korhogo","latitude":"8.84N","longitude":"5.68W"}
{"date":"2010-04-01","average_temperature":"7.922999999999999","city":"Koszalin","latitude":"53.84N","longitude":"15.00E"}
{"date":"2011-10-01","average_temperature":"25.445","city":"Kota Bahru","latitude":"5.63N","longitude":"101.70E"}
{"date":"2013-07-01","average_temperature":"26.107","city":"Kota Bahru","latitude":"5.63N","longitude":"101.70E"}
{"date":"2011-11-01","average_temperature":"27.784000000000002","city":"Kpalimé","latitude":"7.23N","longitude":"0.81E"}
{"date":"2011-11-01","average_temperature":"21.345","city":"Kroonstad","latitude":"28.13S","longitude":"26.36E"}
{"date":"2010-04-01","average_temperature":"10.196","city":"Kryvyy Rih","latitude":"47.42N","longitude":"34.34E"}
{"date":"2012-08-01","average_temperature":"27.073","city":"Kuching","latitude":"0.80N","longitude":"110.09E"}
{"date":"2012-02-01","average_temperature":"9.835","city":"Kuhdasht","latitude":"32.95N","longitude":"46.91E"}
{"date":"2010-12-01","average_temperature":"18.652","city":"Kuito","latitude":"12.05S","longitude":"16.44E"}
{"date":"2013-07-01","average_temperature":"17.889","city":"Kuito","latitude":"12.05S","longitude":"16.44E"}
{"date":"2011-12-01","average_temperature":"27.403000000000002","city":"Kulim","latitude":"5.63N","longitude":"100.09E"}
{"date":"2010-08-01","average_temperature":"28.265","city":"Kurume","latitude":"32.95N","longitude":"131.17E"}
{"date":"2010-08-01","average_temperature":"28.468000000000004","city":"Lárisa","latitude":"39.38N","longitude":"22.89E"}
{"date":"2011-11-01","average_temperature":"27.747","city":"Lafiagi","latitude":"8.84N","longitude":"5.68E"}
{"date":"2011-12-01","average_temperature":"0.22000000000000006","city":"Laiwu","latitude":"36.17N","longitude":"117.35E"}
{"date":"2010-06-01","average_temperature":"29.396","city":"Lampang","latitude":"18.48N","longitude":"99.72E"}
{"date":"2011-12-01","average_temperature":"12.885","city":"Laredo","latitude":"28.13N","longitude":"99.09W"}
{"date":"2013-05-01","average_temperature":"27.247","city":"Lashio","latitude":"23.31N","longitude":"96.99E"}
{"date":"2012-03-01","average_temperature":"28.276999999999997","city":"León","latitude":"12.05N","longitude":"87.12W"}
{"date":"2013-08-01","average_temperature":"28.18","city":"León","latitude":"12.05N","longitude":"87.12W"}
{"date":"2010-01-01","average_temperature":"0.8590000000000001","city":"Leeds","latitude":"53.84N","longitude":"1.36W"}
{"date":"2010-10-01","average_temperature":"25.881","city":"Leuwiliang","latitude":"7.23S","longitude":"106.22E"}
{"date":"2012-06-01","average_temperature":"26.528000000000002","city":"Libreville","latitude":"0.80N","longitude":"8.84E"}
{"date":"2012-10-01","average_temperature":"19.980999999999998","city":"Linhai","latitude":"28.13N","longitude":"120.91E"}
{"date":"2012-10-01","average_temperature":"22.963","city":"Linhares","latitude":"20.09S","longitude":"39.24W"}
{"date":"2013-09-01","city":"Linqing","latitude":"36.17N","longitude":"115.36E"}
{"date":"2010-06-01","average_temperature":"23.033","city":"Linxi","latitude":"39.38N","longitude":"118.61E"}
{"date":"2012-09-01","average_temperature":"27.61","city":"Lipa","latitude":"13.66N","longitude":"121.38E"}
{"date":"2012-04-01","average_temperature":"20.715999999999998","city":"Liuzhou","latitude":"24.92N","longitude":"109.95E"}
{"date":"2012-04-01","average_temperature":"7.566","city":"Longfeng","latitude":"45.81N","longitude":"125.77E"}
{"date":"2013-07-01","average_temperature":"23.783","city":"Longfeng","latitude":"45.81N","longitude":"125.77E"}
{"date":"2011-02-01","average_temperature":"-13.775000000000002","city":"Longjiang","latitude":"47.42N","longitude":"124.34E"}
{"date":"2012-12-01","average_temperature":"-3.6660000000000004","city":"Lublin","latitude":"50.63N","longitude":"21.55E"}
{"date":"2012-05-01","average_temperature":"19.66","city":"Lubumbashi","latitude":"12.05S","longitude":"27.95E"}
{"date":"2010-10-01","average_temperature":"26.221","city":"Ludhiana","latitude":"31.35N","longitude":"75.39E"}
{"date":"2011-02-01","average_temperature":"15.962","city":"Ludhiana","latitude":"31.35N","longitude":"75.39E"}
{"date":"2011-08-01","average_temperature":"30.011999999999997","city":"Ludhiana","latitude":"31.35N","longitude":"75.39E"}
{"date":"2011-03-01","average_temperature":"16.051","city":"Luoyang","latitude":"23.31N","longitude":"114.47E"}
{"date":"2013-07-01","average_temperature":"27.708000000000002","city":"Luoyang","latitude":"34.56N","longitude":"112.86E"}
{"date":"2012-03-01","average_temperature":"11.33","city":"Luqiao","latitude":"28.13N","longitude":"120.91E"}
{"date":"2010-08-01","average_temperature":"33.712","city":"Luxor","latitude":"26.52N","longitude":"32.24E"}
{"date":"2011-01-01","average_temperature":"23.438","city":"Luziânia","latitude":"16.87S","longitude":"48.56W"}
{"date":"2010-05-01","average_temperature":"11.717","city":"Lyon","latitude":"45.81N","longitude":"5.77E"}
{"date":"2012-03-01","average_temperature":"13.958","city":"Málaga","latitude":"36.17N","longitude":"3.98W"}
{"date":"2013-09-01","city":"Mönchengladbach","latitude":"50.63N","longitude":"6.34E"}
{"date":"2010-10-01","average_temperature":"26.883000000000006","city":"Mabalacat","latitude":"15.27N","longitude":"120.83E"}
{"date":"2010-04-01","average_temperature":"11.455","city":"Madrid","latitude":"40.99N","longitude":"4.26W"}
{"date":"2013-02-01","average_temperature":"27.796999999999997","city":"Mahajanga","latitude":"15.27S","longitude":"45.83E"}
{"date":"2010-11-01","average_temperature":"25.34","city":"Mahesana","latitude":"23.31N","longitude":"72.52E"}
{"date":"2013-08-01","average_temperature":"30.072","city":"Maicao","latitude":"12.05N","longitude":"72.33W"}
{"date":"2010-07-01","average_temperature":"25.816999999999997","city":"Makhachkala","latitude":"42.59N","longitude":"48.00E"}
{"date":"2013-09-01","city":"Malabo","latitude":"4.02N","longitude":"8.84E"}
{"date":"2011-05-01","average_temperature":"27.588","city":"Malambo","latitude":"10.45N","longitude":"74.45W"}
{"date":"2010-07-01","average_temperature":"31.891","city":"Malatya","latitude":"37.78N","longitude":"38.64E"}
{"date":"2010-01-01","average_temperature":"20.573","city":"Malegaon","latitude":"20.09N","longitude":"75.07E"}
{"date":"2013-08-01","average_temperature":"27.871","city":"Manaus","latitude":"2.41S","longitude":"60.27W"}
{"date":"2013-09-01","city":"Manchester","latitude":"53.84N","longitude":"1.36W"}
{"date":"2010-09-01","average_temperature":"28.621","city":"Mandalay","latitude":"21.70N","longitude":"96.06E"}
{"date":"2011-12-01","average_temperature":"22.081999999999997","city":"Mandalay","latitude":"21.70N","longitude":"96.06E"}
{"date":"2011-06-01","average_temperature":"32.52500000000001","city":"Mandi Bahauddin","latitude":"32.95N","longitude":"73.72E"}
{"date":"2011-06-01","average_temperature":"16.903000000000002","city":"Manzini","latitude":"26.52S","longitude":"32.24E"}
{"date":"2011-11-01","average_temperature":"22.715","city":"Maoming","latitude":"21.70N","longitude":"111.63E"}
{"date":"2012-08-01","average_temperature":"28.661","city":"Maracaibo","latitude":"10.45N","longitude":"71.18W"}
{"date":"2011-12-01","average_temperature":"25.21","city":"Maracay","latitude":"10.45N","longitude":"67.91W"}
{"date":"2011-02-01","average_temperature":"8.518999999999998","city":"Mardan","latitude":"34.56N","longitude":"72.00E"}
{"date":"2011-08-01","average_temperature":"27.224","city":"Mariara","latitude":"10.45N","longitude":"67.91W"}
{"date":"2010-05-01","average_temperature":"28.086","city":"Martapura","latitude":"4.02S","longitude":"114.91E"}
{"date":"2012-07-01","average_temperature":"26.241999999999997","city":"Martapura","latitude":"4.02S","longitude":"114.91E"}
{"date":"2010-06-01","average_temperature":"28.644000000000002","city":"Matanzas","latitude":"23.31N","longitude":"81.26W"}
{"date":"2010-01-01","average_temperature":"9.763","city":"Mataró","latitude":"40.99N","longitude":"2.13E"}
{"date":"2012-10-01","average_temperature":"26.354","city":"Mathura","latitude":"28.13N","longitude":"77.27E"}
{"date":"2013-05-01","average_temperature":"16.756999999999998","city":"Matsudo","latitude":"36.17N","longitude":"139.23E"}
{"date":"2013-07-01","average_temperature":"22.539","city":"Maxixe","latitude":"23.31S","longitude":"35.83E"}
{"date":"2013-08-01","average_temperature":"25.722","city":"Mazatlán","latitude":"23.31N","longitude":"105.73W"}
{"date":"2010-02-01","average_temperature":"21.498","city":"Mecca","latitude":"21.70N","longitude":"40.67E"}
{"date":"2011-02-01","average_temperature":"15.513","city":"Meilu","latitude":"21.70N","longitude":"109.90E"}
{"date":"2011-07-01","average_temperature":"27.877","city":"Melaka","latitude":"2.41N","longitude":"102.05E"}
{"date":"2012-02-01","average_temperature":"-1.835","city":"Mentougou","latitude":"39.38N","longitude":"116.53E"}
{"date":"2010-12-01","average_temperature":"7.444","city":"Mianyang","latitude":"31.35N","longitude":"105.55E"}
{"date":"2012-04-01","average_temperature":"19.223","city":"Mianyang","latitude":"31.35N","longitude":"105.55E"}
{"date":"2013-03-01","average_temperature":"19.033","city":"Midrand","latitude":"26.52S","longitude":"28.66E"}
{"date":"2010-12-01","average_temperature":"21.252","city":"Milagro","latitude":"2.41S","longitude":"79.55W"}
{"date":"2010-07-01","average_temperature":"28.634","city":"Mingaora","latitude":"34.56N","longitude":"72.00E"}
{"date":"2012-06-01","average_temperature":"33.346000000000004","city":"Mirpur Khas","latitude":"24.92N","longitude":"69.16E"}
{"date":"2010-01-01","average_temperature":"14.012","city":"Mirzapur","latitude":"24.92N","longitude":"83.35E"}
{"date":"2012-07-01","average_temperature":"25.355","city":"Mishima","latitude":"34.56N","longitude":"138.16E"}
{"date":"2011-07-01","average_temperature":"17.597","city":"Moji Das Cruzes","latitude":"23.31S","longitude":"46.31W"}
{"date":"2012-12-01","average_temperature":"27.612","city":"Mojokerto","latitude":"7.23S","longitude":"112.70E"}
{"date":"2011-05-01","average_temperature":"28.826999999999998","city":"Montalban","latitude":"15.27N","longitude":"120.83E"}
{"date":"2012-03-01","average_temperature":"1.5499999999999998","city":"Montreal","latitude":"45.81N","longitude":"72.69W"}
{"date":"2013-02-01","average_temperature":"-0.27","city":"Monza","latitude":"45.81N","longitude":"10.38E"}
{"date":"2012-11-01","average_temperature":"27.066","city":"Moratuwa","latitude":"7.23N","longitude":"80.27E"}
{"date":"2012-06-01","average_temperature":"23.489","city":"Morogoro","latitude":"7.23S","longitude":"38.11E"}
{"date":"2010-04-01","average_temperature":"7.55","city":"Moscow","latitude":"55.45N","longitude":"36.85E"}
{"date":"2013-05-01","average_temperature":"16.152","city":"Moscow","latitude":"55.45N","longitude":"36.85E"}
{"date":"2012-07-01","average_temperature":"21.791","city":"Moshi","latitude":"4.02S","longitude":"37.77E"}
{"date":"2011-03-01","average_temperature":"28.534000000000002","city":"Mossoró","latitude":"5.63S","longitude":"37.13W"}
{"date":"2010-04-01","average_temperature":"32.992","city":"Moundou","latitude":"8.84N","longitude":"15.41E"}
{"date":"2010-07-01","average_temperature":"26.903","city":"Murcia","latitude":"37.78N","longitude":"2.03W"}
{"date":"2012-05-01","average_temperature":"5.59","city":"Murmansk","latitude":"68.31N","longitude":"34.70E"}
{"date":"2011-06-01","average_temperature":"17.836","city":"Murom","latitude":"55.45N","longitude":"42.52E"}
{"date":"2010-11-01","average_temperature":"22.439","city":"Murwara","latitude":"23.31N","longitude":"81.26E"}
{"date":"2012-01-01","average_temperature":"15.927","city":"Murwara","latitude":"23.31N","longitude":"81.26E"}
{"date":"2013-02-01","average_temperature":"2.046","city":"Musashino","latitude":"36.17N","longitude":"139.23E"}
{"date":"2010-11-01","average_temperature":"22.969","city":"Muzaffarpur","latitude":"26.52N","longitude":"85.97E"}
{"date":"2011-08-01","average_temperature":"18.149","city":"Mytishchi","latitude":"55.45N","longitude":"36.85E"}
{"date":"2012-04-01","average_temperature":"10.652999999999999","city":"Nîmes","latitude":"44.20N","longitude":"4.47E"}
{"date":"2010-02-01","average_temperature":"13.055","city":"Nador","latitude":"34.56N","longitude":"3.89W"}
{"date":"2010-11-01","average_temperature":"27.006","city":"Naga","latitude":"13.66N","longitude":"123.03E"}
{"date":"2010-12-01","average_temperature":"26.325","city":"Naga","latitude":"13.66N","longitude":"123.03E"}
{"date":"2013-01-01","average_temperature":"2.074","city":"Nagaoka","latitude":"37.78N","longitude":"138.31E"}
{"date":"2011-09-01","average_temperature":"26.279000000000003","city":"Nagda","latitude":"23.31N","longitude":"76.02E"}
{"date":"2012-05-01","average_temperature":"35.082","city":"Nagpur","latitude":"21.70N","longitude":"78.75E"}
{"date":"2010-05-01","average_temperature":"31.308000000000003","city":"Naihati","latitude":"23.31N","longitude":"88.25E"}
{"date":"2010-05-01","average_temperature":"10.484000000000002","city":"Nakhodka","latitude":"42.59N","longitude":"133.09E"}
{"date":"2010-10-01","average_temperature":"9.46","city":"Nakhodka","latitude":"42.59N","longitude":"133.09E"}
{"date":"2013-08-01","average_temperature":"15.985","city":"Nakuru","latitude":"0.80S","longitude":"36.16E"}
{"date":"2010-11-01","average_temperature":"6.127999999999999","city":"Namur","latitude":"50.63N","longitude":"3.80E"}
{"date":"2011-08-01","average_temperature":"20.078","city":"Nancha","latitude":"47.42N","longitude":"129.08E"}
{"date":"2010-06-01","average_temperature":"31.776999999999997","city":"Nandurbar","latitude":"21.70N","longitude":"73.56E"}
{"date":"2012-08-01","average_temperature":"29.833000000000002","city":"Nangloi Jat","latitude":"28.13N","longitude":"77.27E"}
{"date":"2011-01-01","average_temperature":"4.5440000000000005","city":"Nantes","latitude":"47.42N","longitude":"1.18W"}
{"date":"2013-02-01","average_temperature":"19.273","city":"Nantou","latitude":"23.31N","longitude":"121.46E"}
{"date":"2012-02-01","average_temperature":"4.523","city":"Naples","latitude":"40.99N","longitude":"14.91E"}
{"date":"2013-05-01","average_temperature":"17.304000000000002","city":"Naples","latitude":"40.99N","longitude":"14.91E"}
{"date":"2012-07-01","average_temperature":"17.525000000000002","city":"Naucalpan","latitude":"20.09N","longitude":"98.96W"}
{"date":"2011-09-01","average_temperature":"29.092","city":"Navadwip","latitude":"23.31N","longitude":"88.25E"}
{"date":"2013-01-01","average_temperature":"4.728","city":"Navoi","latitude":"39.38N","longitude":"64.51E"}
{"date":"2010-10-01","average_temperature":"16.253","city":"Nazilli","latitude":"37.78N","longitude":"28.47E"}
{"date":"2013-05-01","average_temperature":"27.938000000000002","city":"Negombo","latitude":"7.23N","longitude":"80.27E"}
{"date":"2010-10-01","average_temperature":"13.76","city":"Neuquen","latitude":"39.38S","longitude":"68.67W"}
{"date":"2011-06-01","average_temperature":"17.683","city":"Nevinnomyssk","latitude":"44.20N","longitude":"42.48E"}
{"date":"2011-07-01","average_temperature":"22.424","city":"Nevinnomyssk","latitude":"44.20N","longitude":"42.48E"}
{"date":"2011-05-01","average_temperature":"16.917","city":"New York","latitude":"40.99N","longitude":"74.56W"}
{"date":"2012-01-01","average_temperature":"-0.040999999999999925","city":"Newark","latitude":"40.99N","longitude":"74.56W"}
{"date":"2011-02-01","average_temperature":"23.399","city":"Newcastle","latitude":"32.95S","longitude":"152.23E"}
{"date":"2011-03-01","average_temperature":"8.773","city":"Newport News","latitude":"37.78N","longitude":"77.29W"}
{"date":"2011-12-01","average_temperature":"6.476","city":"Neyagawa","latitude":"34.56N","longitude":"136.22E"}
{"date":"2010-11-01","average_temperature":"13.731","city":"Ningbo","latitude":"29.74N","longitude":"121.85E"}
{"date":"2012-10-01","average_temperature":"19.347","city":"Ningbo","latitude":"29.74N","longitude":"121.85E"}
{"date":"2011-10-01","average_temperature":"15.488","city":"Noda","latitude":"36.17N","longitude":"139.23E"}
{"date":"2013-01-01","average_temperature":"1.288","city":"Noda","latitude":"36.17N","longitude":"139.23E"}
{"date":"2011-03-01","average_temperature":"15.377","city":"Nogales","latitude":"31.35N","longitude":"111.20W"}
{"date":"2011-05-01","average_temperature":"20.029","city":"Nogales","latitude":"31.35N","longitude":"111.20W"}
{"date":"2013-07-01","average_temperature":"27.375","city":"Nogales","latitude":"31.35N","longitude":"111.20W"}
{"date":"2012-06-01","average_temperature":"23.004","city":"Norfolk","latitude":"36.17N","longitude":"75.58W"}
{"date":"2011-02-01","average_temperature":"20.932","city":"North Shore","latitude":"36.17S","longitude":"175.03E"}
{"date":"2012-05-01","average_temperature":"12.341","city":"Northampton","latitude":"52.24N","longitude":"0.00W"}
{"date":"2013-03-01","average_temperature":"3.2319999999999998","city":"Norwich","latitude":"52.24N","longitude":"0.00W"}
{"date":"2012-06-01","average_temperature":"12.655999999999999","city":"Nottingham","latitude":"53.84N","longitude":"1.36W"}
{"date":"2013-01-01","average_temperature":"3.0269999999999997","city":"Nottingham","latitude":"53.84N","longitude":"1.36W"}
{"date":"2011-05-01","average_temperature":"23.752","city":"Nova Iguaçu","latitude":"23.31S","longitude":"42.82W"}
{"date":"2011-10-01","average_temperature":"9.467","city":"Novocherkassk","latitude":"47.42N","longitude":"39.08E"}
{"date":"2013-04-01","average_temperature":"3.2","city":"Novosibirsk","latitude":"55.45N","longitude":"82.20E"}
{"date":"2010-01-01","average_temperature":"28.256","city":"Nsukka","latitude":"7.23N","longitude":"7.30E"}
{"date":"2010-11-01","average_temperature":"25.294","city":"Nueva San Salvador","latitude":"13.66N","longitude":"90.00W"}
{"date":"2011-11-01","average_temperature":"0.18699999999999986","city":"Nukus","latitude":"42.59N","longitude":"58.91E"}
{"date":"2012-04-01","average_temperature":"14.396","city":"Numazu","latitude":"34.56N","longitude":"138.16E"}
{"date":"2013-06-01","average_temperature":"13.112","city":"Obihiro","latitude":"42.59N","longitude":"144.00E"}
{"date":"2010-04-01","average_temperature":"27.218000000000004","city":"Ocumare Del Tuy","latitude":"10.45N","longitude":"66.27W"}
{"date":"2011-11-01","average_temperature":"27.401","city":"Offa","latitude":"8.84N","longitude":"4.05E"}
{"date":"2011-01-01","average_temperature":"0.929","city":"Offenbach","latitude":"50.63N","longitude":"8.87E"}
{"date":"2012-09-01","average_temperature":"29.956","city":"Okara","latitude":"31.35N","longitude":"73.51E"}
{"date":"2010-12-01","average_temperature":"-8.113999999999999","city":"Oktyabrskiy","latitude":"53.84N","longitude":"53.18E"}
{"date":"2012-08-01","average_temperature":"16.163","city":"Oldham","latitude":"53.84N","longitude":"1.36W"}
{"date":"2013-09-01","city":"Olomouc","latitude":"49.03N","longitude":"17.14E"}
{"date":"2011-01-01","average_temperature":"24.963","city":"Olongapo","latitude":"15.27N","longitude":"120.83E"}
{"date":"2012-09-01","average_temperature":"14.562999999999999","city":"Olsztyn","latitude":"53.84N","longitude":"20.45E"}
{"date":"2012-06-01","average_temperature":"23.884","city":"Omaha","latitude":"40.99N","longitude":"95.86W"}
{"date":"2013-04-01","average_temperature":"29.868000000000002","city":"Ongole","latitude":"15.27N","longitude":"80.83E"}
{"date":"2010-09-01","average_temperature":"26.139000000000006","city":"Onitsha","latitude":"5.63N","longitude":"6.46E"}
{"date":"2011-07-01","average_temperature":"30.144","city":"Orai","latitude":"26.52N","longitude":"78.81E"}
{"date":"2010-05-01","average_temperature":"15.248","city":"Orange","latitude":"32.95N","longitude":"117.77W"}
{"date":"2011-09-01","average_temperature":"8.941","city":"Oruro","latitude":"18.48S","longitude":"67.61W"}
{"date":"2011-05-01","average_temperature":"16.549","city":"Osmaniye","latitude":"37.78N","longitude":"36.61E"}
{"date":"2010-09-01","average_temperature":"6.352","city":"Osorno","latitude":"40.99S","longitude":"72.43W"}
{"date":"2010-12-01","average_temperature":"26.609","city":"Otukpo","latitude":"7.23N","longitude":"8.92E"}
{"date":"2010-04-01","average_temperature":"33.844","city":"Ouagadougou","latitude":"12.05N","longitude":"1.64W"}
{"date":"2010-09-01","average_temperature":"9.260000000000002","city":"Oulu","latitude":"65.09N","longitude":"24.89E"}
{"date":"2012-07-01","average_temperature":"19.779","city":"Oviedo","latitude":"42.59N","longitude":"6.55W"}
{"date":"2013-03-01","average_temperature":"3.2319999999999998","city":"Oxford","latitude":"52.24N","longitude":"0.00W"}
{"date":"2011-06-01","average_temperature":"21.195999999999998","city":"Pécs","latitude":"45.81N","longitude":"17.31E"}
{"date":"2011-09-01","average_temperature":"13.918","city":"Paarl","latitude":"34.56S","longitude":"19.46E"}
{"date":"2011-10-01","average_temperature":"26.184","city":"Pacet","latitude":"7.23S","longitude":"107.84E"}
{"date":"2012-05-01","average_temperature":"19.717","city":"Pachuca","latitude":"20.09N","longitude":"98.96W"}
{"date":"2011-11-01","average_temperature":"26.933000000000003","city":"Pagadian","latitude":"7.23N","longitude":"124.05E"}
{"date":"2011-09-01","average_temperature":"26.606","city":"Pakokku","latitude":"21.70N","longitude":"94.33E"}
{"date":"2010-12-01","average_temperature":"10.237","city":"Palmdale","latitude":"34.56N","longitude":"118.70W"}
{"date":"2013-02-01","average_temperature":"25.599","city":"Palo Negro","latitude":"10.45N","longitude":"67.91W"}
{"date":"2011-02-01","average_temperature":"6.799","city":"Pamplona","latitude":"42.59N","longitude":"2.18W"}
{"date":"2010-08-01","average_temperature":"30.226","city":"Panihati","latitude":"23.31N","longitude":"88.25E"}
{"date":"2011-06-01","average_temperature":"30.605999999999998","city":"Panipat","latitude":"29.74N","longitude":"77.54E"}
{"date":"2012-01-01","average_temperature":"8.055","city":"Paradise","latitude":"36.17N","longitude":"115.36W"}
{"date":"2013-02-01","average_temperature":"27.34","city":"Parung","latitude":"5.63S","longitude":"106.55E"}
{"date":"2012-12-01","average_temperature":"8.712","city":"Pasadena","latitude":"34.56N","longitude":"118.70W"}
{"date":"2011-02-01","average_temperature":"23.266","city":"Passo Fundo","latitude":"28.13S","longitude":"51.82W"}
{"date":"2010-10-01","average_temperature":"17.532999999999998","city":"Pasto","latitude":"0.80N","longitude":"77.95W"}
{"date":"2011-04-01","average_temperature":"26.889","city":"Pasuruan","latitude":"7.23S","longitude":"112.70E"}
{"date":"2013-03-01","average_temperature":"26.253","city":"Payakumbuh","latitude":"0.80S","longitude":"100.45E"}
{"date":"2010-10-01","average_temperature":"13.030999999999999","city":"Peking","latitude":"39.38N","longitude":"116.53E"}
{"date":"2010-06-01","average_temperature":"23.513","city":"Peoria","latitude":"40.99N","longitude":"89.47W"}
{"date":"2011-04-01","average_temperature":"10.321","city":"Peoria","latitude":"40.99N","longitude":"89.47W"}
{"date":"2010-02-01","average_temperature":"4.25","city":"Perpignan","latitude":"42.59N","longitude":"2.18E"}
{"date":"2011-09-01","average_temperature":"19.077","city":"Perpignan","latitude":"42.59N","longitude":"2.18E"}
{"date":"2012-12-01","average_temperature":"-18.138","city":"Pervouralsk","latitude":"57.05N","longitude":"60.49E"}
{"date":"2010-03-01","average_temperature":"-8.440000000000001","city":"Petropavl","latitude":"55.45N","longitude":"68.03E"}
{"date":"2010-09-01","average_temperature":"11.592","city":"Petropavl","latitude":"55.45N","longitude":"68.03E"}
{"date":"2012-08-01","average_temperature":"13.77","city":"Petropavlovsk Kamchatskiy","latitude":"53.84N","longitude":"159.55E"}
{"date":"2012-09-01","average_temperature":"20.402","city":"Phalaborwa","latitude":"23.31S","longitude":"30.58E"}
{"date":"2013-07-01","average_temperature":"25.683000000000003","city":"Philadelphia","latitude":"39.38N","longitude":"74.91W"}
{"date":"2010-08-01","average_temperature":"27.651","city":"Phitsanulok","latitude":"16.87N","longitude":"100.47E"}
{"date":"2012-11-01","average_temperature":"15.967","city":"Pietermaritzburg","latitude":"29.74S","longitude":"29.54E"}
{"date":"2010-08-01","average_temperature":"17.852999999999998","city":"Pindamonhangaba","latitude":"23.31S","longitude":"46.31W"}
{"date":"2013-04-01","average_temperature":"20.48","city":"Pindamonhangaba","latitude":"23.31S","longitude":"46.31W"}
{"date":"2013-03-01","average_temperature":"7.416","city":"Pingliang","latitude":"36.17N","longitude":"107.40E"}
{"date":"2011-04-01","average_temperature":"18.514","city":"Pingxiang","latitude":"28.13N","longitude":"113.64E"}
{"date":"2012-01-01","average_temperature":"3.884","city":"Pingxiang","latitude":"28.13N","longitude":"113.64E"}
{"date":"2013-02-01","average_temperature":"24.09","city":"Piracicaba","latitude":"23.31S","longitude":"48.06W"}
{"date":"2013-01-01","average_temperature":"22.319000000000003","city":"Plây Cu","latitude":"13.66N","longitude":"108.17E"}
{"date":"2012-07-01","average_temperature":"19.177","city":"Poços De Caldas","latitude":"21.70S","longitude":"45.87W"}
{"date":"2012-10-01","average_temperature":"27.799000000000003","city":"Ponnani","latitude":"10.45N","longitude":"76.09E"}
{"date":"2013-07-01","average_temperature":"28.296999999999997","city":"Port Au Prince","latitude":"18.48N","longitude":"72.68W"}
{"date":"2010-12-01","average_temperature":"27.739","city":"Port Blair","latitude":"12.05N","longitude":"92.05E"}
{"date":"2012-12-01","average_temperature":"17.313","city":"Port Said","latitude":"31.35N","longitude":"32.04E"}
{"date":"2013-07-01","average_temperature":"17.467","city":"Portland","latitude":"45.81N","longitude":"123.46W"}
{"date":"2010-09-01","average_temperature":"16.644000000000002","city":"Porto Alegre","latitude":"29.74S","longitude":"51.69W"}
{"date":"2011-12-01","average_temperature":"8.663","city":"Portsmouth","latitude":"50.63N","longitude":"1.27W"}
{"date":"2013-05-01","average_temperature":"15.392000000000001","city":"Pretoria","latitude":"24.92S","longitude":"28.37E"}
{"date":"2013-06-01","average_temperature":"13.235999999999999","city":"Pretoria","latitude":"24.92S","longitude":"28.37E"}
{"date":"2012-12-01","average_temperature":"27.612","city":"Probolinggo","latitude":"7.23S","longitude":"112.70E"}
{"date":"2013-08-01","average_temperature":"19.579","city":"Providence","latitude":"42.59N","longitude":"72.00W"}
{"date":"2010-02-01","average_temperature":"-6.98","city":"Pskov","latitude":"57.05N","longitude":"28.03E"}
{"date":"2012-11-01","average_temperature":"22.805","city":"Pune","latitude":"18.48N","longitude":"74.37E"}
{"date":"2012-03-01","average_temperature":"6.928","city":"Puno","latitude":"15.27S","longitude":"70.83W"}
{"date":"2013-01-01","average_temperature":"26.154","city":"Purwodadi","latitude":"7.23S","longitude":"111.08E"}
{"date":"2012-01-01","average_temperature":"26.448","city":"Purwokerto","latitude":"7.23S","longitude":"109.46E"}
{"date":"2012-08-01","average_temperature":"26.643","city":"Purworejo","latitude":"7.23S","longitude":"112.70E"}
{"date":"2013-06-01","average_temperature":"31.796","city":"Qandahar","latitude":"31.35N","longitude":"65.97E"}
{"date":"2012-08-01","average_temperature":"26.137","city":"Qazvin","latitude":"36.17N","longitude":"49.72E"}
{"date":"2012-04-01","average_temperature":"13.46","city":"Qinhuangdao","latitude":"39.38N","longitude":"118.61E"}
{"date":"2012-11-01","average_temperature":"21.651","city":"Qinzhou","latitude":"21.70N","longitude":"108.17E"}
{"date":"2012-04-01","average_temperature":"6.9750000000000005","city":"Qiqihar","latitude":"47.42N","longitude":"124.34E"}
{"date":"2013-01-01","average_temperature":"3.755","city":"Qom","latitude":"34.56N","longitude":"50.59E"}
{"date":"2012-10-01","average_temperature":"17.239","city":"Queluz","latitude":"39.38N","longitude":"8.32W"}
{"date":"2012-05-01","average_temperature":"29.503","city":"Qui Nhon","latitude":"13.66N","longitude":"109.82E"}
{"date":"2012-03-01","average_temperature":"16.859","city":"Quilpue","latitude":"32.95S","longitude":"71.81W"}
{"date":"2011-05-01","average_temperature":"17.630000000000006","city":"Quito","latitude":"0.80S","longitude":"77.95W"}
{"date":"2012-02-01","average_temperature":"21.825","city":"Rajkot","latitude":"21.70N","longitude":"70.10E"}
{"date":"2012-06-01","average_temperature":"31.959","city":"Rajpur","latitude":"23.31N","longitude":"88.25E"}
{"date":"2011-06-01","average_temperature":"24.271","city":"Ramat Gan","latitude":"32.95N","longitude":"35.43E"}
{"date":"2011-12-01","average_temperature":"0.625","city":"Ramnicu Valcea","latitude":"45.81N","longitude":"24.23E"}
{"date":"2011-09-01","average_temperature":"25.772","city":"Rancaekek","latitude":"7.23S","longitude":"107.84E"}
{"date":"2011-02-01","average_temperature":"13.594000000000001","city":"Rancagua","latitude":"34.56S","longitude":"70.05W"}
{"date":"2011-12-01","average_temperature":"6.962999999999999","city":"Rancho Cucamonga","latitude":"34.56N","longitude":"116.76W"}
{"date":"2012-10-01","average_temperature":"25.908","city":"Raniganj","latitude":"23.31N","longitude":"86.50E"}
{"date":"2011-02-01","average_temperature":"21.584","city":"Ratlam","latitude":"23.31N","longitude":"74.27E"}
{"date":"2010-07-01","average_temperature":"28.534000000000002","city":"Raurkela","latitude":"21.70N","longitude":"85.67E"}
{"date":"2010-06-01","average_temperature":"31.706000000000003","city":"Rawalpindi","latitude":"32.95N","longitude":"73.72E"}
{"date":"2013-04-01","average_temperature":"26.721999999999998","city":"Rawang","latitude":"4.02N","longitude":"102.05E"}
{"date":"2012-10-01","average_temperature":"28.069000000000006","city":"Rayong","latitude":"12.05N","longitude":"101.92E"}
{"date":"2010-09-01","average_temperature":"14.759","city":"Reading","latitude":"50.63N","longitude":"1.27W"}
{"date":"2010-12-01","average_temperature":"15.393","city":"Rewari","latitude":"28.13N","longitude":"77.27E"}
{"date":"2010-05-01","average_temperature":"27.693","city":"Reynosa","latitude":"26.52N","longitude":"98.51W"}
{"date":"2010-08-01","average_temperature":"23.061999999999998","city":"Rimini","latitude":"44.20N","longitude":"13.42E"}
{"date":"2010-02-01","average_temperature":"26.445999999999998","city":"Rio Branco","latitude":"10.45S","longitude":"67.91W"}
{"date":"2011-08-01","average_temperature":"21.8","city":"Riobamba","latitude":"2.41S","longitude":"77.95W"}
{"date":"2011-10-01","average_temperature":"19.128","city":"Riverside","latitude":"34.56N","longitude":"116.76W"}
{"date":"2011-09-01","average_temperature":"15.087","city":"Rivne","latitude":"50.63N","longitude":"26.62E"}
{"date":"2013-01-01","average_temperature":"13.755999999999998","city":"Rohtak","latitude":"28.13N","longitude":"77.27E"}
{"date":"2012-01-01","average_temperature":"25.587","city":"Rondonópolis","latitude":"16.87S","longitude":"55.26W"}
{"date":"2012-11-01","average_temperature":"26.659","city":"Rondonópolis","latitude":"16.87S","longitude":"55.26W"}
{"date":"2010-01-01","average_temperature":"-4.756","city":"Rostock","latitude":"53.84N","longitude":"12.27E"}
{"date":"2012-08-01","average_temperature":"20.765","city":"Ruiru","latitude":"0.80S","longitude":"37.77E"}
{"date":"2010-12-01","average_temperature":"-6.559","city":"Ryazan","latitude":"53.84N","longitude":"39.55E"}
{"date":"2011-02-01","average_temperature":"24.412","city":"São Vicente","latitude":"23.31S","longitude":"46.31W"}
{"date":"2011-09-01","average_temperature":"19.023","city":"São Vicente","latitude":"23.31S","longitude":"46.31W"}
{"date":"2012-08-01","average_temperature":"20.531","city":"Sacramento","latitude":"37.78N","longitude":"122.03W"}
{"date":"2011-03-01","average_temperature":"24.933000000000003","city":"Sadiqabad","latitude":"28.13N","longitude":"70.00E"}
{"date":"2011-09-01","average_temperature":"23.654","city":"Saga","latitude":"32.95N","longitude":"131.17E"}
{"date":"2013-07-01","average_temperature":"24.645000000000003","city":"Sagamihara","latitude":"36.17N","longitude":"139.23E"}
{"date":"2013-02-01","average_temperature":"22.57","city":"Saint Louis","latitude":"16.87N","longitude":"16.74W"}
{"date":"2011-03-01","average_temperature":"4.674","city":"Saitama","latitude":"36.17N","longitude":"139.23E"}
{"date":"2011-02-01","average_temperature":"16.394000000000002","city":"Salamanca","latitude":"20.09N","longitude":"100.66W"}
{"date":"2012-05-01","average_temperature":"21.958","city":"Salamanca","latitude":"20.09N","longitude":"100.66W"}
{"date":"2011-11-01","average_temperature":"18.817","city":"Salta","latitude":"24.92S","longitude":"65.62W"}
{"date":"2012-04-01","average_temperature":"14.048","city":"Salta","latitude":"24.92S","longitude":"65.62W"}
{"date":"2010-02-01","average_temperature":"25.396","city":"Salto","latitude":"31.35S","longitude":"58.43W"}
{"date":"2013-02-01","average_temperature":"27.932","city":"Salvador","latitude":"13.66S","longitude":"38.81W"}
{"date":"2013-06-01","average_temperature":"25.006999999999998","city":"Salvador","latitude":"13.66S","longitude":"38.81W"}
{"date":"2012-10-01","average_temperature":"14.592","city":"Samarkand","latitude":"39.38N","longitude":"66.59E"}
{"date":"2010-11-01","average_temperature":"11.181","city":"San Bernardino","latitude":"34.56N","longitude":"116.76W"}
{"date":"2013-08-01","average_temperature":"2.3640000000000003","city":"San Carlos De Bariloche","latitude":"40.99S","longitude":"70.30W"}
{"date":"2012-04-01","average_temperature":"15.094000000000001","city":"San Diego","latitude":"32.95N","longitude":"117.77W"}
{"date":"2012-11-01","average_temperature":"13.367","city":"San Jose","latitude":"37.78N","longitude":"122.03W"}
{"date":"2010-11-01","average_temperature":"25.883000000000006","city":"San Juan","latitude":"18.48N","longitude":"65.92W"}
{"date":"2012-08-01","average_temperature":"13.318","city":"San Luis","latitude":"32.95S","longitude":"66.06W"}
{"date":"2010-04-01","average_temperature":"13.473","city":"Sanandaj","latitude":"34.56N","longitude":"46.70E"}
{"date":"2012-02-01","average_temperature":"2.69","city":"Sanandaj","latitude":"34.56N","longitude":"46.70E"}
{"date":"2012-07-01","average_temperature":"26.713","city":"Sanda","latitude":"34.56N","longitude":"134.27E"}
{"date":"2012-01-01","average_temperature":"14.267000000000001","city":"Sanhsia","latitude":"24.92N","longitude":"120.59E"}
{"date":"2011-09-01","average_temperature":"16.305999999999997","city":"Sanmenxia","latitude":"34.56N","longitude":"110.92E"}
{"date":"2010-07-01","average_temperature":"27.496","city":"Sanming","latitude":"26.52N","longitude":"118.21E"}
{"date":"2012-04-01","average_temperature":"26.97","city":"Santa Rita","latitude":"7.23S","longitude":"34.86W"}
{"date":"2010-04-01","average_temperature":"12.402999999999999","city":"Santa Rosa","latitude":"37.78N","longitude":"122.03W"}
{"date":"2012-01-01","average_temperature":"11.6","city":"Santander","latitude":"44.20N","longitude":"4.47W"}
{"date":"2010-01-01","average_temperature":"26.838","city":"Santarém","latitude":"2.41S","longitude":"55.45W"}
{"date":"2010-12-01","average_temperature":"26.722","city":"Santiago Del Estero","latitude":"28.13S","longitude":"64.55W"}
{"date":"2013-07-01","average_temperature":"16.849","city":"Santo André","latitude":"23.31S","longitude":"46.31W"}
{"date":"2013-03-01","average_temperature":"25.816","city":"Santo Domingo","latitude":"18.48N","longitude":"69.30W"}
{"date":"2011-07-01","average_temperature":"21.775","city":"Santo Domingo","latitude":"0.80S","longitude":"79.55W"}
{"date":"2010-10-01","average_temperature":"17.893","city":"Saqqez","latitude":"36.17N","longitude":"45.75E"}
{"date":"2010-09-01","average_temperature":"15.515","city":"Saratov","latitude":"52.24N","longitude":"47.30E"}
{"date":"2011-10-01","average_temperature":"16.878","city":"Sari","latitude":"36.17N","longitude":"53.70E"}
{"date":"2012-06-01","average_temperature":"26.087","city":"Sari","latitude":"36.17N","longitude":"53.70E"}
{"date":"2012-08-01","average_temperature":"28.851999999999997","city":"Sari","latitude":"36.17N","longitude":"53.70E"}
{"date":"2012-06-01","average_temperature":"15.776","city":"Saskatoon","latitude":"52.24N","longitude":"107.74W"}
{"date":"2012-10-01","average_temperature":"26.311999999999998","city":"Satara","latitude":"16.87N","longitude":"73.67E"}
{"date":"2011-08-01","average_temperature":"21.313","city":"Satu Mare","latitude":"47.42N","longitude":"22.50E"}
{"date":"2012-07-01","average_temperature":"23.373","city":"Semey","latitude":"50.63N","longitude":"79.86E"}
{"date":"2013-03-01","average_temperature":"26.75","city":"Seoni","latitude":"21.70N","longitude":"78.75E"}
{"date":"2012-03-01","average_temperature":"27.691000000000006","city":"Serang","latitude":"5.63S","longitude":"106.55E"}
{"date":"2012-10-01","average_temperature":"24.13","city":"Sete Lagoas","latitude":"20.09S","longitude":"44.36W"}
{"date":"2010-07-01","average_temperature":"25.426","city":"Shagamu","latitude":"7.23N","longitude":"4.05E"}
{"date":"2010-04-01","average_temperature":"10.536","city":"Shakhty","latitude":"47.42N","longitude":"39.08E"}
{"date":"2010-12-01","average_temperature":"1.974","city":"Shakhty","latitude":"47.42N","longitude":"39.08E"}
{"date":"2012-05-01","average_temperature":"27.511000000000006","city":"Shaki","latitude":"8.84N","longitude":"4.05E"}
{"date":"2013-06-01","average_temperature":"30.618000000000002","city":"Shantipur","latitude":"23.31N","longitude":"88.25E"}
{"date":"2013-06-01","average_temperature":"26.838","city":"Shashi","latitude":"29.74N","longitude":"112.62E"}
{"date":"2010-12-01","average_temperature":"-1.1570000000000005","city":"Sheffield","latitude":"53.84N","longitude":"1.36W"}
{"date":"2011-03-01","average_temperature":"24.905","city":"Sherpur","latitude":"24.92N","longitude":"90.44E"}
{"date":"2010-05-01","average_temperature":"25.391","city":"Shilong","latitude":"23.31N","longitude":"114.47E"}
{"date":"2012-02-01","average_temperature":"13.718","city":"Shilong","latitude":"23.31N","longitude":"114.47E"}
{"date":"2010-11-01","average_temperature":"25.276","city":"Shimoga","latitude":"13.66N","longitude":"75.14E"}
{"date":"2013-05-01","average_temperature":"18.405","city":"Shimonoseki","latitude":"34.56N","longitude":"130.38E"}
{"date":"2010-04-01","average_temperature":"18.798","city":"Shreveport","latitude":"32.95N","longitude":"92.87W"}
{"date":"2013-09-01","city":"Shrirampur","latitude":"23.31N","longitude":"88.25E"}
{"date":"2010-04-01","average_temperature":"2.8469999999999995","city":"Shuangyashan","latitude":"47.42N","longitude":"131.45E"}
{"date":"2012-06-01","average_temperature":"24.645000000000003","city":"Shunyi","latitude":"39.38N","longitude":"116.53E"}
{"date":"2013-02-01","average_temperature":"27.364","city":"Sidoarjo","latitude":"7.23S","longitude":"112.70E"}
{"date":"2013-04-01","average_temperature":"29.353","city":"Sincelejo","latitude":"8.84N","longitude":"75.41W"}
{"date":"2011-11-01","average_temperature":"27.444000000000003","city":"Singkawang","latitude":"0.80N","longitude":"108.48E"}
{"date":"2012-04-01","average_temperature":"28.0","city":"Singkawang","latitude":"0.80N","longitude":"108.48E"}
{"date":"2012-11-01","average_temperature":"19.417","city":"Sitapur","latitude":"28.13N","longitude":"80.91E"}
{"date":"2011-06-01","average_temperature":"15.177999999999999","city":"Slough","latitude":"52.24N","longitude":"0.00W"}
{"date":"2011-06-01","average_temperature":"18.233","city":"Smolensk","latitude":"55.45N","longitude":"31.18E"}
{"date":"2012-12-01","average_temperature":"7.862","city":"Southampton","latitude":"50.63N","longitude":"1.27W"}
{"date":"2013-07-01","average_temperature":"18.271","city":"Southampton","latitude":"50.63N","longitude":"1.27W"}
{"date":"2011-10-01","average_temperature":"17.85","city":"Soweto","latitude":"26.52S","longitude":"28.66E"}
{"date":"2011-08-01","average_temperature":"27.79","city":"Spanish Town","latitude":"18.48N","longitude":"77.75W"}
{"date":"2010-05-01","average_temperature":"19.168","city":"Springfield","latitude":"39.38N","longitude":"89.48W"}
{"date":"2011-03-01","average_temperature":"6.75","city":"Srinagar","latitude":"34.56N","longitude":"73.95E"}
{"date":"2010-05-01","average_temperature":"17.442999999999998","city":"Stara Zagora","latitude":"42.59N","longitude":"26.18E"}
{"date":"2011-04-01","average_temperature":"13.357999999999999","city":"Stockton","latitude":"37.78N","longitude":"122.03W"}
{"date":"2010-11-01","average_temperature":"5.697","city":"Strasbourg","latitude":"49.03N","longitude":"7.35E"}
{"date":"2011-05-01","average_temperature":"10.535","city":"Sudbury","latitude":"45.81N","longitude":"81.92W"}
{"date":"2013-05-01","average_temperature":"22.488000000000003","city":"Suining","latitude":"29.74N","longitude":"105.23E"}
{"date":"2011-09-01","average_temperature":"26.366","city":"Sukabumi","latitude":"7.23S","longitude":"106.22E"}
{"date":"2010-10-01","average_temperature":"20.377","city":"Sumaré","latitude":"23.31S","longitude":"48.06W"}
{"date":"2010-12-01","average_temperature":"26.092","city":"Sunggal","latitude":"4.02N","longitude":"98.84E"}
{"date":"2010-10-01","average_temperature":"12.237","city":"Swansea","latitude":"52.24N","longitude":"5.26W"}
{"date":"2011-12-01","average_temperature":"3.25","city":"Takasaki","latitude":"36.17N","longitude":"139.23E"}
{"date":"2011-03-01","average_temperature":"6.9849999999999985","city":"Takatsuki","latitude":"34.56N","longitude":"136.22E"}
{"date":"2012-07-01","average_temperature":"22.724","city":"Talara","latitude":"4.02S","longitude":"81.16W"}
{"date":"2011-03-01","average_temperature":"14.913999999999998","city":"Tali","latitude":"24.92N","longitude":"120.59E"}
{"date":"2013-01-01","average_temperature":"26.49","city":"Taman","latitude":"7.23S","longitude":"109.46E"}
{"date":"2010-11-01","average_temperature":"-3.4189999999999996","city":"Tampere","latitude":"61.88N","longitude":"22.08E"}
{"date":"2011-02-01","average_temperature":"-11.402","city":"Tampere","latitude":"61.88N","longitude":"22.08E"}
{"date":"2012-02-01","average_temperature":"27.287","city":"Tangerang","latitude":"5.63S","longitude":"106.55E"}
{"date":"2011-10-01","average_temperature":"13.681","city":"Tanggu","latitude":"39.38N","longitude":"118.61E"}
{"date":"2011-10-01","average_temperature":"13.478","city":"Tangshan","latitude":"37.78N","longitude":"113.90E"}
{"date":"2013-07-01","average_temperature":"25.448","city":"Tapachula","latitude":"15.27N","longitude":"92.50W"}
{"date":"2010-07-01","average_temperature":"25.434","city":"Tarragona","latitude":"40.99N","longitude":"2.13E"}
{"date":"2011-03-01","average_temperature":"-2.008","city":"Tartu","latitude":"58.66N","longitude":"27.69E"}
{"date":"2013-08-01","average_temperature":"17.471","city":"Tartu","latitude":"58.66N","longitude":"27.69E"}
{"date":"2010-11-01","average_temperature":"15.217","city":"Tauranga","latitude":"37.78S","longitude":"176.95E"}
{"date":"2012-09-01","average_temperature":"26.989","city":"Tawau","latitude":"4.02N","longitude":"118.13E"}
{"date":"2010-05-01","average_temperature":"13.849","city":"Tbilisi","latitude":"40.99N","longitude":"44.73E"}
{"date":"2013-06-01","average_temperature":"26.935","city":"Tegal","latitude":"7.23S","longitude":"109.46E"}
{"date":"2011-05-01","average_temperature":"23.897","city":"Tehuacán","latitude":"18.48N","longitude":"98.03W"}
{"date":"2013-02-01","average_temperature":"15.173","city":"Tel Aviv Yafo","latitude":"31.35N","longitude":"33.93E"}
{"date":"2011-03-01","average_temperature":"23.162","city":"Teresópolis","latitude":"21.70S","longitude":"42.40W"}
{"date":"2013-03-01","average_temperature":"24.214000000000002","city":"Teresópolis","latitude":"21.70S","longitude":"42.40W"}
{"date":"2010-06-01","average_temperature":"19.715","city":"Terni","latitude":"42.59N","longitude":"13.09E"}
{"date":"2012-01-01","average_temperature":"3.618","city":"Terni","latitude":"42.59N","longitude":"13.09E"}
{"date":"2011-08-01","average_temperature":"25.326","city":"Terrassa","latitude":"40.99N","longitude":"2.13E"}
{"date":"2010-03-01","average_temperature":"29.246","city":"Teshie","latitude":"5.63N","longitude":"0.00W"}
{"date":"2013-01-01","average_temperature":"26.558000000000003","city":"Tete","latitude":"16.87S","longitude":"33.49E"}
{"date":"2013-08-01","average_temperature":"17.881999999999994","city":"Texcoco","latitude":"20.09N","longitude":"98.96W"}
{"date":"2012-07-01","average_temperature":"27.616999999999997","city":"Thái Nguyên","latitude":"21.70N","longitude":"106.44E"}
{"date":"2011-03-01","average_temperature":"-0.42","city":"Tomakomai","latitude":"42.59N","longitude":"141.82E"}
{"date":"2012-09-01","average_temperature":"17.372","city":"Tongliao","latitude":"44.20N","longitude":"122.98E"}
{"date":"2010-03-01","average_temperature":"12.437000000000001","city":"Torrance","latitude":"34.56N","longitude":"118.70W"}
{"date":"2013-06-01","average_temperature":"22.756","city":"Townsville","latitude":"18.48S","longitude":"147.04E"}
{"date":"2013-08-01","average_temperature":"21.686","city":"Townsville","latitude":"18.48S","longitude":"147.04E"}
{"date":"2012-09-01","average_temperature":"24.467","city":"Toyonaka","latitude":"34.56N","longitude":"136.22E"}
{"date":"2010-07-01","average_temperature":"23.955","city":"Trieste","latitude":"45.81N","longitude":"12.69E"}
{"date":"2012-11-01","average_temperature":"-0.448","city":"Trois Rivières","latitude":"45.81N","longitude":"72.69W"}
{"date":"2011-03-01","average_temperature":"-3.628","city":"Tula","latitude":"53.84N","longitude":"36.82E"}
{"date":"2013-09-01","average_temperature":"18.313","city":"Tulancingo","latitude":"20.09N","longitude":"98.96W"}
{"date":"2012-11-01","average_temperature":"17.904","city":"Tunis","latitude":"36.17N","longitude":"9.94E"}
{"date":"2013-01-01","average_temperature":"4.795","city":"Turhal","latitude":"40.99N","longitude":"36.21E"}
{"date":"2010-06-01","average_temperature":"15.331","city":"Turin","latitude":"45.81N","longitude":"8.08E"}
{"date":"2010-08-01","average_temperature":"26.381999999999998","city":"Ugep","latitude":"5.63N","longitude":"8.07E"}
{"date":"2013-01-01","average_temperature":"3.917","city":"Uji","latitude":"34.56N","longitude":"136.22E"}
{"date":"2010-02-01","average_temperature":"21.396","city":"Ujjain","latitude":"23.31N","longitude":"76.02E"}
{"date":"2010-05-01","average_temperature":"31.308000000000003","city":"Ulubaria","latitude":"23.31N","longitude":"88.25E"}
{"date":"2011-02-01","average_temperature":"22.566","city":"Ulubaria","latitude":"23.31N","longitude":"88.25E"}
{"date":"2011-08-01","average_temperature":"18.602","city":"Ulyanovsk","latitude":"53.84N","longitude":"47.73E"}
{"date":"2010-01-01","average_temperature":"28.413","city":"Umuahia","latitude":"5.63N","longitude":"8.07E"}
{"date":"2013-03-01","average_temperature":"-5.284000000000002","city":"Uppsala","latitude":"60.27N","longitude":"16.22E"}
{"date":"2012-12-01","average_temperature":"26.58","city":"Urdaneta","latitude":"15.27N","longitude":"120.83E"}
{"date":"2013-02-01","average_temperature":"25.354","city":"Uruguaiana","latitude":"29.74S","longitude":"57.23W"}
{"date":"2011-07-01","average_temperature":"17.515","city":"Ust Ilimsk","latitude":"58.66N","longitude":"101.54E"}
{"date":"2012-10-01","average_temperature":"-2.3880000000000003","city":"Ust Ilimsk","latitude":"58.66N","longitude":"101.54E"}
{"date":"2012-01-01","average_temperature":"21.646","city":"Uvira","latitude":"4.02S","longitude":"29.73E"}
{"date":"2013-06-01","average_temperature":"21.117","city":"Uvira","latitude":"4.02S","longitude":"29.73E"}
{"date":"2012-12-01","average_temperature":"25.643","city":"Valencia","latitude":"10.45N","longitude":"67.91W"}
{"date":"2010-09-01","average_temperature":"19.488","city":"Vanadzor","latitude":"40.99N","longitude":"44.73E"}
{"date":"2010-12-01","average_temperature":"2.865","city":"Vanadzor","latitude":"40.99N","longitude":"44.73E"}
{"date":"2012-12-01","average_temperature":"-8.315999999999999","city":"Velikie Luki","latitude":"57.05N","longitude":"30.98E"}
{"date":"2010-03-01","average_temperature":"6.96","city":"Venice","latitude":"45.81N","longitude":"12.69E"}
{"date":"2011-07-01","average_temperature":"28.761000000000006","city":"Veraval","latitude":"21.70N","longitude":"70.10E"}
{"date":"2013-01-01","average_temperature":"20.673","city":"Vereeniging","latitude":"26.52S","longitude":"28.66E"}
{"date":"2010-05-01","average_temperature":"13.53","city":"Verona","latitude":"45.81N","longitude":"10.38E"}
{"date":"2012-03-01","average_temperature":"26.072","city":"Vidisha","latitude":"23.31N","longitude":"77.77E"}
{"date":"2011-06-01","average_temperature":"17.429000000000002","city":"Vigo","latitude":"42.59N","longitude":"8.73W"}
{"date":"2011-03-01","average_temperature":"25.17","city":"Villavicencio","latitude":"4.02N","longitude":"73.13W"}
{"date":"2010-05-01","average_temperature":"31.918000000000003","city":"Virar","latitude":"20.09N","longitude":"73.36E"}
{"date":"2013-07-01","average_temperature":"11.418","city":"Virginia","latitude":"28.13S","longitude":"26.36E"}
{"date":"2013-04-01","average_temperature":"23.621","city":"Vitória","latitude":"20.09S","longitude":"40.95W"}
{"date":"2011-07-01","average_temperature":"18.611","city":"Vitória Da Conquista","latitude":"15.27S","longitude":"40.83W"}
{"date":"2011-10-01","average_temperature":"9.357999999999999","city":"Volgodonsk","latitude":"47.42N","longitude":"41.45E"}
{"date":"2010-09-01","average_temperature":"20.166","city":"Volta Redonda","latitude":"21.70S","longitude":"44.13W"}
{"date":"2010-07-01","average_temperature":"28.737","city":"Wad Madani","latitude":"13.66N","longitude":"33.85E"}
{"date":"2010-04-01","average_temperature":"21.217","city":"Wah","latitude":"34.56N","longitude":"72.00E"}
{"date":"2012-11-01","average_temperature":"6.351","city":"Walsall","latitude":"52.24N","longitude":"2.63W"}
{"date":"2011-05-01","average_temperature":"19.117","city":"Washington","latitude":"39.38N","longitude":"76.99W"}
{"date":"2010-02-01","average_temperature":"9.619","city":"Wenzhou","latitude":"28.13N","longitude":"120.91E"}
{"date":"2011-02-01","average_temperature":"6.5440000000000005","city":"West Bromwich","latitude":"52.24N","longitude":"2.63W"}
{"date":"2013-06-01","average_temperature":"14.169","city":"West Bromwich","latitude":"52.24N","longitude":"2.63W"}
{"date":"2012-05-01","average_temperature":"14.829","city":"Westminster","latitude":"39.38N","longitude":"104.05W"}
{"date":"2010-08-01","average_temperature":"16.811999999999998","city":"Wiesbaden","latitude":"50.63N","longitude":"8.87E"}
{"date":"2011-07-01","average_temperature":"15.634","city":"Worcester","latitude":"52.24N","longitude":"2.63W"}
{"date":"2010-09-01","average_temperature":"11.857999999999999","city":"Wroclaw","latitude":"50.63N","longitude":"16.48E"}
{"date":"2012-01-01","average_temperature":"-0.06499999999999995","city":"Wroclaw","latitude":"50.63N","longitude":"16.48E"}
{"date":"2012-12-01","average_temperature":"-8.271999999999998","city":"Wuda","latitude":"39.38N","longitude":"106.13E"}
{"date":"2010-07-01","average_temperature":"27.965","city":"Wuning","latitude":"29.74N","longitude":"120.00E"}
{"date":"2012-03-01","average_temperature":"6.43","city":"Xian","latitude":"34.56N","longitude":"108.97E"}
{"date":"2011-10-01","average_temperature":"18.204","city":"Xiangdong","latitude":"28.13N","longitude":"113.64E"}
{"date":"2013-02-01","average_temperature":"3.3989999999999996","city":"Xiazhen","latitude":"34.56N","longitude":"116.76E"}
{"date":"2012-10-01","average_temperature":"16.844","city":"Xico","latitude":"20.09N","longitude":"98.96W"}
{"date":"2011-09-01","average_temperature":"19.894000000000002","city":"Xinyang","latitude":"32.95N","longitude":"113.94E"}
{"date":"2011-02-01","average_temperature":"-2.342","city":"Xinzhou","latitude":"37.78N","longitude":"111.86E"}
{"date":"2012-10-01","average_temperature":"7.221","city":"Xuanhua","latitude":"40.99N","longitude":"115.03E"}
{"date":"2010-10-01","average_temperature":"16.916999999999998","city":"Xuanzhou","latitude":"31.35N","longitude":"118.74E"}
{"date":"2013-07-01","average_temperature":"25.283","city":"Yamoussoukro","latitude":"7.23N","longitude":"5.68W"}
{"date":"2012-05-01","average_temperature":"27.334","city":"Yangjiang","latitude":"21.70N","longitude":"111.63E"}
{"date":"2013-06-01","average_temperature":"28.014","city":"Yangjiang","latitude":"21.70N","longitude":"111.63E"}
{"date":"2013-07-01","average_temperature":"20.827","city":"Yanji","latitude":"42.59N","longitude":"128.73E"}
{"date":"2011-06-01","average_temperature":"18.738","city":"Yantai","latitude":"37.78N","longitude":"122.03E"}
{"date":"2013-06-01","average_temperature":"18.526","city":"Yaroslavl","latitude":"57.05N","longitude":"39.84E"}
{"date":"2013-02-01","average_temperature":"7.7589999999999995","city":"Yiyang","latitude":"28.13N","longitude":"111.82E"}
{"date":"2011-01-01","average_temperature":"25.964","city":"Yogyakarta","latitude":"7.23S","longitude":"111.08E"}
{"date":"2010-08-01","average_temperature":"28.454","city":"Yokkaichi","latitude":"34.56N","longitude":"136.22E"}
{"date":"2011-03-01","average_temperature":"17.069000000000006","city":"Yungkang","latitude":"23.31N","longitude":"121.46E"}
{"date":"2013-05-01","average_temperature":"15.307","city":"Yushu","latitude":"44.20N","longitude":"127.45E"}
{"date":"2011-09-01","average_temperature":"15.770999999999999","city":"Zabrze","latitude":"50.63N","longitude":"19.01E"}
{"date":"2013-02-01","average_temperature":"-0.379","city":"Zabrze","latitude":"50.63N","longitude":"19.01E"}
{"date":"2010-08-01","average_temperature":"20.798000000000002","city":"Zamora","latitude":"20.09N","longitude":"102.37W"}
{"date":"2010-11-01","average_temperature":"13.275","city":"Zaoyang","latitude":"31.35N","longitude":"113.09E"}
{"date":"2013-09-01","average_temperature":"23.646","city":"Zapopan","latitude":"20.09N","longitude":"104.08W"}
{"date":"2011-11-01","average_temperature":"9.12","city":"Zhangdian","latitude":"36.17N","longitude":"117.35E"}
{"date":"2012-04-01","average_temperature":"21.171999999999997","city":"Zhangzhou","latitude":"24.92N","longitude":"117.04E"}
{"date":"2010-07-01","average_temperature":"26.924000000000003","city":"Zhicheng","latitude":"29.74N","longitude":"110.77E"}
{"date":"2013-04-01","average_temperature":"21.968000000000004","city":"Zhuhai","latitude":"21.70N","longitude":"113.37E"}
{"date":"2012-02-01","average_temperature":"-12.533","city":"Zhukovskiy","latitude":"55.45N","longitude":"36.85E"}
{"date":"2013-09-01","city":"Ziguinchor","latitude":"12.05N","longitude":"16.44W"}
{"date":"2013-01-01","average_temperature":"-14.482000000000001","city":"Zlatoust","latitude":"55.45N","longitude":"59.53E"}
{"date":"2010-02-01","average_temperature":"2.306","city":"Zouxian","latitude":"36.17N","longitude":"117.35E"}
