{"date":"2010-04-01","average_temperature":"7.122999999999998","city":"Århus","latitude":"57.05N","longitude":"10.33E"}
{"date":"2010-04-01","average_temperature":"1.5510000000000002","city":"Öskemen","latitude":"50.63N","longitude":"82.39E"}
{"date":"2010-06-01","average_temperature":"17.538999999999998","city":"Öskemen","latitude":"50.63N","longitude":"82.39E"}
{"date":"2013-08-01","average_temperature":"20.348","city":"A Coruña","latitude":"42.59N","longitude":"8.73W"}
{"date":"2011-04-01","average_temperature":"12.726","city":"Aachen","latitude":"50.63N","longitude":"6.34E"}
{"date":"2012-07-01","average_temperature":"25.949","city":"Aba","latitude":"5.63N","longitude":"8.07E"}
{"date":"2011-05-01","average_temperature":"8.908000000000003","city":"Abbotsford","latitude":"49.03N","longitude":"122.45W"}
{"date":"2011-12-01","average_temperature":"26.711","city":"Abengourou","latitude":"7.23N","longitude":"4.05W"}
{"date":"2010-04-01","average_temperature":"30.044","city":"Abomey Calavi","latitude":"7.23N","longitude":"2.43E"}
{"date":"2011-10-01","average_temperature":"29.917","city":"Abu Dhabi","latitude":"24.92N","longitude":"54.98E"}
{"date":"2010-06-01","average_temperature":"28.44","city":"Acapulco","latitude":"16.87N","longitude":"100.47W"}
{"date":"2010-09-01","average_temperature":"27.596999999999998","city":"Acarigua","latitude":"8.84N","longitude":"68.92W"}
{"date":"2012-09-01","average_temperature":"28.816000000000006","city":"Agartala","latitude":"23.31N","longitude":"91.75E"}
{"date":"2012-10-01","average_temperature":"26.1","city":"Agra","latitude":"26.52N","longitude":"78.81E"}
{"date":"2012-03-01","average_temperature":"26.512","city":"Ahmadabad","latitude":"23.31N","longitude":"72.52E"}
{"date":"2011-11-01","average_temperature":"23.118000000000002","city":"Ahmadpur East","latitude":"29.74N","longitude":"72.00E"}
{"date":"2012-03-01","average_temperature":"17.489","city":"Ahvaz","latitude":"31.35N","longitude":"49.01E"}
{"date":"2012-03-01","average_temperature":"10.352","city":"Aix En Provence","latitude":"44.20N","longitude":"4.47E"}
{"date":"2011-12-01","average_temperature":"17.523000000000003","city":"Ajmer","latitude":"26.52N","longitude":"75.22E"}
{"date":"2010-02-01","average_temperature":"26.685","city":"Alandur","latitude":"13.66N","longitude":"80.09E"}
{"date":"2013-08-01","average_temperature":"22.599","city":"Alcalá De Henares","latitude":"40.99N","longitude":"4.26W"}
{"date":"2010-03-01","average_temperature":"6.715","city":"Allentown","latitude":"40.99N","longitude":"74.56W"}
{"date":"2010-01-01","average_temperature":"4.745","city":"Amagasaki","latitude":"34.56N","longitude":"136.22E"}
{"date":"2011-08-01","average_temperature":"28.226","city":"Ambur","latitude":"12.05N","longitude":"78.90E"}
{"date":"2013-05-01","average_temperature":"35.341","city":"Amravati","latitude":"21.70N","longitude":"77.02E"}
{"date":"2012-11-01","average_temperature":"27.996","city":"Anaco","latitude":"8.84N","longitude":"64.05W"}
{"date":"2011-09-01","average_temperature":"14.499","city":"Anda","latitude":"45.81N","longitude":"125.77E"}
{"date":"2012-11-01","average_temperature":"3.654","city":"Angren","latitude":"40.99N","longitude":"70.30E"}
{"date":"2010-08-01","average_temperature":"26.044","city":"Ankara","latitude":"39.38N","longitude":"33.29E"}
{"date":"2013-03-01","average_temperature":"6.3610000000000015","city":"Anqiu","latitude":"36.17N","longitude":"119.34E"}
{"date":"2013-01-01","average_temperature":"25.357","city":"Apopa","latitude":"13.66N","longitude":"90.00W"}
{"date":"2010-03-01","average_temperature":"-5.751","city":"Aqtöbe","latitude":"50.63N","longitude":"57.04E"}
{"date":"2012-10-01","average_temperature":"25.723000000000003","city":"Araras","latitude":"21.70S","longitude":"47.60W"}
{"date":"2012-03-01","average_temperature":"20.891","city":"Araucária","latitude":"24.92S","longitude":"49.66W"}
{"date":"2012-07-01","average_temperature":"14.093","city":"Araucária","latitude":"24.92S","longitude":"49.66W"}
{"date":"2010-12-01","average_temperature":"-8.701","city":"Arzamas","latitude":"55.45N","longitude":"42.52E"}
{"date":"2010-12-01","average_temperature":"5.959","city":"Asgabat","latitude":"37.78N","longitude":"58.98E"}
{"date":"2011-01-01","average_temperature":"0.8170000000000001","city":"Ashikaga","latitude":"36.17N","longitude":"139.23E"}
{"date":"2010-12-01","average_temperature":"1.399","city":"Atlanta","latitude":"34.56N","longitude":"83.68W"}
{"date":"2012-01-01","average_temperature":"-3.04","city":"Augsburg","latitude":"47.42N","longitude":"10.66E"}
{"date":"2013-06-01","average_temperature":"21.622000000000003","city":"Aurora","latitude":"40.99N","longitude":"87.34W"}
{"date":"2012-05-01","average_temperature":"26.744","city":"Bénin","latitude":"7.23N","longitude":"5.68E"}
{"date":"2012-07-01","average_temperature":"28.691999999999997","city":"Bac Lieu","latitude":"8.84N","longitude":"106.22E"}
{"date":"2012-12-01","average_temperature":"-0.6609999999999999","city":"Baglan","latitude":"36.17N","longitude":"69.61E"}
{"date":"2012-07-01","average_temperature":"26.674","city":"Bago","latitude":"16.87N","longitude":"97.12E"}
{"date":"2011-05-01","average_temperature":"35.332","city":"Bahawalpur","latitude":"29.74N","longitude":"72.00E"}
{"date":"2012-08-01","average_temperature":"10.84","city":"Bahia Blanca","latitude":"39.38S","longitude":"62.43W"}
{"date":"2013-09-01","city":"Baiyin","latitude":"36.17N","longitude":"103.43E"}
{"date":"2012-03-01","average_temperature":"-5.853999999999999","city":"Balakovo","latitude":"52.24N","longitude":"47.30E"}
{"date":"2011-10-01","average_temperature":"5.926","city":"Balashikha","latitude":"55.45N","longitude":"36.85E"}
{"date":"2011-09-01","average_temperature":"28.945","city":"Ballia","latitude":"26.52N","longitude":"84.18E"}
{"date":"2013-08-01","average_temperature":"26.998","city":"Bandar Penggaram","latitude":"2.41N","longitude":"103.66E"}
{"date":"2011-05-01","average_temperature":"25.661","city":"Bandung","latitude":"7.23S","longitude":"107.84E"}
{"date":"2012-02-01","average_temperature":"25.362","city":"Banjaran","latitude":"7.23S","longitude":"107.84E"}
{"date":"2012-01-01","average_temperature":"-9.537","city":"Baoding","latitude":"39.38N","longitude":"114.45E"}
{"date":"2011-07-01","average_temperature":"23.793000000000006","city":"Baoshan","latitude":"47.42N","longitude":"131.45E"}
{"date":"2010-08-01","average_temperature":"26.04","city":"Barquisimeto","latitude":"10.45N","longitude":"69.55W"}
{"date":"2011-10-01","average_temperature":"25.574","city":"Barquisimeto","latitude":"10.45N","longitude":"69.55W"}
{"date":"2012-09-01","average_temperature":"26.498","city":"Barrancabermeja","latitude":"7.23N","longitude":"73.78W"}
{"date":"2010-11-01","average_temperature":"23.427","city":"Barretos","latitude":"20.09S","longitude":"47.77W"}
{"date":"2013-08-01","average_temperature":"26.141","city":"Baruta","latitude":"10.45N","longitude":"66.27W"}
{"date":"2011-07-01","average_temperature":"29.473000000000003","city":"Basirhat","latitude":"23.31N","longitude":"88.25E"}
{"date":"2012-11-01","average_temperature":"27.311","city":"Bauchi","latitude":"10.45N","longitude":"10.64E"}
{"date":"2013-05-01","average_temperature":"22.081999999999997","city":"Bayrut","latitude":"34.56N","longitude":"35.03E"}
{"date":"2013-07-01","average_temperature":"30.19","city":"Begusarai","latitude":"24.92N","longitude":"86.90E"}
{"date":"2013-02-01","average_temperature":"18.04","city":"Beihai","latitude":"21.70N","longitude":"109.90E"}
{"date":"2012-08-01","average_temperature":"24.214","city":"Beipiao","latitude":"40.99N","longitude":"121.42E"}
{"date":"2013-06-01","average_temperature":"25.423000000000002","city":"Bengbu","latitude":"32.95N","longitude":"117.77E"}
{"date":"2013-04-01","average_temperature":"21.146","city":"Benha","latitude":"29.74N","longitude":"31.38E"}
{"date":"2011-06-01","average_temperature":"20.243","city":"Benxi","latitude":"40.99N","longitude":"123.55E"}
{"date":"2012-01-01","average_temperature":"23.548","city":"Berbera","latitude":"10.45N","longitude":"45.00E"}
{"date":"2010-12-01","average_temperature":"-15.084000000000001","city":"Berezniki","latitude":"58.66N","longitude":"55.38E"}
{"date":"2012-09-01","average_temperature":"13.822","city":"Bergisch Gladbach","latitude":"50.63N","longitude":"6.34E"}
{"date":"2013-04-01","average_temperature":"15.995999999999999","city":"Berkeley","latitude":"37.78N","longitude":"122.03W"}
{"date":"2010-01-01","average_temperature":"-4.702","city":"Berlin","latitude":"52.24N","longitude":"13.14E"}
{"date":"2011-12-01","average_temperature":"4.112","city":"Besançon","latitude":"47.42N","longitude":"5.92E"}
{"date":"2010-02-01","average_temperature":"25.032000000000004","city":"Betim","latitude":"20.09S","longitude":"44.36W"}
{"date":"2012-12-01","average_temperature":"24.761999999999997","city":"Betim","latitude":"20.09S","longitude":"44.36W"}
{"date":"2013-09-01","city":"Bhadravati","latitude":"13.66N","longitude":"75.14E"}
{"date":"2011-02-01","average_temperature":"22.566","city":"Bhadreswar","latitude":"23.31N","longitude":"88.25E"}
{"date":"2013-02-01","average_temperature":"21.982","city":"Bhadreswar","latitude":"23.31N","longitude":"88.25E"}
{"date":"2013-06-01","average_temperature":"29.404","city":"Bhairab Bazar","latitude":"24.92N","longitude":"90.44E"}
{"date":"2013-05-01","average_temperature":"32.617000000000004","city":"Bhavnagar","latitude":"21.70N","longitude":"71.83E"}
{"date":"2010-03-01","average_temperature":"28.366","city":"Bhilwara","latitude":"24.92N","longitude":"74.48E"}
{"date":"2012-05-01","average_temperature":"35.093999999999994","city":"Bhind","latitude":"26.52N","longitude":"78.81E"}
{"date":"2010-09-01","average_temperature":"28.816999999999997","city":"Bhuj","latitude":"23.31N","longitude":"69.03E"}
{"date":"2012-03-01","average_temperature":"28.596999999999998","city":"Bid","latitude":"18.48N","longitude":"76.06E"}
{"date":"2013-07-01","average_temperature":"30.313000000000002","city":"Bihar","latitude":"24.92N","longitude":"85.12E"}
{"date":"2010-09-01","average_temperature":"21.482","city":"Binzhou","latitude":"37.78N","longitude":"117.97E"}
{"date":"2011-11-01","average_temperature":"13.354","city":"Birmingham","latitude":"32.95N","longitude":"87.13W"}
{"date":"2012-01-01","average_temperature":"22.52","city":"Bisho","latitude":"32.95S","longitude":"27.77E"}
{"date":"2013-01-01","average_temperature":"6.1370000000000005","city":"Blackpool","latitude":"53.84N","longitude":"4.09W"}
{"date":"2011-02-01","average_temperature":"24.035999999999998","city":"Blantyre","latitude":"15.27S","longitude":"35.83E"}
{"date":"2012-08-01","average_temperature":"20.773000000000003","city":"Blantyre","latitude":"15.27S","longitude":"35.83E"}
{"date":"2012-09-01","average_temperature":"28.776","city":"Boa Vista","latitude":"2.41N","longitude":"60.27W"}
{"date":"2011-05-01","average_temperature":"14.472","city":"Bochum","latitude":"52.24N","longitude":"7.88E"}
{"date":"2010-02-01","average_temperature":"31.019000000000002","city":"Bohicon","latitude":"7.23N","longitude":"2.43E"}
{"date":"2011-04-01","average_temperature":"29.045","city":"Bokaro","latitude":"23.31N","longitude":"86.50E"}
{"date":"2012-01-01","average_temperature":"17.918","city":"Bokaro","latitude":"23.31N","longitude":"86.50E"}
{"date":"2011-02-01","average_temperature":"5.774","city":"Bolton","latitude":"53.84N","longitude":"1.36W"}
{"date":"2010-11-01","average_temperature":"8.875","city":"Boshan","latitude":"36.17N","longitude":"117.35E"}
{"date":"2010-05-01","average_temperature":"27.67","city":"Bouaké","latitude":"7.23N","longitude":"5.68W"}
{"date":"2011-04-01","average_temperature":"11.977","city":"Bournemouth","latitude":"50.63N","longitude":"1.27W"}
{"date":"2012-06-01","average_temperature":"20.921999999999997","city":"Bratislava","latitude":"47.42N","longitude":"17.76E"}
{"date":"2010-11-01","average_temperature":"27.24","city":"Brebes","latitude":"7.23S","longitude":"109.46E"}
{"date":"2011-05-01","average_temperature":"13.709000000000001","city":"Bremerhaven","latitude":"53.84N","longitude":"9.55E"}
{"date":"2012-03-01","average_temperature":"3.668","city":"Brest","latitude":"52.24N","longitude":"23.65E"}
{"date":"2012-03-01","average_temperature":"10.222999999999999","city":"Brest","latitude":"49.03N","longitude":"4.90W"}
{"date":"2013-01-01","average_temperature":"17.503999999999998","city":"Brownsville","latitude":"26.52N","longitude":"96.72W"}
{"date":"2010-06-01","average_temperature":"17.357","city":"Brugge","latitude":"50.63N","longitude":"3.80E"}
{"date":"2010-09-01","average_temperature":"22.468000000000004","city":"Buga","latitude":"4.02N","longitude":"76.34W"}
{"date":"2012-10-01","average_temperature":"15.865","city":"Bursa","latitude":"39.38N","longitude":"29.13E"}
{"date":"2012-12-01","average_temperature":"4.207999999999998","city":"Bursa","latitude":"39.38N","longitude":"29.13E"}
{"date":"2012-08-01","average_temperature":"27.456","city":"Butuan","latitude":"8.84N","longitude":"125.68E"}
{"date":"2010-05-01","average_temperature":"14.602","city":"Buzau","latitude":"45.81N","longitude":"26.54E"}
{"date":"2010-11-01","average_temperature":"8.224","city":"Buzau","latitude":"45.81N","longitude":"26.54E"}
{"date":"2012-07-01","average_temperature":"20.352","city":"Bytom","latitude":"50.63N","longitude":"19.01E"}
{"date":"2011-09-01","average_temperature":"26.318","city":"Cúa","latitude":"10.45N","longitude":"66.27W"}
{"date":"2012-11-01","average_temperature":"24.796000000000006","city":"Cachoeiro De Itapemirim","latitude":"20.09S","longitude":"40.95W"}
{"date":"2010-07-01","average_temperature":"27.027","city":"Cagua","latitude":"10.45N","longitude":"67.91W"}
{"date":"2011-09-01","average_temperature":"24.781","city":"Camaçari","latitude":"12.05S","longitude":"37.81W"}
{"date":"2013-01-01","average_temperature":"26.979","city":"Can Tho","latitude":"10.45N","longitude":"105.55E"}
{"date":"2012-11-01","average_temperature":"22.729000000000006","city":"Canoas","latitude":"29.74S","longitude":"51.69W"}
{"date":"2010-03-01","average_temperature":"24.983","city":"Cap Haïtien","latitude":"20.09N","longitude":"71.66W"}
{"date":"2010-08-01","average_temperature":"28.581999999999997","city":"Carmen","latitude":"18.48N","longitude":"91.27W"}
{"date":"2011-11-01","average_temperature":"22.423","city":"Cascavel","latitude":"24.92S","longitude":"53.20W"}
{"date":"2012-08-01","average_temperature":"20.21","city":"Cascavel","latitude":"24.92S","longitude":"53.20W"}
{"date":"2012-08-01","average_temperature":"22.463","city":"Catanduva","latitude":"21.70S","longitude":"49.33W"}
{"date":"2013-02-01","average_temperature":"28.521","city":"Caucaia","latitude":"4.02S","longitude":"39.38W"}
{"date":"2010-02-01","average_temperature":"22.959","city":"Champdani","latitude":"23.31N","longitude":"88.25E"}
{"date":"2011-08-01","average_temperature":"27.482","city":"Charlotte","latitude":"34.56N","longitude":"81.73W"}
{"date":"2012-07-01","average_temperature":"28.338","city":"Charlotte","latitude":"34.56N","longitude":"81.73W"}
{"date":"2013-02-01","average_temperature":"21.352","city":"Chas","latitude":"23.31N","longitude":"86.50E"}
{"date":"2010-10-01","average_temperature":"16.441","city":"Chattanooga","latitude":"34.56N","longitude":"85.62W"}
{"date":"2012-06-01","average_temperature":"19.373","city":"Cheboksary","latitude":"55.45N","longitude":"48.19E"}
{"date":"2010-12-01","average_temperature":"-14.075","city":"Chelyabinsk","latitude":"55.45N","longitude":"62.36E"}
{"date":"2011-12-01","average_temperature":"3.38","city":"Chemnitz","latitude":"50.63N","longitude":"13.94E"}
{"date":"2010-12-01","average_temperature":"8.448","city":"Chenzhou","latitude":"26.52N","longitude":"112.84E"}
{"date":"2011-10-01","average_temperature":"26.06","city":"Chhindwara","latitude":"21.70N","longitude":"78.75E"}
{"date":"2011-04-01","average_temperature":"20.594","city":"Chihuahua","latitude":"28.13N","longitude":"106.36W"}
{"date":"2012-08-01","average_temperature":"17.764","city":"Chimalhuacán","latitude":"20.09N","longitude":"98.96W"}
{"date":"2010-01-01","average_temperature":"26.52","city":"Chimoio","latitude":"18.48S","longitude":"33.80E"}
{"date":"2010-08-01","average_temperature":"31.18","city":"Chiniot","latitude":"31.35N","longitude":"73.51E"}
{"date":"2011-10-01","average_temperature":"17.234","city":"Chizhou","latitude":"31.35N","longitude":"116.86E"}
{"date":"2012-10-01","average_temperature":"17.830000000000005","city":"Chizhou","latitude":"31.35N","longitude":"116.86E"}
{"date":"2011-06-01","average_temperature":"21.085","city":"Chofu","latitude":"36.17N","longitude":"139.23E"}
{"date":"2010-08-01","average_temperature":"13.666","city":"Chosica","latitude":"12.05S","longitude":"77.26W"}
{"date":"2012-05-01","average_temperature":"17.942","city":"Chosica","latitude":"12.05S","longitude":"77.26W"}
{"date":"2011-06-01","average_temperature":"8.591000000000001","city":"Christchurch","latitude":"44.20S","longitude":"172.17E"}
{"date":"2010-10-01","average_temperature":"23.38","city":"Chungho","latitude":"24.92N","longitude":"120.59E"}
{"date":"2013-01-01","average_temperature":"25.293000000000003","city":"Cienfuegos","latitude":"21.70N","longitude":"80.48W"}
{"date":"2010-05-01","average_temperature":"28.49","city":"Cikarang","latitude":"5.63S","longitude":"106.55E"}
{"date":"2011-06-01","average_temperature":"26.753","city":"Cisaat","latitude":"7.23S","longitude":"106.22E"}
{"date":"2010-11-01","average_temperature":"26.879","city":"Cisarua","latitude":"5.63S","longitude":"106.55E"}
{"date":"2013-09-01","city":"Coimbra","latitude":"40.99N","longitude":"8.52W"}
{"date":"2011-02-01","average_temperature":"3.556","city":"Cologne","latitude":"50.63N","longitude":"6.34E"}
{"date":"2012-07-01","average_temperature":"28.338","city":"Columbia","latitude":"34.56N","longitude":"81.73W"}
{"date":"2012-08-01","average_temperature":"28.608","city":"Coral Springs","latitude":"26.52N","longitude":"80.60W"}
{"date":"2011-06-01","average_temperature":"23.695","city":"Cuautla","latitude":"18.48N","longitude":"99.72W"}
{"date":"2011-10-01","average_temperature":"20.55","city":"Cubatão","latitude":"23.31S","longitude":"46.31W"}
{"date":"2010-07-01","average_temperature":"22.986","city":"Cuiabá","latitude":"15.27S","longitude":"55.83W"}
{"date":"2012-05-01","average_temperature":"28.566","city":"Culiacán","latitude":"24.92N","longitude":"108.18W"}
{"date":"2011-09-01","average_temperature":"27.881","city":"Cumaná","latitude":"10.45N","longitude":"64.64W"}
{"date":"2012-07-01","average_temperature":"27.75","city":"Dadiangas","latitude":"5.63N","longitude":"125.92E"}
{"date":"2010-09-01","average_temperature":"27.627","city":"Daliang","latitude":"23.31N","longitude":"112.72E"}
{"date":"2012-03-01","average_temperature":"27.818","city":"Daloa","latitude":"7.23N","longitude":"5.68W"}
{"date":"2010-12-01","average_temperature":"14.427999999999999","city":"Damascus","latitude":"32.95N","longitude":"35.43E"}
{"date":"2012-10-01","average_temperature":"27.403000000000002","city":"Damaturu","latitude":"12.05N","longitude":"11.51E"}
{"date":"2011-10-01","average_temperature":"12.452","city":"Dandong","latitude":"39.38N","longitude":"124.86E"}
{"date":"2012-11-01","average_temperature":"19.261","city":"Darjiling","latitude":"26.52N","longitude":"87.76E"}
{"date":"2010-01-01","average_temperature":"11.772","city":"Daska","latitude":"32.95N","longitude":"73.72E"}
{"date":"2011-06-01","average_temperature":"32.52500000000001","city":"Daska","latitude":"32.95N","longitude":"73.72E"}
{"date":"2011-01-01","average_temperature":"25.52","city":"Delmas","latitude":"18.48N","longitude":"72.68W"}
{"date":"2011-05-01","average_temperature":"26.761000000000006","city":"Denpasar","latitude":"8.84S","longitude":"115.95E"}
{"date":"2010-01-01","average_temperature":"13.064","city":"Dera Ismail Khan","latitude":"31.35N","longitude":"71.62E"}
{"date":"2010-07-01","average_temperature":"33.703","city":"Dera Ismail Khan","latitude":"31.35N","longitude":"71.62E"}
{"date":"2010-07-01","average_temperature":"25.333000000000002","city":"Des Moines","latitude":"40.99N","longitude":"93.73W"}
{"date":"2013-03-01","average_temperature":"18.741","city":"Dibrugarh","latitude":"28.13N","longitude":"95.45E"}
{"date":"2013-08-01","average_temperature":"20.963","city":"Didao","latitude":"45.81N","longitude":"130.38E"}
{"date":"2012-05-01","average_temperature":"26.522","city":"Dimapur","latitude":"26.52N","longitude":"93.13E"}
{"date":"2012-07-01","average_temperature":"27.514000000000006","city":"Dindigul","latitude":"10.45N","longitude":"77.73E"}
{"date":"2012-05-01","average_temperature":"27.156","city":"Divo","latitude":"5.63N","longitude":"4.84W"}
{"date":"2012-07-01","average_temperature":"17.677","city":"Dortmund","latitude":"52.24N","longitude":"7.88E"}
{"date":"2013-09-01","city":"Dortmund","latitude":"52.24N","longitude":"7.88E"}
{"date":"2012-07-01","average_temperature":"27.14","city":"Dos Hermanas","latitude":"37.78N","longitude":"6.10W"}
{"date":"2010-11-01","average_temperature":"25.3","city":"Douala","latitude":"4.02N","longitude":"10.45E"}
{"date":"2011-08-01","average_temperature":"18.229","city":"Dzerzhinsk","latitude":"57.05N","longitude":"42.79E"}
{"date":"2010-08-01","average_temperature":"23.545","city":"East Los Angeles","latitude":"34.56N","longitude":"118.70W"}
{"date":"2013-06-01","average_temperature":"22.434","city":"East Los Angeles","latitude":"34.56N","longitude":"118.70W"}
{"date":"2010-12-01","average_temperature":"5.7189999999999985","city":"Ebina","latitude":"36.17N","longitude":"139.23E"}
{"date":"2013-06-01","average_temperature":"24.554","city":"Edéa","latitude":"4.02N","longitude":"10.45E"}
{"date":"2013-02-01","average_temperature":"2.545","city":"Edinburgh","latitude":"55.45N","longitude":"2.83W"}
{"date":"2010-11-01","average_temperature":"5.385","city":"Eindhoven","latitude":"52.24N","longitude":"5.26E"}
{"date":"2010-05-01","average_temperature":"12.818","city":"Ekibastuz","latitude":"52.24N","longitude":"76.20E"}
{"date":"2012-11-01","average_temperature":"13.902999999999999","city":"El Monte","latitude":"34.56N","longitude":"118.70W"}
{"date":"2011-10-01","average_temperature":"17.22","city":"El Paso","latitude":"31.35N","longitude":"105.55W"}
{"date":"2013-08-01","average_temperature":"25.939","city":"El Paso","latitude":"31.35N","longitude":"105.55W"}
{"date":"2011-04-01","average_temperature":"21.478","city":"Embu","latitude":"23.31S","longitude":"46.31W"}
{"date":"2013-05-01","average_temperature":"26.391","city":"Encheng","latitude":"21.70N","longitude":"111.63E"}
{"date":"2013-01-01","average_temperature":"13.261","city":"Ensenada","latitude":"31.35N","longitude":"116.86W"}
{"date":"2012-08-01","average_temperature":"21.764","city":"Erzurum","latitude":"39.38N","longitude":"41.62E"}
{"date":"2010-11-01","average_temperature":"14.947","city":"Esenyurt","latitude":"40.99N","longitude":"27.69E"}
{"date":"2012-08-01","average_temperature":"18.924","city":"Eugene","latitude":"44.20N","longitude":"122.98W"}
{"date":"2013-04-01","average_temperature":"13.546","city":"Evansville","latitude":"37.78N","longitude":"87.46W"}
{"date":"2012-06-01","average_temperature":"18.482","city":"Fairfield","latitude":"37.78N","longitude":"122.03W"}
{"date":"2010-06-01","average_temperature":"33.873000000000005","city":"Faizabad","latitude":"26.52N","longitude":"82.39E"}
{"date":"2011-07-01","average_temperature":"29.881","city":"Faizabad","latitude":"26.52N","longitude":"82.39E"}
{"date":"2010-06-01","average_temperature":"26.875","city":"Fengshan","latitude":"23.31N","longitude":"119.71E"}
{"date":"2012-01-01","average_temperature":"3.064","city":"Ferrara","latitude":"44.20N","longitude":"11.18E"}
{"date":"2011-12-01","average_temperature":"22.244","city":"Ferraz De Vasconcelos","latitude":"23.31S","longitude":"46.31W"}
{"date":"2012-08-01","average_temperature":"19.069000000000006","city":"Ferraz De Vasconcelos","latitude":"23.31S","longitude":"46.31W"}
{"date":"2010-04-01","average_temperature":"18.247","city":"Fez","latitude":"34.56N","longitude":"5.84W"}
{"date":"2012-05-01","average_temperature":"20.079","city":"Fianarantsoa","latitude":"21.70S","longitude":"47.60E"}
{"date":"2010-09-01","average_temperature":"28.593000000000004","city":"Firozpur","latitude":"31.35N","longitude":"75.39E"}
{"date":"2010-11-01","average_temperature":"20.269","city":"Firozpur","latitude":"31.35N","longitude":"75.39E"}
{"date":"2012-01-01","average_temperature":"18.051","city":"Florencia","latitude":"2.41N","longitude":"76.34W"}
{"date":"2013-06-01","average_temperature":"19.391","city":"Florencia","latitude":"2.41N","longitude":"76.34W"}
{"date":"2012-11-01","average_temperature":"5.107","city":"Fort Collins","latitude":"40.99N","longitude":"104.38W"}
{"date":"2011-07-01","average_temperature":"26.264","city":"Fort Wayne","latitude":"40.99N","longitude":"85.21W"}
{"date":"2012-09-01","average_temperature":"26.759","city":"Foshan","latitude":"23.31N","longitude":"112.72E"}
{"date":"2011-07-01","average_temperature":"14.864","city":"Freiburg","latitude":"47.42N","longitude":"8.29E"}
{"date":"2010-02-01","average_temperature":"10.196","city":"Fresnillo","latitude":"23.31N","longitude":"102.23W"}
{"date":"2011-10-01","average_temperature":"16.282","city":"Fresnillo","latitude":"23.31N","longitude":"102.23W"}
{"date":"2013-02-01","average_temperature":"2.046","city":"Fujimi","latitude":"36.17N","longitude":"139.23E"}
{"date":"2011-06-01","average_temperature":"28.7","city":"Funtua","latitude":"12.05N","longitude":"6.58E"}
{"date":"2013-03-01","average_temperature":"-0.6160000000000001","city":"Göttingen","latitude":"52.24N","longitude":"10.51E"}
{"date":"2010-07-01","average_temperature":"27.184","city":"Gaomi","latitude":"36.17N","longitude":"119.34E"}
{"date":"2013-08-01","average_temperature":"22.267","city":"Gazni","latitude":"32.95N","longitude":"67.98E"}
{"date":"2012-05-01","average_temperature":"27.866000000000003","city":"Gboko","latitude":"7.23N","longitude":"8.92E"}
{"date":"2012-10-01","average_temperature":"26.519","city":"Gboko","latitude":"7.23N","longitude":"8.92E"}
{"date":"2010-12-01","average_temperature":"-3.0969999999999995","city":"Gelsenkirchen","latitude":"52.24N","longitude":"7.88E"}
{"date":"2012-08-01","average_temperature":"24.355","city":"Genoa","latitude":"44.20N","longitude":"8.94E"}
{"date":"2010-01-01","average_temperature":"-19.909000000000002","city":"Glazov","latitude":"58.66N","longitude":"52.31E"}
{"date":"2010-02-01","average_temperature":"12.695","city":"Glendale","latitude":"32.95N","longitude":"112.02W"}
{"date":"2010-09-01","average_temperature":"30.456","city":"Glendale","latitude":"32.95N","longitude":"112.02W"}
{"date":"2011-01-01","average_temperature":"10.432","city":"Glendale","latitude":"34.56N","longitude":"118.70W"}
{"date":"2012-04-01","average_temperature":"9.818","city":"Gliwice","latitude":"50.63N","longitude":"19.01E"}
{"date":"2012-07-01","average_temperature":"28.648000000000003","city":"Godhra","latitude":"23.31N","longitude":"74.27E"}
{"date":"2012-03-01","average_temperature":"9.399","city":"Gonbad E Qabus","latitude":"37.78N","longitude":"54.92E"}
{"date":"2012-06-01","average_temperature":"20.375","city":"Gongzhuling","latitude":"44.20N","longitude":"125.22E"}
{"date":"2011-06-01","average_temperature":"19.275","city":"Gorzow Wielkopolski","latitude":"52.24N","longitude":"15.77E"}
{"date":"2011-07-01","average_temperature":"20.433","city":"Governador Valadares","latitude":"18.48S","longitude":"42.25W"}
{"date":"2012-01-01","average_temperature":"9.359","city":"Grand Prairie","latitude":"32.95N","longitude":"96.70W"}
{"date":"2010-06-01","average_temperature":"14.228000000000002","city":"Gravataí","latitude":"29.74S","longitude":"51.69W"}
{"date":"2010-02-01","average_temperature":"-1.669","city":"Graz","latitude":"47.42N","longitude":"15.39E"}
{"date":"2011-01-01","average_temperature":"-6.457000000000001","city":"Green Bay","latitude":"44.20N","longitude":"87.20W"}
{"date":"2012-01-01","average_temperature":"-2.0680000000000005","city":"Green Bay","latitude":"44.20N","longitude":"87.20W"}
{"date":"2011-09-01","average_temperature":"21.943","city":"Greensboro","latitude":"36.17N","longitude":"79.56W"}
{"date":"2011-12-01","average_temperature":"7.673999999999999","city":"Greensboro","latitude":"36.17N","longitude":"79.56W"}
{"date":"2013-09-01","average_temperature":"23.646","city":"Guadalajara","latitude":"20.09N","longitude":"104.08W"}
{"date":"2010-09-01","average_temperature":"20.611","city":"Guatemala","latitude":"15.27N","longitude":"90.83W"}
{"date":"2012-05-01","average_temperature":"32.954","city":"Guntakal","latitude":"15.27N","longitude":"77.50E"}
{"date":"2012-06-01","average_temperature":"31.043000000000003","city":"Guntakal","latitude":"15.27N","longitude":"77.50E"}
{"date":"2011-06-01","average_temperature":"31.776","city":"Guntur","latitude":"16.87N","longitude":"80.37E"}
{"date":"2010-06-01","average_temperature":"27.959","city":"Ha Noi","latitude":"21.70N","longitude":"106.44E"}
{"date":"2010-04-01","average_temperature":"33.817","city":"Hadejia","latitude":"12.05N","longitude":"9.86E"}
{"date":"2012-07-01","average_temperature":"17.677","city":"Hagen","latitude":"52.24N","longitude":"7.88E"}
{"date":"2012-10-01","average_temperature":"23.796","city":"Hai Phong","latitude":"21.70N","longitude":"106.44E"}
{"date":"2010-11-01","average_temperature":"18.934","city":"Haicheng","latitude":"23.31N","longitude":"114.47E"}
{"date":"2011-08-01","average_temperature":"19.414","city":"Haikou","latitude":"24.92N","longitude":"102.86E"}
{"date":"2012-08-01","average_temperature":"19.656","city":"Haikou","latitude":"24.92N","longitude":"102.86E"}
{"date":"2010-08-01","average_temperature":"25.358","city":"Hakodate","latitude":"40.99N","longitude":"140.59E"}
{"date":"2013-03-01","average_temperature":"1.163","city":"Halifax","latitude":"44.20N","longitude":"62.61W"}
{"date":"2012-06-01","average_temperature":"22.572000000000006","city":"Hamadan","latitude":"34.56N","longitude":"48.65E"}
{"date":"2012-12-01","average_temperature":"7.9","city":"Hamamatsu","latitude":"34.56N","longitude":"138.16E"}
{"date":"2012-10-01","average_temperature":"9.323","city":"Hamburg","latitude":"53.84N","longitude":"9.55E"}
{"date":"2010-05-01","average_temperature":"20.696","city":"Hampton","latitude":"36.17N","longitude":"75.58W"}
{"date":"2010-04-01","average_temperature":"8.847000000000001","city":"Hanover","latitude":"52.24N","longitude":"10.51E"}
{"date":"2011-06-01","average_temperature":"16.512","city":"Harare","latitude":"18.48S","longitude":"30.42E"}
{"date":"2012-08-01","average_temperature":"29.183000000000003","city":"Hardoi","latitude":"26.52N","longitude":"80.60E"}
{"date":"2010-07-01","average_temperature":"27.873","city":"Hazaribag","latitude":"23.31N","longitude":"84.76E"}
{"date":"2011-12-01","average_temperature":"3.756","city":"Heidelberg","latitude":"49.03N","longitude":"9.80E"}
{"date":"2012-05-01","average_temperature":"21.878","city":"Herat","latitude":"34.56N","longitude":"62.27E"}
{"date":"2012-03-01","average_temperature":"17.936","city":"Hermosillo","latitude":"29.74N","longitude":"110.77W"}
{"date":"2010-03-01","average_temperature":"8.362","city":"Heze","latitude":"34.56N","longitude":"114.81E"}
{"date":"2011-02-01","average_temperature":"20.078000000000007","city":"Hialeah","latitude":"26.52N","longitude":"80.60W"}
{"date":"2013-09-01","average_temperature":"28.315","city":"Higüey","latitude":"18.48N","longitude":"69.30W"}
{"date":"2012-10-01","average_temperature":"8.751","city":"Highlands Ranch","latitude":"39.38N","longitude":"104.05W"}
{"date":"2011-07-01","average_temperature":"26.517","city":"Himeji","latitude":"34.56N","longitude":"134.27E"}
{"date":"2010-11-01","average_temperature":"11.601","city":"Hirakata","latitude":"34.56N","longitude":"136.22E"}
{"date":"2013-08-01","average_temperature":"29.103","city":"Hiroshima","latitude":"34.56N","longitude":"132.32E"}
{"date":"2011-04-01","average_temperature":"7.314","city":"Honggang","latitude":"45.81N","longitude":"125.77E"}
{"date":"2012-04-01","average_temperature":"13.847","city":"Horlivka","latitude":"49.03N","longitude":"39.18E"}
{"date":"2012-07-01","average_temperature":"17.765","city":"Hortolândia","latitude":"23.31S","longitude":"48.06W"}
{"date":"2012-03-01","average_temperature":"9.694","city":"Huaihua","latitude":"28.13N","longitude":"110.00E"}
{"date":"2013-08-01","average_temperature":"20.382","city":"Huambo","latitude":"13.66S","longitude":"15.69E"}
{"date":"2011-05-01","average_temperature":"7.532","city":"Huancayo","latitude":"12.05S","longitude":"75.62W"}
{"date":"2013-03-01","average_temperature":"28.965999999999998","city":"Hubli","latitude":"15.27N","longitude":"75.83E"}
{"date":"2011-04-01","average_temperature":"24.453000000000003","city":"Hue","latitude":"16.87N","longitude":"107.16E"}
{"date":"2010-10-01","average_temperature":"17.764","city":"Huelva","latitude":"37.78N","longitude":"6.10W"}
{"date":"2010-09-01","average_temperature":"23.903000000000002","city":"Huntsville","latitude":"34.56N","longitude":"85.62W"}
{"date":"2010-08-01","average_temperature":"30.128","city":"Huzhou","latitude":"31.35N","longitude":"120.63E"}
{"date":"2010-01-01","average_temperature":"18.625","city":"Hyderabad","latitude":"24.92N","longitude":"69.16E"}
{"date":"2010-05-01","average_temperature":"35.115","city":"Hyderabad","latitude":"24.92N","longitude":"69.16E"}
{"date":"2010-11-01","average_temperature":"8.824","city":"Iasi","latitude":"47.42N","longitude":"27.24E"}
{"date":"2012-09-01","average_temperature":"22.683000000000003","city":"Ibirité","latitude":"20.09S","longitude":"44.36W"}
{"date":"2012-04-01","average_temperature":"28.303","city":"Ife","latitude":"7.23N","longitude":"4.05E"}
{"date":"2012-07-01","average_temperature":"25.165","city":"Ila","latitude":"7.23N","longitude":"5.68E"}
{"date":"2010-10-01","average_temperature":"25.9","city":"Ilawe","latitude":"7.23N","longitude":"5.68E"}
{"date":"2010-02-01","average_temperature":"30.313000000000002","city":"Ilobu","latitude":"7.23N","longitude":"4.05E"}
{"date":"2010-09-01","average_temperature":"25.626","city":"Ilorin","latitude":"8.84N","longitude":"4.05E"}
{"date":"2012-09-01","average_temperature":"24.467","city":"Inazawa","latitude":"34.56N","longitude":"136.22E"}
{"date":"2013-08-01","average_temperature":"28.180999999999997","city":"Inazawa","latitude":"34.56N","longitude":"136.22E"}
{"date":"2012-04-01","average_temperature":"21.869","city":"Indaiatuba","latitude":"23.31S","longitude":"48.06W"}
{"date":"2012-04-01","average_temperature":"8.870000000000003","city":"Ingolstadt","latitude":"49.03N","longitude":"12.24E"}
{"date":"2010-06-01","average_temperature":"30.04","city":"Ingraj Bazar","latitude":"24.92N","longitude":"88.67E"}
{"date":"2012-10-01","average_temperature":"26.868000000000002","city":"Ingraj Bazar","latitude":"24.92N","longitude":"88.67E"}
{"date":"2010-04-01","average_temperature":"29.533","city":"Iranshahr","latitude":"26.52N","longitude":"60.90E"}
{"date":"2012-12-01","average_temperature":"13.097999999999999","city":"Irbid","latitude":"32.95N","longitude":"35.43E"}
{"date":"2010-11-01","average_temperature":"15.889000000000001","city":"Irvine","latitude":"32.95N","longitude":"117.77W"}
{"date":"2013-01-01","average_temperature":"11.429","city":"Iskenderun","latitude":"36.17N","longitude":"35.80E"}
{"date":"2012-12-01","average_temperature":"7.399999999999999","city":"Istanbul","latitude":"40.99N","longitude":"29.82E"}
{"date":"2010-12-01","average_temperature":"18.53","city":"Itagüí","latitude":"5.63N","longitude":"75.87W"}
{"date":"2013-08-01","average_temperature":"18.652","city":"Itu","latitude":"23.31S","longitude":"48.06W"}
{"date":"2010-10-01","average_temperature":"2.715","city":"Ivanovo","latitude":"57.05N","longitude":"39.84E"}
{"date":"2011-01-01","average_temperature":"27.29","city":"Iwo","latitude":"7.23N","longitude":"4.05E"}
{"date":"2012-06-01","average_temperature":"18.443","city":"Izhevsk","latitude":"57.05N","longitude":"54.59E"}
{"date":"2012-02-01","average_temperature":"24.468","city":"Jacareí","latitude":"23.31S","longitude":"46.31W"}
{"date":"2012-11-01","average_temperature":"21.811999999999998","city":"Jacareí","latitude":"23.31S","longitude":"46.31W"}
{"date":"2010-05-01","average_temperature":"37.214","city":"Jacobabad","latitude":"28.13N","longitude":"68.18E"}
{"date":"2011-04-01","average_temperature":"31.596999999999998","city":"Jalingo","latitude":"8.84N","longitude":"12.16E"}
{"date":"2013-05-01","average_temperature":"24.671999999999997","city":"Jalpaiguri","latitude":"26.52N","longitude":"89.55E"}
{"date":"2012-09-01","average_temperature":"28.261999999999997","city":"Jamalpur","latitude":"24.92N","longitude":"90.44E"}
{"date":"2012-03-01","average_temperature":"21.212","city":"Jaranwala","latitude":"31.35N","longitude":"73.51E"}
{"date":"2010-09-01","average_temperature":"27.941000000000006","city":"Jhelum","latitude":"32.95N","longitude":"73.72E"}
{"date":"2011-02-01","average_temperature":"-13.08","city":"Jiamusi","latitude":"47.42N","longitude":"131.45E"}
{"date":"2012-09-01","average_temperature":"26.759","city":"Jiangmen","latitude":"23.31N","longitude":"112.72E"}
{"date":"2012-01-01","average_temperature":"5.86","city":"Jiangyou","latitude":"31.35N","longitude":"105.55E"}
{"date":"2012-12-01","average_temperature":"7.995","city":"Jiangyou","latitude":"31.35N","longitude":"105.55E"}
{"date":"2011-12-01","average_temperature":"25.73","city":"Jiddah","latitude":"21.70N","longitude":"38.94E"}
{"date":"2011-01-01","average_temperature":"-3.6060000000000003","city":"Jinan","latitude":"36.17N","longitude":"117.35E"}
{"date":"2011-12-01","average_temperature":"14.5","city":"Jind","latitude":"29.74N","longitude":"75.69E"}
{"date":"2012-05-01","average_temperature":"20.97","city":"Jishou","latitude":"28.13N","longitude":"110.00E"}
{"date":"2011-11-01","average_temperature":"19.573","city":"Johannesburg","latitude":"26.52S","longitude":"28.66E"}
{"date":"2010-12-01","average_temperature":"-5.577000000000001","city":"Joliet","latitude":"40.99N","longitude":"87.34W"}
{"date":"2011-08-01","average_temperature":"22.906","city":"Joliet","latitude":"40.99N","longitude":"87.34W"}
{"date":"2013-06-01","average_temperature":"27.342","city":"Jombang","latitude":"7.23S","longitude":"112.70E"}
{"date":"2012-12-01","average_temperature":"6.657","city":"Juarez","latitude":"31.35N","longitude":"105.55W"}
{"date":"2010-07-01","average_temperature":"18.354","city":"Jundiaí","latitude":"23.31S","longitude":"46.31W"}
{"date":"2010-10-01","average_temperature":"18.380000000000006","city":"Kadoma","latitude":"34.56N","longitude":"136.22E"}
{"date":"2010-12-01","average_temperature":"22.325","city":"Kalemie","latitude":"5.63S","longitude":"29.06E"}
{"date":"2010-03-01","average_temperature":"28.521","city":"Kalmunai","latitude":"7.23N","longitude":"81.89E"}
{"date":"2010-09-01","average_temperature":"28.969","city":"Kalmunai","latitude":"7.23N","longitude":"81.89E"}
{"date":"2010-11-01","average_temperature":"15.839","city":"Kamakura","latitude":"34.56N","longitude":"140.11E"}
{"date":"2012-09-01","average_temperature":"28.201","city":"Karnal","latitude":"29.74N","longitude":"77.54E"}
{"date":"2010-01-01","average_temperature":"-3.38","city":"Kashi","latitude":"39.38N","longitude":"76.99E"}
{"date":"2010-09-01","average_temperature":"24.894","city":"Kashihara","latitude":"34.56N","longitude":"136.22E"}
{"date":"2010-06-01","average_temperature":"22.206000000000003","city":"Kathmandu","latitude":"28.13N","longitude":"84.55E"}
{"date":"2010-09-01","average_temperature":"12.595999999999998","city":"Katowice","latitude":"50.63N","longitude":"19.01E"}
{"date":"2012-04-01","average_temperature":"33.910000000000004","city":"Katsina","latitude":"13.66N","longitude":"7.43E"}
{"date":"2011-01-01","average_temperature":"-1.771","city":"Kayseri","latitude":"39.38N","longitude":"35.38E"}
{"date":"2012-05-01","average_temperature":"15.772","city":"Kazan","latitude":"55.45N","longitude":"48.19E"}
{"date":"2013-08-01","average_temperature":"27.113000000000003","city":"Kediri","latitude":"7.23S","longitude":"112.70E"}
{"date":"2013-09-01","city":"Kedungwuni","latitude":"7.23S","longitude":"109.46E"}
{"date":"2013-01-01","average_temperature":"17.020999999999994","city":"Keelung","latitude":"24.92N","longitude":"122.36E"}
{"date":"2013-03-01","average_temperature":"8.996","city":"Kermanshah","latitude":"34.56N","longitude":"46.70E"}
{"date":"2013-07-01","average_temperature":"26.191999999999997","city":"Khandwa","latitude":"21.70N","longitude":"77.02E"}
{"date":"2011-07-01","average_temperature":"33.372","city":"Khartoum","latitude":"15.27N","longitude":"32.50E"}
{"date":"2012-07-01","average_temperature":"31.119","city":"Khartoum","latitude":"15.27N","longitude":"32.50E"}
{"date":"2012-11-01","average_temperature":"28.758000000000006","city":"Khartoum","latitude":"15.27N","longitude":"32.50E"}
{"date":"2013-01-01","average_temperature":"10.046","city":"Khuzdar","latitude":"28.13N","longitude":"66.36E"}
{"date":"2013-09-01","city":"Kiev","latitude":"50.63N","longitude":"31.69E"}
{"date":"2011-08-01","average_temperature":"24.946","city":"Kikwit","latitude":"5.63S","longitude":"19.37E"}
{"date":"2010-01-01","average_temperature":"23.386999999999997","city":"Kimberley","latitude":"28.13S","longitude":"24.55E"}
{"date":"2012-09-01","average_temperature":"16.012","city":"Kingston","latitude":"44.20N","longitude":"76.02W"}
{"date":"2011-05-01","average_temperature":"25.433000000000003","city":"Kisaran","latitude":"2.41N","longitude":"98.84E"}
{"date":"2011-07-01","average_temperature":"22.424","city":"Kislovodsk","latitude":"44.20N","longitude":"42.48E"}
{"date":"2010-09-01","average_temperature":"21.706","city":"Kisumu","latitude":"0.80S","longitude":"34.55E"}
{"date":"2013-01-01","average_temperature":"-9.132","city":"Kitami","latitude":"44.20N","longitude":"143.11E"}
{"date":"2010-05-01","average_temperature":"14.473","city":"Kitchener","latitude":"44.20N","longitude":"80.50W"}
{"date":"2011-04-01","average_temperature":"21.008000000000003","city":"Kitwe","latitude":"12.05S","longitude":"27.95E"}
{"date":"2011-04-01","average_temperature":"12.274000000000001","city":"Kobe","latitude":"34.56N","longitude":"134.27E"}
{"date":"2011-03-01","average_temperature":"6.521000000000001","city":"Koblenz","latitude":"50.63N","longitude":"6.34E"}
{"date":"2012-04-01","average_temperature":"8.144","city":"Kolomna","latitude":"55.45N","longitude":"39.69E"}
{"date":"2010-05-01","average_temperature":"15.544","city":"Konan","latitude":"36.17N","longitude":"137.24E"}
{"date":"2011-09-01","average_temperature":"25.851","city":"Korhogo","latitude":"8.84N","longitude":"5.68W"}
{"date":"2012-04-01","average_temperature":"9.8","city":"Koriyama","latitude":"37.78N","longitude":"140.34E"}
{"date":"2010-06-01","average_temperature":"16.118000000000002","city":"Koszalin","latitude":"53.84N","longitude":"15.00E"}
{"date":"2012-09-01","average_temperature":"14.606","city":"Koszalin","latitude":"53.84N","longitude":"15.00E"}
{"date":"2010-12-01","average_temperature":"17.678","city":"Kota","latitude":"24.92N","longitude":"76.26E"}
{"date":"2013-07-01","average_temperature":"28.587","city":"Kota","latitude":"24.92N","longitude":"76.26E"}
{"date":"2013-02-01","average_temperature":"24.244","city":"Kroonstad","latitude":"28.13S","longitude":"26.36E"}
{"date":"2010-02-01","average_temperature":"-1.416","city":"Kryvyy Rih","latitude":"47.42N","longitude":"34.34E"}
{"date":"2012-11-01","average_temperature":"27.789","city":"Kumbakonam","latitude":"10.45N","longitude":"79.36E"}
{"date":"2011-07-01","average_temperature":"26.578000000000003","city":"Kurume","latitude":"32.95N","longitude":"131.17E"}
{"date":"2010-12-01","average_temperature":"7.487","city":"Kusatsu","latitude":"34.56N","longitude":"136.22E"}
{"date":"2010-12-01","average_temperature":"-28.309","city":"Kyzyl","latitude":"52.24N","longitude":"94.60E"}
{"date":"2011-05-01","average_temperature":"6.7250000000000005","city":"Kyzyl","latitude":"52.24N","longitude":"94.60E"}
{"date":"2012-07-01","average_temperature":"25.461","city":"La Ceiba","latitude":"15.27N","longitude":"87.50W"}
{"date":"2013-02-01","average_temperature":"23.76","city":"La Ceiba","latitude":"15.27N","longitude":"87.50W"}
{"date":"2012-04-01","average_temperature":"19.367","city":"La Rioja","latitude":"29.74S","longitude":"66.46W"}
{"date":"2012-09-01","average_temperature":"19.287","city":"La Rioja","latitude":"29.74S","longitude":"66.46W"}
{"date":"2012-02-01","average_temperature":"-2.33","city":"Lakewood","latitude":"39.38N","longitude":"104.05W"}
{"date":"2011-02-01","average_temperature":"17.523","city":"Lakhimpur","latitude":"28.13N","longitude":"80.91E"}
{"date":"2013-04-01","average_temperature":"29.119","city":"Lakhnau","latitude":"26.52N","longitude":"80.60E"}
{"date":"2012-03-01","average_temperature":"25.088","city":"Lalitpur","latitude":"24.92N","longitude":"78.03E"}
{"date":"2011-10-01","average_temperature":"24.691999999999997","city":"Lambaré","latitude":"24.92S","longitude":"58.52W"}
{"date":"2010-02-01","average_temperature":"24.221","city":"Lampang","latitude":"18.48N","longitude":"99.72E"}
{"date":"2013-08-01","average_temperature":"27.054","city":"Langfang","latitude":"39.38N","longitude":"116.53E"}
{"date":"2010-10-01","average_temperature":"11.597000000000001","city":"Lansing","latitude":"42.59N","longitude":"85.09W"}
{"date":"2011-09-01","average_temperature":"27.941000000000006","city":"Laoag","latitude":"18.48N","longitude":"120.00E"}
{"date":"2011-10-01","average_temperature":"12.918","city":"Le Havre","latitude":"49.03N","longitude":"0.00W"}
{"date":"2010-02-01","average_temperature":"-1.3290000000000002","city":"Legnica","latitude":"50.63N","longitude":"16.48E"}
{"date":"2010-09-01","average_temperature":"14.188","city":"Leicester","latitude":"52.24N","longitude":"0.00W"}
{"date":"2010-09-01","average_temperature":"25.455","city":"Lembang","latitude":"7.23S","longitude":"107.84E"}
{"date":"2011-11-01","average_temperature":"6.881","city":"Leverkusen","latitude":"50.63N","longitude":"6.34E"}
{"date":"2013-04-01","average_temperature":"6.2940000000000005","city":"Liaoyang","latitude":"40.99N","longitude":"123.55E"}
{"date":"2011-03-01","average_temperature":"23.445","city":"Limeira","latitude":"21.70S","longitude":"47.60W"}
{"date":"2011-10-01","average_temperature":"12.845","city":"Limoges","latitude":"45.81N","longitude":"1.15E"}
{"date":"2013-03-01","average_temperature":"26.818","city":"Lipa","latitude":"13.66N","longitude":"121.38E"}
{"date":"2010-02-01","average_temperature":"10.056000000000001","city":"Lisbon","latitude":"39.38N","longitude":"8.32W"}
{"date":"2013-05-01","average_temperature":"25.483","city":"Liusha","latitude":"23.31N","longitude":"116.21E"}
{"date":"2011-04-01","average_temperature":"19.188","city":"Liuzhou","latitude":"24.92N","longitude":"109.95E"}
{"date":"2011-05-01","average_temperature":"27.526999999999997","city":"Loa Janan","latitude":"0.80S","longitude":"116.52E"}
{"date":"2011-09-01","average_temperature":"20.312","city":"Loja","latitude":"4.02S","longitude":"79.55W"}
{"date":"2013-02-01","average_temperature":"3.087","city":"London","latitude":"52.24N","longitude":"0.00W"}
{"date":"2011-08-01","average_temperature":"22.897","city":"Longfeng","latitude":"45.81N","longitude":"125.77E"}
{"date":"2012-05-01","average_temperature":"24.72","city":"Longyan","latitude":"24.92N","longitude":"117.04E"}
{"date":"2012-07-01","average_temperature":"8.020999999999999","city":"Los Angeles","latitude":"37.78S","longitude":"73.22W"}
{"date":"2012-07-01","average_temperature":"22.683000000000003","city":"Lowell","latitude":"42.59N","longitude":"72.00W"}
{"date":"2012-11-01","average_temperature":"3.986","city":"Luancheng","latitude":"37.78N","longitude":"113.90E"}
{"date":"2012-03-01","average_temperature":"17.029","city":"Luchou","latitude":"24.92N","longitude":"120.59E"}
{"date":"2011-02-01","average_temperature":"-4.472","city":"Lvov","latitude":"50.63N","longitude":"24.08E"}
{"date":"2011-12-01","average_temperature":"-0.8680000000000003","city":"Lyubertsy","latitude":"55.45N","longitude":"36.85E"}
{"date":"2013-01-01","average_temperature":"13.890999999999998","city":"Málaga","latitude":"36.17N","longitude":"3.98W"}
{"date":"2012-01-01","average_temperature":"8.575999999999999","city":"Médéa","latitude":"36.17N","longitude":"1.99E"}
{"date":"2011-05-01","average_temperature":"14.472","city":"Münster","latitude":"52.24N","longitude":"7.88E"}
{"date":"2012-11-01","average_temperature":"25.921999999999997","city":"Maceió","latitude":"10.45S","longitude":"35.18W"}
{"date":"2013-07-01","average_temperature":"27.436","city":"Mahabad","latitude":"36.17N","longitude":"45.75E"}
{"date":"2011-08-01","average_temperature":"27.068","city":"Mahbubnagar","latitude":"16.87N","longitude":"78.70E"}
{"date":"2010-06-01","average_temperature":"30.408","city":"Maicao","latitude":"12.05N","longitude":"72.33W"}
{"date":"2011-12-01","average_temperature":"27.438000000000002","city":"Malang","latitude":"7.23S","longitude":"112.70E"}
{"date":"2011-12-01","average_temperature":"5.008","city":"Malatya","latitude":"37.78N","longitude":"38.64E"}
{"date":"2013-04-01","average_temperature":"26.623","city":"Manama","latitude":"26.52N","longitude":"50.15E"}
{"date":"2011-07-01","average_temperature":"31.024","city":"Manbij","latitude":"36.17N","longitude":"37.79E"}
{"date":"2013-09-01","city":"Mandya","latitude":"12.05N","longitude":"77.26E"}
{"date":"2011-10-01","average_temperature":"26.813","city":"Manila","latitude":"15.27N","longitude":"120.83E"}
{"date":"2010-01-01","average_temperature":"20.747","city":"Manizales","latitude":"5.63N","longitude":"75.87W"}
{"date":"2013-03-01","average_temperature":"26.358","city":"Manta","latitude":"0.80S","longitude":"81.16W"}
{"date":"2011-03-01","average_temperature":"16.922","city":"Maoming","latitude":"21.70N","longitude":"111.63E"}
{"date":"2011-07-01","average_temperature":"27.573","city":"Marabá","latitude":"5.63S","longitude":"48.43W"}
{"date":"2012-05-01","average_temperature":"33.317","city":"Maradi","latitude":"13.66N","longitude":"7.43E"}
{"date":"2010-06-01","average_temperature":"25.574","city":"Mashhad","latitude":"36.17N","longitude":"59.67E"}
{"date":"2012-01-01","average_temperature":"25.672","city":"Matadi","latitude":"5.63S","longitude":"12.91E"}
{"date":"2012-03-01","average_temperature":"26.744","city":"Mataram","latitude":"8.84S","longitude":"115.95E"}
{"date":"2013-04-01","average_temperature":"21.845","city":"Matola","latitude":"26.52S","longitude":"32.24E"}
{"date":"2010-02-01","average_temperature":"25.645","city":"Mbouda","latitude":"5.63N","longitude":"9.69E"}
{"date":"2010-03-01","average_temperature":"24.735","city":"Mbour","latitude":"13.66N","longitude":"17.34W"}
{"date":"2013-03-01","average_temperature":"29.184","city":"Meiktila","latitude":"20.09N","longitude":"95.55E"}
{"date":"2011-12-01","average_temperature":"25.024","city":"Mejicanos","latitude":"13.66N","longitude":"90.00W"}
{"date":"2010-07-01","average_temperature":"8.982000000000003","city":"Mercedes","latitude":"32.95S","longitude":"66.06W"}
{"date":"2012-04-01","average_temperature":"14.77","city":"Messina","latitude":"37.78N","longitude":"16.27E"}
{"date":"2012-02-01","average_temperature":"12.571","city":"Mexicali","latitude":"32.95N","longitude":"115.85W"}
{"date":"2010-08-01","average_temperature":"13.57","city":"Mezhdurechensk","latitude":"53.84N","longitude":"88.64E"}
{"date":"2011-12-01","average_temperature":"0.22000000000000006","city":"Mingshui","latitude":"36.17N","longitude":"117.35E"}
{"date":"2010-10-01","average_temperature":"23.673","city":"Misratah","latitude":"32.95N","longitude":"14.36E"}
{"date":"2011-04-01","average_temperature":"18.331","city":"Misratah","latitude":"32.95N","longitude":"14.36E"}
{"date":"2012-03-01","average_temperature":"21.414","city":"Montevideo","latitude":"34.56S","longitude":"56.43W"}
{"date":"2012-06-01","average_temperature":"25.786","city":"Montgomery","latitude":"32.95N","longitude":"87.13W"}
{"date":"2013-06-01","average_temperature":"33.805","city":"Mopti","latitude":"15.27N","longitude":"4.17W"}
{"date":"2012-08-01","average_temperature":"23.947","city":"Morogoro","latitude":"7.23S","longitude":"38.11E"}
{"date":"2010-03-01","average_temperature":"-7.947","city":"Mudanjiang","latitude":"44.20N","longitude":"129.69E"}
{"date":"2011-03-01","average_temperature":"4.699999999999998","city":"Mulhouse","latitude":"47.42N","longitude":"8.29E"}
{"date":"2012-05-01","average_temperature":"12.675999999999998","city":"Mulhouse","latitude":"47.42N","longitude":"8.29E"}
{"date":"2012-07-01","average_temperature":"34.235","city":"Muridke","latitude":"31.35N","longitude":"73.51E"}
{"date":"2010-08-01","average_temperature":"22.271","city":"Murom","latitude":"55.45N","longitude":"42.52E"}
{"date":"2010-05-01","average_temperature":"15.030999999999999","city":"Nagaoka","latitude":"37.78N","longitude":"138.31E"}
{"date":"2012-06-01","average_temperature":"21.401","city":"Nagoya","latitude":"34.56N","longitude":"136.22E"}
{"date":"2013-09-01","city":"Naihati","latitude":"23.31N","longitude":"88.25E"}
{"date":"2012-12-01","average_temperature":"24.006","city":"Nalgonda","latitude":"16.87N","longitude":"78.70E"}
{"date":"2011-11-01","average_temperature":"2.795","city":"Namangan","latitude":"40.99N","longitude":"72.43E"}
{"date":"2013-04-01","average_temperature":"17.261000000000006","city":"Nanchang","latitude":"28.13N","longitude":"115.45E"}
{"date":"2013-02-01","average_temperature":"23.93","city":"Nandurbar","latitude":"21.70N","longitude":"73.56E"}
{"date":"2012-03-01","average_temperature":"27.298","city":"Narayanganj","latitude":"23.31N","longitude":"90.00E"}
{"date":"2010-12-01","average_temperature":"9.543","city":"Narita","latitude":"36.17N","longitude":"141.22E"}
{"date":"2012-12-01","average_temperature":"6.811","city":"Narita","latitude":"36.17N","longitude":"141.22E"}
{"date":"2013-02-01","average_temperature":"6.212999999999999","city":"Navoi","latitude":"39.38N","longitude":"64.51E"}
{"date":"2010-10-01","average_temperature":"26.183000000000003","city":"Navsari","latitude":"20.09N","longitude":"73.36E"}
{"date":"2013-07-01","average_temperature":"23.253","city":"Nazret","latitude":"8.84N","longitude":"39.73E"}
{"date":"2010-08-01","average_temperature":"22.67","city":"New York","latitude":"40.99N","longitude":"74.56W"}
{"date":"2012-03-01","average_temperature":"20.557","city":"Newcastle","latitude":"32.95S","longitude":"152.23E"}
{"date":"2012-01-01","average_temperature":"21.531999999999996","city":"Newcastle","latitude":"28.13S","longitude":"30.00E"}
{"date":"2011-10-01","average_temperature":"12.167","city":"Newport","latitude":"52.24N","longitude":"2.63W"}
{"date":"2012-05-01","average_temperature":"31.809","city":"Neyveli","latitude":"12.05N","longitude":"78.90E"}
{"date":"2011-08-01","average_temperature":"18.308","city":"Nezahualcóyotl","latitude":"20.09N","longitude":"98.96W"}
{"date":"2012-05-01","average_temperature":"19.717","city":"Nezahualcóyotl","latitude":"20.09N","longitude":"98.96W"}
{"date":"2011-11-01","average_temperature":"10.802999999999999","city":"Niiza","latitude":"36.17N","longitude":"139.23E"}
{"date":"2011-09-01","average_temperature":"21.9","city":"Nilópolis","latitude":"23.31S","longitude":"42.82W"}
{"date":"2012-01-01","average_temperature":"-2.7960000000000003","city":"Nis","latitude":"42.59N","longitude":"21.82E"}
{"date":"2011-09-01","average_temperature":"21.9","city":"Niterói","latitude":"23.31S","longitude":"42.82W"}
{"date":"2013-01-01","average_temperature":"25.357","city":"Nueva San Salvador","latitude":"13.66N","longitude":"90.00W"}
{"date":"2010-07-01","average_temperature":"29.228","city":"Nuevo Laredo","latitude":"28.13N","longitude":"99.09W"}
{"date":"2012-05-01","average_temperature":"23.031","city":"Oaxaca","latitude":"16.87N","longitude":"97.12W"}
{"date":"2010-05-01","average_temperature":"28.077","city":"Obregon","latitude":"28.13N","longitude":"110.00W"}
{"date":"2011-06-01","average_temperature":"32.848","city":"Obregon","latitude":"28.13N","longitude":"110.00W"}
{"date":"2013-07-01","average_temperature":"25.962","city":"Ocumare Del Tuy","latitude":"10.45N","longitude":"66.27W"}
{"date":"2010-01-01","average_temperature":"28.237","city":"Ogbomosho","latitude":"8.84N","longitude":"4.05E"}
{"date":"2012-06-01","average_temperature":"27.799","city":"Olongapo","latitude":"15.27N","longitude":"120.83E"}
{"date":"2010-11-01","average_temperature":"27.766","city":"Ongole","latitude":"15.27N","longitude":"80.83E"}
{"date":"2012-11-01","average_temperature":"26.874000000000002","city":"Opobo","latitude":"4.02N","longitude":"7.23E"}
{"date":"2011-01-01","average_temperature":"13.458","city":"Orai","latitude":"26.52N","longitude":"78.81E"}
{"date":"2010-02-01","average_temperature":"3.904","city":"Orléans","latitude":"47.42N","longitude":"1.18E"}
{"date":"2012-03-01","average_temperature":"-7.375","city":"Orsk","latitude":"50.63N","longitude":"59.58E"}
{"date":"2011-01-01","average_temperature":"26.399","city":"Owo","latitude":"7.23N","longitude":"5.68E"}
{"date":"2010-03-01","average_temperature":"6.4220000000000015","city":"Oxford","latitude":"52.24N","longitude":"0.00W"}
{"date":"2010-08-01","average_temperature":"16.242","city":"Oxford","latitude":"52.24N","longitude":"0.00W"}
{"date":"2012-08-01","average_temperature":"23.929000000000002","city":"Pécs","latitude":"45.81N","longitude":"17.31E"}
{"date":"2010-06-01","average_temperature":"13.329","city":"Paarl","latitude":"34.56S","longitude":"19.46E"}
{"date":"2010-03-01","average_temperature":"28.395","city":"Pabna","latitude":"23.31N","longitude":"90.00E"}
{"date":"2010-07-01","average_temperature":"25.267","city":"Padalarang","latitude":"7.23S","longitude":"107.84E"}
{"date":"2011-02-01","average_temperature":"22.559","city":"Pakokku","latitude":"21.70N","longitude":"94.33E"}
{"date":"2012-09-01","average_temperature":"27.491","city":"Panvel","latitude":"18.48N","longitude":"72.68E"}
{"date":"2012-11-01","average_temperature":"27.54","city":"Panvel","latitude":"18.48N","longitude":"72.68E"}
{"date":"2010-08-01","average_temperature":"18.169","city":"Paris","latitude":"49.03N","longitude":"2.45E"}
{"date":"2013-05-01","average_temperature":"27.936","city":"Parung","latitude":"5.63S","longitude":"106.55E"}
{"date":"2013-03-01","average_temperature":"14.463","city":"Pasadena","latitude":"34.56N","longitude":"118.70W"}
{"date":"2011-12-01","average_temperature":"26.456999999999997","city":"Pasir Gudang","latitude":"0.80N","longitude":"103.66E"}
{"date":"2010-11-01","average_temperature":"5.876","city":"Paterson","latitude":"40.99N","longitude":"74.56W"}
{"date":"2013-02-01","average_temperature":"26.427","city":"Pati","latitude":"7.23S","longitude":"111.08E"}
{"date":"2010-10-01","average_temperature":"4.958","city":"Pavlodar","latitude":"52.24N","longitude":"76.20E"}
{"date":"2010-01-01","average_temperature":"-19.827","city":"Perm","latitude":"58.66N","longitude":"55.38E"}
{"date":"2011-01-01","average_temperature":"23.521","city":"Perth","latitude":"31.35S","longitude":"114.97E"}
{"date":"2011-03-01","average_temperature":"-6.3420000000000005","city":"Pervouralsk","latitude":"57.05N","longitude":"60.49E"}
{"date":"2011-07-01","average_temperature":"18.714","city":"Pervouralsk","latitude":"57.05N","longitude":"60.49E"}
{"date":"2011-01-01","average_temperature":"9.107","city":"Pescara","latitude":"42.59N","longitude":"15.27E"}
{"date":"2011-05-01","average_temperature":"22.108","city":"Petapa","latitude":"15.27N","longitude":"90.83W"}
{"date":"2011-11-01","average_temperature":"27.878","city":"Petrolina","latitude":"8.84S","longitude":"39.73W"}
{"date":"2011-03-01","average_temperature":"27.19","city":"Phan Thiet","latitude":"10.45N","longitude":"107.18E"}
{"date":"2013-07-01","average_temperature":"28.031","city":"Phitsanulok","latitude":"16.87N","longitude":"100.47E"}
{"date":"2013-08-01","average_temperature":"27.984","city":"Phitsanulok","latitude":"16.87N","longitude":"100.47E"}
{"date":"2011-11-01","average_temperature":"27.476000000000006","city":"Phnum Pénh","latitude":"12.05N","longitude":"105.21E"}
{"date":"2012-12-01","average_temperature":"27.215","city":"Phra Pradaeng","latitude":"13.66N","longitude":"99.91E"}
{"date":"2013-04-01","average_temperature":"20.061","city":"Pietersburg","latitude":"23.31S","longitude":"28.83E"}
{"date":"2013-06-01","average_temperature":"26.908","city":"Pingchen","latitude":"24.92N","longitude":"120.59E"}
{"date":"2010-06-01","average_temperature":"19.004","city":"Pinsk","latitude":"52.24N","longitude":"26.28E"}
{"date":"2012-12-01","average_temperature":"23.962","city":"Plây Cu","latitude":"13.66N","longitude":"108.17E"}
{"date":"2013-08-01","average_temperature":"24.671999999999997","city":"Pleven","latitude":"44.20N","longitude":"24.60E"}
{"date":"2011-01-01","average_temperature":"0.2230000000000001","city":"Plzen","latitude":"50.63N","longitude":"13.94E"}
{"date":"2010-09-01","average_temperature":"26.915","city":"Ponnani","latitude":"10.45N","longitude":"76.09E"}
{"date":"2010-03-01","average_temperature":"6.638999999999999","city":"Poole","latitude":"50.63N","longitude":"1.27W"}
{"date":"2011-01-01","average_temperature":"5.8740000000000006","city":"Poole","latitude":"50.63N","longitude":"1.27W"}
{"date":"2010-01-01","average_temperature":"27.021","city":"Port Louis","latitude":"20.09S","longitude":"58.01E"}
{"date":"2011-02-01","average_temperature":"9.792","city":"Porto","latitude":"40.99N","longitude":"8.52W"}
{"date":"2011-12-01","average_temperature":"23.069000000000006","city":"Potgietersrus","latitude":"23.31S","longitude":"28.83E"}
{"date":"2012-03-01","average_temperature":"11.67","city":"Potosí","latitude":"20.09S","longitude":"66.54W"}
{"date":"2012-09-01","average_temperature":"20.464000000000002","city":"Praia Grande","latitude":"23.31S","longitude":"46.31W"}
{"date":"2013-01-01","average_temperature":"3.0269999999999997","city":"Preston","latitude":"53.84N","longitude":"1.36W"}
{"date":"2010-12-01","average_temperature":"0.618","city":"Prizren","latitude":"42.59N","longitude":"21.82E"}
{"date":"2011-08-01","average_temperature":"26.695","city":"Probolinggo","latitude":"7.23S","longitude":"112.70E"}
{"date":"2013-07-01","average_temperature":"24.359","city":"Provo","latitude":"39.38N","longitude":"112.37W"}
{"date":"2010-08-01","average_temperature":"23.788","city":"Pueblo","latitude":"37.78N","longitude":"103.73W"}
{"date":"2013-09-01","city":"Pulandian","latitude":"39.38N","longitude":"122.77E"}
{"date":"2012-02-01","average_temperature":"9.781","city":"Punta Arenas","latitude":"52.24S","longitude":"70.95W"}
{"date":"2013-03-01","average_temperature":"25.63","city":"Purwakarta","latitude":"7.23S","longitude":"107.84E"}
{"date":"2012-06-01","average_temperature":"26.675","city":"Purwodadi","latitude":"7.23S","longitude":"111.08E"}
{"date":"2011-10-01","average_temperature":"28.577","city":"Purworejo","latitude":"7.23S","longitude":"112.70E"}
{"date":"2010-06-01","average_temperature":"31.021","city":"Qandahar","latitude":"31.35N","longitude":"65.97E"}
{"date":"2013-04-01","average_temperature":"23.7","city":"Qena","latitude":"26.52N","longitude":"32.24E"}
{"date":"2011-04-01","average_temperature":"16.43","city":"Qom","latitude":"34.56N","longitude":"50.59E"}
{"date":"2011-12-01","average_temperature":"-15.743","city":"Qostanay","latitude":"53.84N","longitude":"64.09E"}
{"date":"2012-05-01","average_temperature":"25.122","city":"Quelimane","latitude":"18.48S","longitude":"37.18E"}
{"date":"2010-06-01","average_temperature":"31.324","city":"Qui Nhon","latitude":"13.66N","longitude":"109.82E"}
{"date":"2012-11-01","average_temperature":"15.072","city":"Quilpue","latitude":"32.95S","longitude":"71.81W"}
{"date":"2013-09-01","city":"Quito","latitude":"0.80S","longitude":"77.95W"}
{"date":"2012-10-01","average_temperature":"12.078","city":"Qunduz","latitude":"36.17N","longitude":"69.61E"}
{"date":"2013-01-01","average_temperature":"13.49","city":"Rae Bareli","latitude":"26.52N","longitude":"80.60E"}
{"date":"2010-05-01","average_temperature":"33.251","city":"Raichur","latitude":"16.87N","longitude":"77.02E"}
{"date":"2013-03-01","average_temperature":"28.027","city":"Raigarh","latitude":"21.70N","longitude":"83.94E"}
{"date":"2010-04-01","average_temperature":"6.354","city":"Rancagua","latitude":"34.56S","longitude":"70.05W"}
{"date":"2013-06-01","average_temperature":"1.285","city":"Rancagua","latitude":"34.56S","longitude":"70.05W"}
{"date":"2010-04-01","average_temperature":"8.802999999999999","city":"Ratisbon","latitude":"49.03N","longitude":"12.24E"}
{"date":"2013-07-01","average_temperature":"31.053","city":"Rawalpindi","latitude":"32.95N","longitude":"73.72E"}
{"date":"2013-07-01","average_temperature":"24.583000000000002","city":"Recife","latitude":"8.84S","longitude":"34.86W"}
{"date":"2012-09-01","average_temperature":"14.729000000000001","city":"Reutlingen","latitude":"49.03N","longitude":"9.80E"}
{"date":"2010-04-01","average_temperature":"22.267","city":"Ribeirão Das Neves","latitude":"20.09S","longitude":"44.36W"}
{"date":"2013-06-01","average_temperature":"19.97","city":"Ribeirão Das Neves","latitude":"20.09S","longitude":"44.36W"}
{"date":"2010-09-01","average_temperature":"23.630000000000006","city":"Ribeirão Prêto","latitude":"21.70S","longitude":"47.60W"}
{"date":"2013-09-01","average_temperature":"20.471","city":"Richmond","latitude":"37.78N","longitude":"122.03W"}
{"date":"2010-12-01","average_temperature":"4.547","city":"Roseville","latitude":"39.38N","longitude":"120.69W"}
{"date":"2012-10-01","average_temperature":"10.358","city":"Rotterdam","latitude":"52.24N","longitude":"5.26E"}
{"date":"2012-08-01","average_temperature":"19.069000000000006","city":"São Bernardo Do Campo","latitude":"23.31S","longitude":"46.31W"}
{"date":"2012-08-01","average_temperature":"19.069000000000006","city":"São Caetano Do Sul","latitude":"23.31S","longitude":"46.31W"}
{"date":"2010-11-01","average_temperature":"24.371","city":"São Carlos","latitude":"21.70S","longitude":"47.60W"}
{"date":"2011-01-01","average_temperature":"27.229","city":"São Gonçalo","latitude":"23.31S","longitude":"42.82W"}
{"date":"2012-02-01","average_temperature":"25.521","city":"São José Do Rio Prêto","latitude":"20.09S","longitude":"49.48W"}
{"date":"2013-09-01","city":"São José Dos Campos","latitude":"23.31S","longitude":"46.31W"}
{"date":"2012-08-01","average_temperature":"31.9","city":"Sahiwal","latitude":"31.35N","longitude":"73.51E"}
{"date":"2013-03-01","average_temperature":"23.340999999999998","city":"Saint Louis","latitude":"16.87N","longitude":"16.74W"}
{"date":"2011-12-01","average_temperature":"26.724","city":"Salatiga","latitude":"7.23S","longitude":"111.08E"}
{"date":"2012-06-01","average_temperature":"26.675","city":"Salatiga","latitude":"7.23S","longitude":"111.08E"}
{"date":"2013-04-01","average_temperature":"15.334000000000001","city":"Salinas","latitude":"36.17N","longitude":"121.33W"}
{"date":"2010-09-01","average_temperature":"19.154","city":"Salt Lake City","latitude":"40.99N","longitude":"112.90W"}
{"date":"2011-03-01","average_temperature":"5.388","city":"Salt Lake City","latitude":"40.99N","longitude":"112.90W"}
{"date":"2011-02-01","average_temperature":"-2.108","city":"Salzburg","latitude":"47.42N","longitude":"13.03E"}
{"date":"2012-11-01","average_temperature":"7.234","city":"Samarkand","latitude":"39.38N","longitude":"66.59E"}
{"date":"2012-01-01","average_temperature":"2.381","city":"Samsun","latitude":"40.99N","longitude":"36.21E"}
{"date":"2010-01-01","average_temperature":"9.599","city":"San Jose","latitude":"37.78N","longitude":"122.03W"}
{"date":"2010-09-01","average_temperature":"20.02","city":"San Jose","latitude":"37.78N","longitude":"122.03W"}
{"date":"2012-11-01","average_temperature":"23.160999999999998","city":"San Martin","latitude":"32.95S","longitude":"67.98W"}
{"date":"2011-12-01","average_temperature":"13.105","city":"San Nicolás De Los Garza","latitude":"26.52N","longitude":"100.30W"}
{"date":"2013-02-01","average_temperature":"23.498","city":"San Nicolas","latitude":"32.95S","longitude":"60.32W"}
{"date":"2013-01-01","average_temperature":"22.355999999999998","city":"San Pedro Sula","latitude":"15.27N","longitude":"87.50W"}
{"date":"2010-04-01","average_temperature":"19.015","city":"Sanchung","latitude":"24.92N","longitude":"120.59E"}
{"date":"2012-09-01","average_temperature":"17.171","city":"Sanmenxia","latitude":"34.56N","longitude":"110.92E"}
{"date":"2010-06-01","average_temperature":"26.491999999999997","city":"Santa Ana","latitude":"13.66N","longitude":"90.00W"}
{"date":"2012-10-01","average_temperature":"25.307","city":"Santa Ana","latitude":"13.66N","longitude":"90.00W"}
{"date":"2011-12-01","average_temperature":"13.105","city":"Santa Catarina","latitude":"26.52N","longitude":"100.30W"}
{"date":"2012-03-01","average_temperature":"22.764","city":"Santa Cruz Do Sul","latitude":"29.74S","longitude":"51.69W"}
{"date":"2011-08-01","average_temperature":"14.915","city":"Santa Maria","latitude":"29.74S","longitude":"53.54W"}
{"date":"2011-04-01","average_temperature":"25.631999999999998","city":"Santa Teresa","latitude":"10.45N","longitude":"66.27W"}
{"date":"2011-08-01","average_temperature":"28.473000000000006","city":"Santiago De Cuba","latitude":"20.09N","longitude":"75.07W"}
{"date":"2013-01-01","average_temperature":"27.973000000000006","city":"Santiago Del Estero","latitude":"28.13S","longitude":"64.55W"}
{"date":"2010-04-01","average_temperature":"33.157","city":"Sasaram","latitude":"24.92N","longitude":"83.35E"}
{"date":"2010-12-01","average_temperature":"16.866999999999994","city":"Sasaram","latitude":"24.92N","longitude":"83.35E"}
{"date":"2012-11-01","average_temperature":"23.487","city":"Satkhira","latitude":"23.31N","longitude":"88.25E"}
{"date":"2011-06-01","average_temperature":"33.056999999999995","city":"Sawai Madhopur","latitude":"26.52N","longitude":"77.01E"}
{"date":"2012-08-01","average_temperature":"27.049","city":"Sawangan","latitude":"5.63S","longitude":"106.55E"}
{"date":"2010-07-01","average_temperature":"15.71","city":"Seattle","latitude":"47.42N","longitude":"121.97W"}
{"date":"2010-09-01","average_temperature":"21.278000000000002","city":"Seoul","latitude":"37.78N","longitude":"126.10E"}
{"date":"2012-12-01","average_temperature":"-4.2799999999999985","city":"Seoul","latitude":"37.78N","longitude":"126.10E"}
{"date":"2011-06-01","average_temperature":"27.709","city":"Serang","latitude":"5.63S","longitude":"106.55E"}
{"date":"2010-10-01","average_temperature":"23.644000000000002","city":"Serra","latitude":"20.09S","longitude":"40.95W"}
{"date":"2011-11-01","average_temperature":"-0.8889999999999998","city":"Severodvinsk","latitude":"65.09N","longitude":"40.21E"}
{"date":"2013-08-01","average_temperature":"16.075","city":"Seversk","latitude":"57.05N","longitude":"84.10E"}
{"date":"2010-01-01","average_temperature":"6.8260000000000005","city":"Shaoyang","latitude":"26.52N","longitude":"111.04E"}
{"date":"2010-12-01","average_temperature":"21.3","city":"Sharjah","latitude":"24.92N","longitude":"54.98E"}
{"date":"2011-09-01","average_temperature":"27.256999999999998","city":"Shenzhen","latitude":"23.31N","longitude":"114.47E"}
{"date":"2013-09-01","city":"Shinyanga","latitude":"4.02S","longitude":"32.95E"}
{"date":"2010-05-01","average_temperature":"21.703000000000003","city":"Shishou","latitude":"29.74N","longitude":"112.62E"}
{"date":"2012-06-01","average_temperature":"24.963","city":"Shiyan","latitude":"32.95N","longitude":"110.11E"}
{"date":"2011-11-01","average_temperature":"-4.691","city":"Shuangcheng","latitude":"45.81N","longitude":"125.77E"}
{"date":"2012-11-01","average_temperature":"27.677","city":"Singaraja","latitude":"8.84S","longitude":"114.32E"}
{"date":"2012-08-01","average_temperature":"27.430999999999997","city":"Sinnar","latitude":"13.66N","longitude":"33.85E"}
{"date":"2010-02-01","average_temperature":"19.498","city":"Siwan","latitude":"26.52N","longitude":"84.18E"}
{"date":"2012-03-01","average_temperature":"6.292999999999998","city":"Skopje","latitude":"42.59N","longitude":"21.82E"}
{"date":"2010-05-01","average_temperature":"11.328","city":"Slough","latitude":"52.24N","longitude":"0.00W"}
{"date":"2013-07-01","average_temperature":"18.694000000000006","city":"Slough","latitude":"52.24N","longitude":"0.00W"}
{"date":"2011-05-01","average_temperature":"13.295000000000002","city":"Smolensk","latitude":"55.45N","longitude":"31.18E"}
{"date":"2011-02-01","average_temperature":"26.464","city":"Sobral","latitude":"4.02S","longitude":"40.98W"}
{"date":"2011-06-01","average_temperature":"27.281","city":"Sokodé","latitude":"8.84N","longitude":"0.81E"}
{"date":"2011-11-01","average_temperature":"27.313000000000002","city":"Sokoto","latitude":"13.66N","longitude":"5.78E"}
{"date":"2011-08-01","average_temperature":"17.58","city":"Solingen","latitude":"50.63N","longitude":"6.34E"}
{"date":"2013-09-01","city":"Solingen","latitude":"50.63N","longitude":"6.34E"}
{"date":"2012-06-01","average_temperature":"13.161","city":"Southampton","latitude":"50.63N","longitude":"1.27W"}
{"date":"2011-08-01","average_temperature":"16.484","city":"Southend On Sea","latitude":"52.24N","longitude":"0.00W"}
{"date":"2013-08-01","average_temperature":"27.838","city":"Spanish Town","latitude":"18.48N","longitude":"77.75W"}
{"date":"2013-01-01","average_temperature":"-1.4329999999999998","city":"Srinagar","latitude":"34.56N","longitude":"73.95E"}
{"date":"2011-06-01","average_temperature":"14.86","city":"Stockholm","latitude":"58.66N","longitude":"18.46E"}
{"date":"2011-07-01","average_temperature":"9.701","city":"Sucre","latitude":"18.48S","longitude":"65.92W"}
{"date":"2012-03-01","average_temperature":"15.863","city":"Suez","latitude":"29.74N","longitude":"33.23E"}
{"date":"2013-07-01","average_temperature":"28.33","city":"Suez","latitude":"29.74N","longitude":"33.23E"}
{"date":"2012-11-01","average_temperature":"-0.35100000000000003","city":"Sujiatun","latitude":"40.99N","longitude":"123.55E"}
{"date":"2011-10-01","average_temperature":"26.533","city":"Sukaraja","latitude":"7.23S","longitude":"106.22E"}
{"date":"2011-11-01","average_temperature":"26.614","city":"Sukaraja","latitude":"7.23S","longitude":"106.22E"}
{"date":"2012-11-01","average_temperature":"22.629","city":"Sukkur","latitude":"28.13N","longitude":"68.18E"}
{"date":"2012-06-01","average_temperature":"35.038000000000004","city":"Sultanpur","latitude":"26.52N","longitude":"82.39E"}
{"date":"2012-09-01","average_temperature":"26.09","city":"Sumedang","latitude":"7.23S","longitude":"107.84E"}
{"date":"2012-08-01","average_temperature":"19.069000000000006","city":"Suzano","latitude":"23.31S","longitude":"46.31W"}
{"date":"2010-04-01","average_temperature":"8.327","city":"Swansea","latitude":"52.24N","longitude":"5.26W"}
{"date":"2012-01-01","average_temperature":"10.747000000000002","city":"Syracuse","latitude":"37.78N","longitude":"16.27E"}
{"date":"2013-09-01","city":"Szeged","latitude":"45.81N","longitude":"19.62E"}
{"date":"2012-02-01","average_temperature":"10.448","city":"Tétouan","latitude":"36.17N","longitude":"5.97W"}
{"date":"2011-02-01","average_temperature":"-1.046","city":"Tabriz","latitude":"37.78N","longitude":"46.78E"}
{"date":"2013-02-01","average_temperature":"4.9110000000000005","city":"Takatsuki","latitude":"34.56N","longitude":"136.22E"}
{"date":"2011-10-01","average_temperature":"27.494","city":"Talisay","latitude":"10.45N","longitude":"123.55E"}
{"date":"2012-12-01","average_temperature":"-8.690000000000001","city":"Tambov","latitude":"52.24N","longitude":"42.04E"}
{"date":"2012-12-01","average_temperature":"-3.6660000000000004","city":"Tarnow","latitude":"50.63N","longitude":"21.55E"}
{"date":"2012-02-01","average_temperature":"25.362","city":"Tasikmalaya","latitude":"7.23S","longitude":"107.84E"}
{"date":"2010-08-01","average_temperature":"26.95","city":"Tegal","latitude":"7.23S","longitude":"109.46E"}
{"date":"2012-01-01","average_temperature":"-19.538","city":"Temirtau","latitude":"50.63N","longitude":"72.25E"}
{"date":"2011-10-01","average_temperature":"28.555","city":"Teresina","latitude":"5.63S","longitude":"43.59W"}
{"date":"2012-04-01","average_temperature":"17.96","city":"Texcoco","latitude":"20.09N","longitude":"98.96W"}
{"date":"2010-05-01","average_temperature":"26.905","city":"Thái Nguyên","latitude":"21.70N","longitude":"106.44E"}
{"date":"2010-09-01","average_temperature":"18.554","city":"Thornton","latitude":"39.38N","longitude":"104.05W"}
{"date":"2013-08-01","average_temperature":"18.025","city":"Tilburg","latitude":"52.24N","longitude":"5.26E"}
{"date":"2013-09-01","city":"Tirunelveli","latitude":"8.84N","longitude":"77.03E"}
{"date":"2010-05-01","average_temperature":"22.848000000000003","city":"Toamasina","latitude":"18.48S","longitude":"49.01E"}
{"date":"2011-10-01","average_temperature":"22.836","city":"Toamasina","latitude":"18.48S","longitude":"49.01E"}
{"date":"2011-07-01","average_temperature":"25.892","city":"Toledo","latitude":"40.99N","longitude":"83.08W"}
{"date":"2012-03-01","average_temperature":"-4.844999999999999","city":"Tomsk","latitude":"57.05N","longitude":"84.10E"}
{"date":"2012-09-01","average_temperature":"24.467","city":"Tondabayashi","latitude":"34.56N","longitude":"136.22E"}
{"date":"2012-11-01","average_temperature":"11.014000000000001","city":"Tondabayashi","latitude":"34.56N","longitude":"136.22E"}
{"date":"2010-06-01","average_temperature":"24.723000000000003","city":"Tongling","latitude":"31.35N","longitude":"118.74E"}
{"date":"2012-10-01","average_temperature":"17.55","city":"Tottori","latitude":"34.56N","longitude":"134.27E"}
{"date":"2013-05-01","average_temperature":"15.33","city":"Toulon","latitude":"42.59N","longitude":"6.55E"}
{"date":"2010-03-01","average_temperature":"7.275","city":"Tours","latitude":"47.42N","longitude":"1.18E"}
{"date":"2011-12-01","average_temperature":"6.476","city":"Toyonaka","latitude":"34.56N","longitude":"136.22E"}
{"date":"2012-05-01","average_temperature":"31.434","city":"Trincomalee","latitude":"8.84N","longitude":"81.89E"}
{"date":"2010-11-01","average_temperature":"1.253","city":"Trois Rivières","latitude":"45.81N","longitude":"72.69W"}
{"date":"2010-05-01","average_temperature":"23.761000000000006","city":"Tucheng","latitude":"24.92N","longitude":"120.59E"}
{"date":"2010-06-01","average_temperature":"13.85","city":"Tucuman","latitude":"26.52S","longitude":"64.48W"}
{"date":"2010-05-01","average_temperature":"29.816","city":"Tungi","latitude":"23.31N","longitude":"90.00E"}
{"date":"2010-04-01","average_temperature":"27.1","city":"Turmero","latitude":"10.45N","longitude":"67.91W"}
{"date":"2010-05-01","average_temperature":"27.631999999999998","city":"Turmero","latitude":"10.45N","longitude":"67.91W"}
{"date":"2010-03-01","average_temperature":"29.616000000000003","city":"Ubon Ratchathani","latitude":"15.27N","longitude":"104.17E"}
{"date":"2011-01-01","average_temperature":"-14.674000000000001","city":"Ufa","latitude":"55.45N","longitude":"56.69E"}
{"date":"2011-02-01","average_temperature":"-18.692999999999998","city":"Ulan Ude","latitude":"52.24N","longitude":"107.74E"}
{"date":"2011-12-01","average_temperature":"-15.038","city":"Ussuriysk","latitude":"44.20N","longitude":"131.93E"}
{"date":"2012-09-01","average_temperature":"15.616","city":"Uzhhorod","latitude":"49.03N","longitude":"22.04E"}
{"date":"2013-09-01","city":"Västerås","latitude":"60.27N","longitude":"16.22E"}
{"date":"2011-03-01","average_temperature":"6.584","city":"Van","latitude":"37.78N","longitude":"42.71E"}
{"date":"2013-07-01","average_temperature":"27.342","city":"Van","latitude":"37.78N","longitude":"42.71E"}
{"date":"2011-09-01","average_temperature":"16.574","city":"Vanadzor","latitude":"40.99N","longitude":"44.73E"}
{"date":"2012-11-01","average_temperature":"4.38","city":"Vancouver","latitude":"49.03N","longitude":"122.45W"}
{"date":"2011-12-01","average_temperature":"3.4410000000000003","city":"Vancouver","latitude":"45.81N","longitude":"123.46W"}
{"date":"2012-02-01","average_temperature":"19.42","city":"Varanasi","latitude":"24.92N","longitude":"83.35E"}
{"date":"2013-09-01","city":"Varginha","latitude":"21.70S","longitude":"45.87W"}
{"date":"2013-08-01","average_temperature":"16.733999999999998","city":"Velikie Luki","latitude":"57.05N","longitude":"30.98E"}
{"date":"2012-04-01","average_temperature":"25.405","city":"Veracruz","latitude":"18.48N","longitude":"96.34W"}
{"date":"2013-05-01","average_temperature":"31.287","city":"Veraval","latitude":"21.70N","longitude":"70.10E"}
{"date":"2011-07-01","average_temperature":"18.168000000000006","city":"Vigo","latitude":"42.59N","longitude":"8.73W"}
{"date":"2010-08-01","average_temperature":"28.174","city":"Vinh Long","latitude":"10.45N","longitude":"105.55E"}
{"date":"2011-03-01","average_temperature":"-3.543","city":"Vladimir","latitude":"55.45N","longitude":"39.69E"}
{"date":"2011-05-01","average_temperature":"17.427","city":"Volgodonsk","latitude":"47.42N","longitude":"41.45E"}
{"date":"2010-12-01","average_temperature":"-4.347","city":"Voronezh","latitude":"52.24N","longitude":"39.42E"}
{"date":"2010-02-01","average_temperature":"21.434","city":"Vryheid","latitude":"28.13S","longitude":"30.00E"}
{"date":"2012-06-01","average_temperature":"29.149","city":"Wah","latitude":"34.56N","longitude":"72.00E"}
{"date":"2013-07-01","average_temperature":"27.779","city":"Warangal","latitude":"18.48N","longitude":"79.44E"}
{"date":"2011-07-01","average_temperature":"26.895000000000003","city":"Washington","latitude":"39.38N","longitude":"76.99W"}
{"date":"2011-01-01","average_temperature":"-4.7189999999999985","city":"Weifang","latitude":"36.17N","longitude":"119.34E"}
{"date":"2011-06-01","average_temperature":"18.738","city":"Wencheng","latitude":"37.78N","longitude":"122.03E"}
{"date":"2010-04-01","average_temperature":"12.283","city":"West Covina","latitude":"34.56N","longitude":"118.70W"}
{"date":"2011-06-01","average_temperature":"19.339000000000002","city":"West Covina","latitude":"34.56N","longitude":"118.70W"}
{"date":"2013-07-01","average_temperature":"22.065","city":"Westminster","latitude":"39.38N","longitude":"104.05W"}
{"date":"2012-03-01","average_temperature":"21.101999999999997","city":"Westonaria","latitude":"26.52S","longitude":"26.87E"}
{"date":"2010-07-01","average_temperature":"28.368000000000002","city":"Wichita Falls","latitude":"34.56N","longitude":"99.24W"}
{"date":"2013-02-01","average_temperature":"-0.8959999999999999","city":"Wiesbaden","latitude":"50.63N","longitude":"8.87E"}
{"date":"2010-08-01","average_temperature":"18.569000000000003","city":"Winnipeg","latitude":"50.63N","longitude":"97.61W"}
{"date":"2013-04-01","average_temperature":"7.939","city":"Wroclaw","latitude":"50.63N","longitude":"16.48E"}
{"date":"2010-03-01","average_temperature":"19.025","city":"Xalapa","latitude":"20.09N","longitude":"97.25W"}
{"date":"2011-02-01","average_temperature":"8.505","city":"Xiangdong","latitude":"28.13N","longitude":"113.64E"}
{"date":"2011-09-01","average_temperature":"17.301","city":"Xico","latitude":"20.09N","longitude":"98.96W"}
{"date":"2013-03-01","average_temperature":"15.65","city":"Xico","latitude":"20.09N","longitude":"98.96W"}
{"date":"2011-02-01","average_temperature":"5.585","city":"Xuanzhou","latitude":"31.35N","longitude":"118.74E"}
{"date":"2011-05-01","average_temperature":"21.901","city":"Xuanzhou","latitude":"31.35N","longitude":"118.74E"}
{"date":"2012-05-01","average_temperature":"22.495","city":"Xuchang","latitude":"34.56N","longitude":"112.86E"}
{"date":"2011-05-01","average_temperature":"16.147000000000002","city":"Yachiyo","latitude":"36.17N","longitude":"139.23E"}
{"date":"2013-09-01","city":"Yanan","latitude":"36.17N","longitude":"109.39E"}
{"date":"2012-09-01","average_temperature":"14.093","city":"Yanji","latitude":"42.59N","longitude":"128.73E"}
{"date":"2012-02-01","average_temperature":"4.122","city":"Yatsushiro","latitude":"32.95N","longitude":"131.17E"}
{"date":"2011-02-01","average_temperature":"-2.075","city":"Yevpatoriya","latitude":"45.81N","longitude":"33.46E"}
{"date":"2011-07-01","average_temperature":"29.339000000000002","city":"Yichun","latitude":"28.13N","longitude":"113.64E"}
{"date":"2011-05-01","average_temperature":"22.232","city":"Yingcheng","latitude":"24.92N","longitude":"113.50E"}
{"date":"2012-10-01","average_temperature":"28.258000000000006","city":"Yogyakarta","latitude":"7.23S","longitude":"111.08E"}
{"date":"2011-10-01","average_temperature":"17.774","city":"Yokkaichi","latitude":"34.56N","longitude":"136.22E"}
{"date":"2013-04-01","average_temperature":"20.64","city":"Yungho","latitude":"24.92N","longitude":"122.36E"}
{"date":"2011-04-01","average_temperature":"22.14","city":"Zamora","latitude":"20.09N","longitude":"102.37W"}
{"date":"2010-01-01","average_temperature":"-1.253","city":"Zhangdian","latitude":"36.17N","longitude":"117.35E"}
{"date":"2010-12-01","average_temperature":"14.921","city":"Zhaoqing","latitude":"23.31N","longitude":"112.72E"}
{"date":"2012-02-01","average_temperature":"2.333","city":"Zhenjiang","latitude":"32.95N","longitude":"119.68E"}
{"date":"2011-03-01","average_temperature":"-6.932","city":"Zlatoust","latitude":"55.45N","longitude":"59.53E"}
{"date":"2013-06-01","average_temperature":"23.67","city":"Zunyi","latitude":"28.13N","longitude":"106.36E"}
