{"date":"2012-01-01","average_temperature":"1.9780000000000002","city":"Århus","latitude":"57.05N","longitude":"10.33E"}
{"date":"2012-01-01","average_temperature":"-1.455","city":"Çorum","latitude":"40.99N","longitude":"34.08E"}
{"date":"2010-11-01","average_temperature":"2.218","city":"Aalborg","latitude":"57.05N","longitude":"10.33E"}
{"date":"2012-01-01","average_temperature":"13.087","city":"Abadan","latitude":"29.74N","longitude":"48.00E"}
{"date":"2010-07-01","average_temperature":"18.175","city":"Abakan","latitude":"53.84N","longitude":"91.36E"}
{"date":"2012-11-01","average_temperature":"13.892000000000001","city":"Abilene","latitude":"32.95N","longitude":"100.53W"}
{"date":"2011-07-01","average_temperature":"33.302","city":"Abohar","latitude":"29.74N","longitude":"73.85E"}
{"date":"2010-07-01","average_temperature":"16.817999999999998","city":"Achinsk","latitude":"57.05N","longitude":"90.00E"}
{"date":"2010-09-01","average_temperature":"28.05","city":"Adana","latitude":"36.17N","longitude":"35.80E"}
{"date":"2013-02-01","average_temperature":"20.047","city":"Addis Abeba","latitude":"8.84N","longitude":"38.11E"}
{"date":"2011-02-01","average_temperature":"26.252","city":"Adiwerna","latitude":"7.23S","longitude":"109.46E"}
{"date":"2012-09-01","average_temperature":"26.875999999999998","city":"Adiwerna","latitude":"7.23S","longitude":"109.46E"}
{"date":"2011-02-01","average_temperature":"13.91","city":"Ahvaz","latitude":"31.35N","longitude":"49.01E"}
{"date":"2011-11-01","average_temperature":"9.748","city":"Aix En Provence","latitude":"44.20N","longitude":"4.47E"}
{"date":"2010-04-01","average_temperature":"33.823","city":"Akola","latitude":"20.09N","longitude":"76.78E"}
{"date":"2011-04-01","average_temperature":"26.741","city":"Akyab","latitude":"20.09N","longitude":"92.13E"}
{"date":"2011-10-01","average_temperature":"25.793000000000003","city":"Alagoinhas","latitude":"12.05S","longitude":"37.81W"}
{"date":"2012-11-01","average_temperature":"27.453000000000007","city":"Alandur","latitude":"13.66N","longitude":"80.09E"}
{"date":"2011-02-01","average_temperature":"5.803999999999999","city":"Alcobendas","latitude":"40.99N","longitude":"4.26W"}
{"date":"2011-03-01","average_temperature":"14.164000000000001","city":"Algeciras","latitude":"36.17N","longitude":"5.97W"}
{"date":"2012-09-01","average_temperature":"14.763","city":"Almaty","latitude":"42.59N","longitude":"76.36E"}
{"date":"2010-06-01","average_temperature":"28.838","city":"Alor Setar","latitude":"5.63N","longitude":"100.09E"}
{"date":"2011-05-01","average_temperature":"11.443","city":"Altay","latitude":"47.42N","longitude":"88.82E"}
{"date":"2012-11-01","average_temperature":"21.110000000000007","city":"Alwar","latitude":"28.13N","longitude":"77.27E"}
{"date":"2011-08-01","average_temperature":"17.831","city":"Ambato","latitude":"0.80S","longitude":"77.95W"}
{"date":"2011-06-01","average_temperature":"25.625","city":"Ambon","latitude":"4.02S","longitude":"127.77E"}
{"date":"2013-07-01","average_temperature":"25.565","city":"Ambon","latitude":"4.02S","longitude":"127.77E"}
{"date":"2013-09-01","city":"Anand","latitude":"23.31N","longitude":"72.52E"}
{"date":"2010-02-01","average_temperature":"28.145","city":"Ananindeua","latitude":"0.80S","longitude":"49.02W"}
{"date":"2011-09-01","average_temperature":"28.13","city":"Ananindeua","latitude":"0.80S","longitude":"49.02W"}
{"date":"2013-05-01","average_temperature":"16.041","city":"Ancona","latitude":"44.20N","longitude":"13.42E"}
{"date":"2010-05-01","average_temperature":"17.194000000000003","city":"Andijon","latitude":"40.99N","longitude":"72.43E"}
{"date":"2010-09-01","average_temperature":"19.701","city":"Ankang","latitude":"32.95N","longitude":"108.19E"}
{"date":"2012-03-01","average_temperature":"22.254","city":"Antsirabe","latitude":"20.09S","longitude":"47.77E"}
{"date":"2012-03-01","average_temperature":"8.833","city":"Antwerp","latitude":"50.63N","longitude":"3.80E"}
{"date":"2012-08-01","average_temperature":"21.732","city":"Apucarana","latitude":"23.31S","longitude":"51.55W"}
{"date":"2012-04-01","average_temperature":"24.671999999999997","city":"Araçatuba","latitude":"21.70S","longitude":"51.06W"}
{"date":"2011-03-01","average_temperature":"9.599","city":"Asgabat","latitude":"37.78N","longitude":"58.98E"}
{"date":"2011-06-01","average_temperature":"27.417","city":"Asmara","latitude":"15.27N","longitude":"39.17E"}
{"date":"2011-08-01","average_temperature":"24.968000000000004","city":"Astrakhan","latitude":"45.81N","longitude":"47.31E"}
{"date":"2012-12-01","average_temperature":"-3.592","city":"Astrakhan","latitude":"45.81N","longitude":"47.31E"}
{"date":"2013-09-01","city":"Asunción","latitude":"24.92S","longitude":"58.52W"}
{"date":"2011-04-01","average_temperature":"17.192999999999998","city":"Auckland","latitude":"36.17S","longitude":"175.03E"}
{"date":"2013-07-01","average_temperature":"12.345","city":"Auckland","latitude":"36.17S","longitude":"175.03E"}
{"date":"2012-11-01","average_temperature":"2.42","city":"Augsburg","latitude":"47.42N","longitude":"10.66E"}
{"date":"2012-07-01","average_temperature":"19.59","city":"Awassa","latitude":"7.23N","longitude":"38.11E"}
{"date":"2011-10-01","average_temperature":"27.427","city":"Ayer Itam","latitude":"5.63N","longitude":"100.09E"}
{"date":"2012-11-01","average_temperature":"27.879","city":"Ayer Itam","latitude":"5.63N","longitude":"100.09E"}
{"date":"2011-01-01","average_temperature":"14.092","city":"Azamgarh","latitude":"26.52N","longitude":"82.39E"}
{"date":"2011-10-01","average_temperature":"6.899","city":"Badaojiang","latitude":"42.59N","longitude":"126.55E"}
{"date":"2012-07-01","average_temperature":"27.941","city":"Badlapur","latitude":"18.48N","longitude":"72.68E"}
{"date":"2011-11-01","average_temperature":"27.816000000000006","city":"Bago","latitude":"16.87N","longitude":"97.12E"}
{"date":"2010-10-01","average_temperature":"26.070999999999998","city":"Baguio","latitude":"16.87N","longitude":"120.56E"}
{"date":"2012-01-01","average_temperature":"12.291","city":"Bahawalnagar","latitude":"29.74N","longitude":"73.85E"}
{"date":"2011-11-01","average_temperature":"17.951","city":"Bahir Dar","latitude":"12.05N","longitude":"37.81E"}
{"date":"2013-08-01","average_temperature":"25.7","city":"Bakersfield","latitude":"36.17N","longitude":"119.34W"}
{"date":"2012-10-01","average_temperature":"8.129","city":"Balakovo","latitude":"52.24N","longitude":"47.30E"}
{"date":"2012-09-01","average_temperature":"20.69","city":"Bandar E Anzali","latitude":"37.78N","longitude":"48.81E"}
{"date":"2011-09-01","average_temperature":"27.316000000000006","city":"Bandar Maharani","latitude":"2.41N","longitude":"102.05E"}
{"date":"2012-04-01","average_temperature":"27.44","city":"Bandar Maharani","latitude":"2.41N","longitude":"102.05E"}
{"date":"2010-09-01","average_temperature":"26.837","city":"Bandar Penggaram","latitude":"2.41N","longitude":"103.66E"}
{"date":"2010-04-01","average_temperature":"26.304","city":"Bandung","latitude":"7.23S","longitude":"107.84E"}
{"date":"2010-11-01","average_temperature":"26.825000000000006","city":"Bangkok","latitude":"13.66N","longitude":"99.91E"}
{"date":"2013-05-01","average_temperature":"30.927","city":"Bangkok","latitude":"13.66N","longitude":"99.91E"}
{"date":"2011-02-01","average_temperature":"0.336","city":"Banja Luka","latitude":"44.20N","longitude":"17.89E"}
{"date":"2011-01-01","average_temperature":"9.165","city":"Bantou","latitude":"24.92N","longitude":"118.82E"}
{"date":"2010-10-01","average_temperature":"26.498","city":"Banyuwangi","latitude":"8.84S","longitude":"114.32E"}
{"date":"2011-05-01","average_temperature":"17.904","city":"Barbacena","latitude":"21.70S","longitude":"44.13W"}
{"date":"2012-01-01","average_temperature":"21.278000000000002","city":"Barbacena","latitude":"21.70S","longitude":"44.13W"}
{"date":"2012-08-01","average_temperature":"29.762","city":"Barddhaman","latitude":"23.31N","longitude":"88.25E"}
{"date":"2013-08-01","average_temperature":"29.33","city":"Bareli","latitude":"28.13N","longitude":"79.09E"}
{"date":"2010-08-01","average_temperature":"18.262","city":"Barra Mansa","latitude":"21.70S","longitude":"44.13W"}
{"date":"2012-07-01","average_temperature":"26.467","city":"Barrancabermeja","latitude":"7.23N","longitude":"73.78W"}
{"date":"2012-08-01","average_temperature":"21.574","city":"Barretos","latitude":"20.09S","longitude":"47.77W"}
{"date":"2012-01-01","average_temperature":"0.4650000000000003","city":"Basel","latitude":"47.42N","longitude":"8.29E"}
{"date":"2013-03-01","average_temperature":"17.778","city":"Bat Yam","latitude":"31.35N","longitude":"33.93E"}
{"date":"2010-09-01","average_temperature":"25.058000000000003","city":"Bata","latitude":"2.41N","longitude":"10.45E"}
{"date":"2012-01-01","average_temperature":"26.459","city":"Belawan","latitude":"4.02N","longitude":"98.84E"}
{"date":"2010-11-01","average_temperature":"6.1110000000000015","city":"Belfast","latitude":"55.45N","longitude":"5.67W"}
{"date":"2010-06-01","average_temperature":"29.465999999999998","city":"Beni Suef","latitude":"29.74N","longitude":"31.38E"}
{"date":"2013-03-01","average_temperature":"19.695","city":"Beni Suef","latitude":"29.74N","longitude":"31.38E"}
{"date":"2012-04-01","average_temperature":"14.713","city":"Benoni","latitude":"26.52S","longitude":"28.66E"}
{"date":"2011-05-01","average_temperature":"19.195","city":"Beppu","latitude":"32.95N","longitude":"131.17E"}
{"date":"2010-03-01","average_temperature":"-2.0660000000000003","city":"Bergen","latitude":"60.27N","longitude":"6.49E"}
{"date":"2012-03-01","average_temperature":"0.8820000000000001","city":"Bergen","latitude":"60.27N","longitude":"6.49E"}
{"date":"2011-07-01","average_temperature":"15.847000000000001","city":"Bergisch Gladbach","latitude":"50.63N","longitude":"6.34E"}
{"date":"2011-03-01","average_temperature":"25.789","city":"Bertoua","latitude":"4.02N","longitude":"13.66E"}
{"date":"2013-07-01","average_temperature":"27.305999999999997","city":"Bharuch","latitude":"21.70N","longitude":"73.56E"}
{"date":"2010-05-01","average_temperature":"33.783","city":"Bhavnagar","latitude":"21.70N","longitude":"71.83E"}
{"date":"2010-09-01","average_temperature":"28.424","city":"Bhavnagar","latitude":"21.70N","longitude":"71.83E"}
{"date":"2010-09-01","average_temperature":"27.67","city":"Bhilai","latitude":"21.70N","longitude":"82.21E"}
{"date":"2010-11-01","average_temperature":"24.322","city":"Bhilai","latitude":"21.70N","longitude":"82.21E"}
{"date":"2012-04-01","average_temperature":"31.006","city":"Bhubaneswar","latitude":"20.09N","longitude":"85.31E"}
{"date":"2011-04-01","average_temperature":"9.088","city":"Bialystok","latitude":"53.84N","longitude":"23.18E"}
{"date":"2013-07-01","average_temperature":"26.337","city":"Bida","latitude":"8.84N","longitude":"5.68E"}
{"date":"2011-09-01","average_temperature":"15.424000000000001","city":"Bila Tserkva","latitude":"49.03N","longitude":"29.39E"}
{"date":"2012-10-01","average_temperature":"27.002","city":"Binjai","latitude":"4.02N","longitude":"98.84E"}
{"date":"2012-01-01","average_temperature":"-3.032","city":"Binzhou","latitude":"37.78N","longitude":"117.97E"}
{"date":"2011-09-01","average_temperature":"25.836","city":"Biratnagar","latitude":"26.52N","longitude":"87.76E"}
{"date":"2012-06-01","average_temperature":"27.239","city":"Biratnagar","latitude":"26.52N","longitude":"87.76E"}
{"date":"2010-11-01","average_temperature":"23.071","city":"Birganj","latitude":"26.52N","longitude":"84.18E"}
{"date":"2012-04-01","average_temperature":"3.4789999999999996","city":"Blagoveshchensk","latitude":"50.63N","longitude":"128.03E"}
{"date":"2013-04-01","average_temperature":"1.861","city":"Blagoveshchensk","latitude":"50.63N","longitude":"128.03E"}
{"date":"2013-04-01","average_temperature":"28.088","city":"Boa Vista","latitude":"2.41N","longitude":"60.27W"}
{"date":"2011-08-01","average_temperature":"15.155999999999999","city":"Bolton","latitude":"53.84N","longitude":"1.36W"}
{"date":"2010-12-01","average_temperature":"-2.423","city":"Bonn","latitude":"50.63N","longitude":"6.34E"}
{"date":"2010-05-01","average_temperature":"14.613","city":"Bordeaux","latitude":"44.20N","longitude":"0.00W"}
{"date":"2010-12-01","average_temperature":"2.346","city":"Borujerd","latitude":"34.56N","longitude":"48.65E"}
{"date":"2012-04-01","average_temperature":"21.351999999999997","city":"Bragança Paulista","latitude":"23.31S","longitude":"46.31W"}
{"date":"2013-09-01","city":"Brakpan","latitude":"26.52S","longitude":"28.66E"}
{"date":"2013-05-01","average_temperature":"22.369","city":"Brasília","latitude":"15.27S","longitude":"47.50W"}
{"date":"2012-12-01","average_temperature":"7.862","city":"Brighton","latitude":"50.63N","longitude":"1.27W"}
{"date":"2012-08-01","average_temperature":"16.253","city":"Brisbane","latitude":"28.13S","longitude":"153.64E"}
{"date":"2011-02-01","average_temperature":"-1.401","city":"Bucharest","latitude":"44.20N","longitude":"26.83E"}
{"date":"2012-11-01","average_temperature":"7.7799999999999985","city":"Bucharest","latitude":"44.20N","longitude":"26.83E"}
{"date":"2011-06-01","average_temperature":"21.291999999999998","city":"Bukavu","latitude":"2.41S","longitude":"28.13E"}
{"date":"2011-10-01","average_temperature":"20.592","city":"Bukavu","latitude":"2.41S","longitude":"28.13E"}
{"date":"2010-08-01","average_temperature":"27.101","city":"Bulaon","latitude":"15.27N","longitude":"120.83E"}
{"date":"2010-12-01","average_temperature":"22.494","city":"Buon Me Thuot","latitude":"12.05N","longitude":"108.49E"}
{"date":"2010-03-01","average_temperature":"22.537","city":"Buraydah","latitude":"26.52N","longitude":"44.78E"}
{"date":"2013-03-01","average_temperature":"28.92","city":"Butterworth","latitude":"5.63N","longitude":"100.09E"}
{"date":"2012-07-01","average_temperature":"23.049","city":"Buzau","latitude":"45.81N","longitude":"26.54E"}
{"date":"2012-01-01","average_temperature":"-1.5120000000000005","city":"Bydgoszcz","latitude":"53.84N","longitude":"17.73E"}
{"date":"2010-08-01","average_temperature":"28.841","city":"Córdoba","latitude":"37.78N","longitude":"4.07W"}
{"date":"2012-04-01","average_temperature":"25.975","city":"Cúa","latitude":"10.45N","longitude":"66.27W"}
{"date":"2013-06-01","average_temperature":"28.392","city":"Cairo","latitude":"29.74N","longitude":"31.38E"}
{"date":"2013-02-01","average_temperature":"17.529999999999998","city":"Cajamarca","latitude":"7.23S","longitude":"78.65W"}
{"date":"2013-05-01","average_temperature":"27.219","city":"Calabar","latitude":"5.63N","longitude":"8.07E"}
{"date":"2010-01-01","average_temperature":"25.092","city":"Calamba","latitude":"13.66N","longitude":"121.38E"}
{"date":"2013-06-01","average_temperature":"14.794","city":"Calgary","latitude":"50.63N","longitude":"112.82W"}
{"date":"2011-11-01","average_temperature":"22.443","city":"Cam Pha","latitude":"21.70N","longitude":"108.17E"}
{"date":"2010-08-01","average_temperature":"24.014","city":"Camaçari","latitude":"12.05S","longitude":"37.81W"}
{"date":"2011-02-01","average_temperature":"27.566000000000006","city":"Camaçari","latitude":"12.05S","longitude":"37.81W"}
{"date":"2011-10-01","average_temperature":"26.013","city":"Camaragibe","latitude":"7.23S","longitude":"34.86W"}
{"date":"2010-10-01","average_temperature":"26.423","city":"Campina Grande","latitude":"7.23S","longitude":"36.49W"}
{"date":"2013-01-01","average_temperature":"22.503","city":"Campinas","latitude":"23.31S","longitude":"46.31W"}
{"date":"2013-09-01","city":"Campinas","latitude":"23.31S","longitude":"46.31W"}
{"date":"2010-07-01","average_temperature":"5.114","city":"Canberra","latitude":"36.17S","longitude":"149.17E"}
{"date":"2010-09-01","average_temperature":"8.839","city":"Canberra","latitude":"36.17S","longitude":"149.17E"}
{"date":"2011-03-01","average_temperature":"16.177999999999994","city":"Canberra","latitude":"36.17S","longitude":"149.17E"}
{"date":"2011-05-01","average_temperature":"15.638","city":"Canoas","latitude":"29.74S","longitude":"51.69W"}
{"date":"2012-04-01","average_temperature":"27.84","city":"Cape Coast","latitude":"5.63N","longitude":"1.61W"}
{"date":"2011-01-01","average_temperature":"28.118000000000002","city":"Capiatá","latitude":"24.92S","longitude":"56.75W"}
{"date":"2012-12-01","average_temperature":"28.808000000000003","city":"Capiatá","latitude":"24.92S","longitude":"56.75W"}
{"date":"2011-06-01","average_temperature":"27.199","city":"Carúpano","latitude":"10.45N","longitude":"63.00W"}
{"date":"2013-07-01","average_temperature":"27.266","city":"Cavite","latitude":"15.27N","longitude":"120.83E"}
{"date":"2011-01-01","average_temperature":"25.493000000000002","city":"Caxias Do Sul","latitude":"29.74S","longitude":"51.69W"}
{"date":"2010-12-01","average_temperature":"27.302","city":"Cebu","latitude":"10.45N","longitude":"123.55E"}
{"date":"2012-08-01","average_temperature":"29.762","city":"Chandannagar","latitude":"23.31N","longitude":"88.25E"}
{"date":"2012-04-01","average_temperature":"17.945","city":"Changde","latitude":"28.13N","longitude":"111.82E"}
{"date":"2012-09-01","average_temperature":"17.64","city":"Changji","latitude":"44.20N","longitude":"87.20E"}
{"date":"2011-07-01","average_temperature":"29.253","city":"Changzhou","latitude":"31.35N","longitude":"120.63E"}
{"date":"2011-06-01","average_temperature":"27.846999999999998","city":"Charleston","latitude":"32.95N","longitude":"79.47W"}
{"date":"2010-11-01","average_temperature":"10.995","city":"Chattanooga","latitude":"34.56N","longitude":"85.62W"}
{"date":"2010-03-01","average_temperature":"24.9","city":"Chetumal","latitude":"18.48N","longitude":"87.89W"}
{"date":"2011-01-01","average_temperature":"24.921999999999997","city":"Chetumal","latitude":"18.48N","longitude":"87.89W"}
{"date":"2010-06-01","average_temperature":"32.548","city":"Chhapra","latitude":"26.52N","longitude":"84.18E"}
{"date":"2011-07-01","average_temperature":"19.221","city":"Chiclayo","latitude":"7.23S","longitude":"80.27W"}
{"date":"2012-03-01","average_temperature":"25.414","city":"Chiclayo","latitude":"7.23S","longitude":"80.27W"}
{"date":"2010-08-01","average_temperature":"22.5","city":"Chifeng","latitude":"42.59N","longitude":"120.00E"}
{"date":"2010-03-01","average_temperature":"22.359","city":"Chilpancingo","latitude":"18.48N","longitude":"99.72W"}
{"date":"2010-03-01","average_temperature":"16.090999999999998","city":"Chimalhuacán","latitude":"20.09N","longitude":"98.96W"}
{"date":"2012-09-01","average_temperature":"17.374000000000002","city":"Chimalhuacán","latitude":"20.09N","longitude":"98.96W"}
{"date":"2012-12-01","average_temperature":"13.396","city":"Chimalhuacán","latitude":"20.09N","longitude":"98.96W"}
{"date":"2011-07-01","average_temperature":"28.668000000000003","city":"Chinandega","latitude":"12.05N","longitude":"87.12W"}
{"date":"2011-07-01","average_temperature":"34.729","city":"Chishtian Mandi","latitude":"29.74N","longitude":"72.00E"}
{"date":"2010-01-01","average_temperature":"20.45","city":"Chosica","latitude":"12.05S","longitude":"77.26W"}
{"date":"2012-06-01","average_temperature":"6.428","city":"Christchurch","latitude":"44.20S","longitude":"172.17E"}
{"date":"2012-10-01","average_temperature":"26.519","city":"Ciego De Ávila","latitude":"21.70N","longitude":"78.75W"}
{"date":"2013-04-01","average_temperature":"26.320999999999998","city":"Ciego De Ávila","latitude":"21.70N","longitude":"78.75W"}
{"date":"2012-06-01","average_temperature":"20.787","city":"Cluj Napoca","latitude":"47.42N","longitude":"22.50E"}
{"date":"2013-06-01","average_temperature":"19.869","city":"Cluj Napoca","latitude":"47.42N","longitude":"22.50E"}
{"date":"2011-01-01","average_temperature":"23.064","city":"Coatzacoalcos","latitude":"18.48N","longitude":"94.65W"}
{"date":"2012-11-01","average_temperature":"6.827999999999999","city":"Colchester","latitude":"52.24N","longitude":"0.00W"}
{"date":"2013-02-01","average_temperature":"19.723","city":"Colima","latitude":"20.09N","longitude":"104.08W"}
{"date":"2013-06-01","average_temperature":"15.589","city":"Cologne","latitude":"50.63N","longitude":"6.34E"}
{"date":"2010-01-01","average_temperature":"4.369","city":"Columbus","latitude":"32.95N","longitude":"85.21W"}
{"date":"2012-06-01","average_temperature":"24.891","city":"Columbus","latitude":"32.95N","longitude":"85.21W"}
{"date":"2011-09-01","average_temperature":"17.326","city":"Concordia","latitude":"31.35S","longitude":"58.43W"}
{"date":"2013-01-01","average_temperature":"23.094","city":"Contagem","latitude":"20.09S","longitude":"44.36W"}
{"date":"2012-09-01","average_temperature":"13.947000000000001","city":"Copenhagen","latitude":"55.45N","longitude":"11.34E"}
{"date":"2010-12-01","average_temperature":"14.338","city":"Costa Mesa","latitude":"32.95N","longitude":"117.77W"}
{"date":"2011-08-01","average_temperature":"20.003","city":"Costa Mesa","latitude":"32.95N","longitude":"117.77W"}
{"date":"2011-11-01","average_temperature":"2.625","city":"Craiova","latitude":"44.20N","longitude":"24.60E"}
{"date":"2012-04-01","average_temperature":"23.462","city":"Cuautla","latitude":"18.48N","longitude":"99.72W"}
{"date":"2012-11-01","average_temperature":"25.311999999999998","city":"Da Nang","latitude":"15.27N","longitude":"107.50E"}
{"date":"2010-08-01","average_temperature":"32.565999999999995","city":"Dadu","latitude":"26.52N","longitude":"68.06E"}
{"date":"2011-12-01","average_temperature":"6.476","city":"Daito","latitude":"34.56N","longitude":"136.22E"}
{"date":"2012-06-01","average_temperature":"17.833","city":"Dali","latitude":"26.52N","longitude":"100.30E"}
{"date":"2012-02-01","average_temperature":"27.154","city":"Daloa","latitude":"7.23N","longitude":"5.68W"}
{"date":"2011-11-01","average_temperature":"7.619999999999999","city":"Dandong","latitude":"39.38N","longitude":"124.86E"}
{"date":"2011-06-01","average_temperature":"28.231","city":"Danshui","latitude":"23.31N","longitude":"114.47E"}
{"date":"2012-02-01","average_temperature":"13.161","city":"Daska","latitude":"32.95N","longitude":"73.72E"}
{"date":"2011-12-01","average_temperature":"-1.995","city":"Dasoguz","latitude":"40.99N","longitude":"59.64E"}
{"date":"2013-07-01","average_temperature":"30.195999999999998","city":"Dasoguz","latitude":"40.99N","longitude":"59.64E"}
{"date":"2011-04-01","average_temperature":"8.083","city":"Daugavpils","latitude":"55.45N","longitude":"25.51E"}
{"date":"2011-01-01","average_temperature":"-3.1639999999999997","city":"Dayton","latitude":"39.38N","longitude":"83.24W"}
{"date":"2013-08-01","average_temperature":"22.354000000000006","city":"Dayton","latitude":"39.38N","longitude":"83.24W"}
{"date":"2013-05-01","average_temperature":"32.561","city":"Dehra Dun","latitude":"29.74N","longitude":"77.54E"}
{"date":"2011-10-01","average_temperature":"9.241","city":"Dehui","latitude":"44.20N","longitude":"125.22E"}
{"date":"2011-10-01","average_temperature":"27.331999999999997","city":"Depok","latitude":"7.23S","longitude":"109.46E"}
{"date":"2011-04-01","average_temperature":"11.12","city":"Derby","latitude":"53.84N","longitude":"1.36W"}
{"date":"2011-05-01","average_temperature":"29.425","city":"Diourbel","latitude":"15.27N","longitude":"15.83W"}
{"date":"2012-07-01","average_temperature":"28.734","city":"Dongtai","latitude":"32.95N","longitude":"119.68E"}
{"date":"2012-07-01","average_temperature":"29.888","city":"Duma","latitude":"32.95N","longitude":"37.34E"}
{"date":"2011-01-01","average_temperature":"27.229","city":"Duque De Caxias","latitude":"23.31S","longitude":"42.82W"}
{"date":"2010-11-01","average_temperature":"13.783","city":"Durango","latitude":"24.92N","longitude":"104.63W"}
{"date":"2010-11-01","average_temperature":"2.985","city":"Dushanbe","latitude":"39.38N","longitude":"68.67E"}
{"date":"2011-12-01","average_temperature":"8.591000000000001","city":"Eastbourne","latitude":"50.63N","longitude":"1.27E"}
{"date":"2013-09-01","city":"Ebetsu","latitude":"42.59N","longitude":"141.82E"}
{"date":"2012-07-01","average_temperature":"17.525000000000002","city":"Ecatepec","latitude":"20.09N","longitude":"98.96W"}
{"date":"2012-09-01","average_temperature":"26.622","city":"El Limón","latitude":"10.45N","longitude":"67.91W"}
{"date":"2010-08-01","average_temperature":"23.545","city":"El Monte","latitude":"34.56N","longitude":"118.70W"}
{"date":"2010-06-01","average_temperature":"27.623","city":"El Tigre","latitude":"8.84N","longitude":"64.05W"}
{"date":"2010-02-01","average_temperature":"-1.456","city":"Elizabeth","latitude":"40.99N","longitude":"74.56W"}
{"date":"2013-08-01","average_temperature":"28.576","city":"Eluru","latitude":"16.87N","longitude":"80.37E"}
{"date":"2010-03-01","average_temperature":"20.211","city":"Encheng","latitude":"21.70N","longitude":"111.63E"}
{"date":"2013-05-01","average_temperature":"17.285999999999998","city":"Ensenada","latitude":"31.35N","longitude":"116.86W"}
{"date":"2011-12-01","average_temperature":"3.756","city":"Erlangen","latitude":"49.03N","longitude":"9.80E"}
{"date":"2010-10-01","average_temperature":"9.193999999999999","city":"Essen","latitude":"50.63N","longitude":"6.34E"}
{"date":"2010-09-01","average_temperature":"28.522","city":"Etawah","latitude":"26.52N","longitude":"78.81E"}
{"date":"2011-06-01","average_temperature":"34.013000000000005","city":"Faisalabad","latitude":"31.35N","longitude":"73.51E"}
{"date":"2012-07-01","average_temperature":"30.291","city":"Faizabad","latitude":"26.52N","longitude":"82.39E"}
{"date":"2010-02-01","average_temperature":"19.005","city":"Farrukhabad","latitude":"28.13N","longitude":"79.09E"}
{"date":"2013-04-01","average_temperature":"17.496","city":"Fontana","latitude":"34.56N","longitude":"116.76W"}
{"date":"2012-01-01","average_temperature":"10.989","city":"Foshan","latitude":"23.31N","longitude":"112.72E"}
{"date":"2010-12-01","average_temperature":"25.433000000000003","city":"Foz Do Iguaçu","latitude":"24.92S","longitude":"54.98W"}
{"date":"2010-12-01","average_temperature":"23.216","city":"Franco Da Rocha","latitude":"23.31S","longitude":"46.31W"}
{"date":"2013-09-01","city":"Frankfurt","latitude":"50.63N","longitude":"8.87E"}
{"date":"2013-05-01","average_temperature":"9.4","city":"Freiburg","latitude":"47.42N","longitude":"8.29E"}
{"date":"2010-05-01","average_temperature":"16.337","city":"Fuchu","latitude":"36.17N","longitude":"139.23E"}
{"date":"2011-06-01","average_temperature":"21.085","city":"Fukaya","latitude":"36.17N","longitude":"139.23E"}
{"date":"2012-01-01","average_temperature":"-11.977","city":"Fushun","latitude":"40.99N","longitude":"123.55E"}
{"date":"2013-04-01","average_temperature":"6.2940000000000005","city":"Fushun","latitude":"40.99N","longitude":"123.55E"}
{"date":"2013-05-01","average_temperature":"22.284000000000002","city":"Fuyang","latitude":"32.95N","longitude":"115.85E"}
{"date":"2010-07-01","average_temperature":"23.573","city":"Fuyu","latitude":"45.81N","longitude":"125.77E"}
{"date":"2011-10-01","average_temperature":"22.418000000000003","city":"Gaborone","latitude":"24.92S","longitude":"26.60E"}
{"date":"2011-02-01","average_temperature":"9.495","city":"Ganzhou","latitude":"26.52N","longitude":"114.63E"}
{"date":"2010-11-01","average_temperature":"20.951999999999998","city":"Gaozhou","latitude":"21.70N","longitude":"111.63E"}
{"date":"2012-04-01","average_temperature":"34.264","city":"Gashua","latitude":"13.66N","longitude":"10.73E"}
{"date":"2010-12-01","average_temperature":"7.343999999999999","city":"Gaziantep","latitude":"37.78N","longitude":"36.61E"}
{"date":"2012-04-01","average_temperature":"8.676","city":"Gdynia","latitude":"53.84N","longitude":"17.73E"}
{"date":"2010-03-01","average_temperature":"26.953000000000003","city":"Ghaziabad","latitude":"28.13N","longitude":"77.27E"}
{"date":"2013-04-01","average_temperature":"30.117","city":"Ghazipur","latitude":"24.92N","longitude":"83.35E"}
{"date":"2010-08-01","average_temperature":"24.854","city":"Giugliano In Campania","latitude":"40.99N","longitude":"14.91E"}
{"date":"2013-08-01","average_temperature":"28.588","city":"Gizeh","latitude":"29.74N","longitude":"31.38E"}
{"date":"2011-09-01","average_temperature":"12.849","city":"Glasgow","latitude":"55.45N","longitude":"2.83W"}
{"date":"2011-09-01","average_temperature":"22.728","city":"Glendale","latitude":"34.56N","longitude":"118.70W"}
{"date":"2012-11-01","average_temperature":"19.554000000000002","city":"Goma","latitude":"2.41S","longitude":"29.73E"}
{"date":"2013-08-01","average_temperature":"18.901","city":"Gomel","latitude":"52.24N","longitude":"31.53E"}
{"date":"2013-06-01","average_temperature":"27.749","city":"Gonbad E Qabus","latitude":"37.78N","longitude":"54.92E"}
{"date":"2011-11-01","average_temperature":"7.325","city":"Gorgan","latitude":"36.17N","longitude":"53.70E"}
{"date":"2012-09-01","average_temperature":"26.955","city":"Gorontalo","latitude":"0.80N","longitude":"122.95E"}
{"date":"2013-02-01","average_temperature":"23.785","city":"Gravataí","latitude":"29.74S","longitude":"51.69W"}
{"date":"2012-12-01","average_temperature":"18.706","city":"Guadalajara","latitude":"20.09N","longitude":"104.08W"}
{"date":"2010-03-01","average_temperature":"23.445","city":"Guayaquil","latitude":"2.41S","longitude":"79.55W"}
{"date":"2012-08-01","average_temperature":"28.757","city":"Guntur","latitude":"16.87N","longitude":"80.37E"}
{"date":"2010-07-01","average_temperature":"31.259","city":"Gwalior","latitude":"26.52N","longitude":"78.81E"}
{"date":"2012-01-01","average_temperature":"15.38","city":"Hòa Bình","latitude":"20.09N","longitude":"105.78E"}
{"date":"2013-03-01","average_temperature":"2.253","city":"Haarlemmermeer","latitude":"52.24N","longitude":"5.26E"}
{"date":"2012-10-01","average_temperature":"15.722000000000001","city":"Hachioji","latitude":"36.17N","longitude":"139.23E"}
{"date":"2012-11-01","average_temperature":"-1.543","city":"Haibowan","latitude":"39.38N","longitude":"106.13E"}
{"date":"2012-09-01","average_temperature":"26.684","city":"Haicheng","latitude":"23.31N","longitude":"114.47E"}
{"date":"2011-08-01","average_temperature":"29.154","city":"Haimen","latitude":"23.31N","longitude":"116.21E"}
{"date":"2013-09-01","city":"Halisahar","latitude":"23.31N","longitude":"88.25E"}
{"date":"2010-01-01","average_temperature":"7.197","city":"Hamamatsu","latitude":"34.56N","longitude":"138.16E"}
{"date":"2013-05-01","average_temperature":"12.267999999999999","city":"Hamm","latitude":"52.24N","longitude":"7.88E"}
{"date":"2011-06-01","average_temperature":"25.229","city":"Hampton","latitude":"36.17N","longitude":"75.58W"}
{"date":"2013-09-01","city":"Hanumangarh","latitude":"29.74N","longitude":"73.85E"}
{"date":"2013-06-01","average_temperature":"31.236","city":"Hardoi","latitude":"26.52N","longitude":"80.60E"}
{"date":"2010-03-01","average_temperature":"-9.215","city":"Hegang","latitude":"47.42N","longitude":"131.45E"}
{"date":"2010-06-01","average_temperature":"22.358","city":"Heihe","latitude":"50.63N","longitude":"128.03E"}
{"date":"2010-03-01","average_temperature":"-2.9610000000000003","city":"Helsinki","latitude":"60.27N","longitude":"25.95E"}
{"date":"2011-01-01","average_temperature":"17.003999999999998","city":"Hialeah","latitude":"26.52N","longitude":"80.60W"}
{"date":"2010-02-01","average_temperature":"-0.465","city":"Hildesheim","latitude":"52.24N","longitude":"10.51E"}
{"date":"2011-01-01","average_temperature":"2.595","city":"Himeji","latitude":"34.56N","longitude":"134.27E"}
{"date":"2012-07-01","average_temperature":"26.713","city":"Himeji","latitude":"34.56N","longitude":"134.27E"}
{"date":"2012-02-01","average_temperature":"25.574","city":"Hindupur","latitude":"13.66N","longitude":"76.79E"}
{"date":"2013-09-01","city":"Hirakata","latitude":"34.56N","longitude":"136.22E"}
{"date":"2012-03-01","average_temperature":"14.674000000000001","city":"Hobart","latitude":"42.59S","longitude":"148.36E"}
{"date":"2010-09-01","average_temperature":"14.442","city":"Hohhot","latitude":"40.99N","longitude":"110.77E"}
{"date":"2011-03-01","average_temperature":"-2.209","city":"Hohhot","latitude":"40.99N","longitude":"110.77E"}
{"date":"2011-09-01","average_temperature":"23.01","city":"Honghu","latitude":"29.74N","longitude":"112.62E"}
{"date":"2011-07-01","average_temperature":"28.328000000000007","city":"Hsichih","latitude":"24.92N","longitude":"122.36E"}
{"date":"2013-09-01","city":"Hue","latitude":"16.87N","longitude":"107.16E"}
{"date":"2010-06-01","average_temperature":"26.308000000000003","city":"Huizhou","latitude":"23.31N","longitude":"114.47E"}
{"date":"2013-02-01","average_temperature":"-16.209","city":"Hulan","latitude":"45.81N","longitude":"125.77E"}
{"date":"2013-08-01","average_temperature":"20.076","city":"Huntington Beach","latitude":"32.95N","longitude":"117.77W"}
{"date":"2012-12-01","average_temperature":"20.000999999999998","city":"Ibagué","latitude":"4.02N","longitude":"74.73W"}
{"date":"2012-02-01","average_temperature":"16.852999999999998","city":"Ibarra","latitude":"0.80N","longitude":"77.95W"}
{"date":"2011-11-01","average_temperature":"27.399","city":"Ife","latitude":"7.23N","longitude":"4.05E"}
{"date":"2010-11-01","average_temperature":"27.802","city":"Igboho","latitude":"8.84N","longitude":"4.05E"}
{"date":"2013-06-01","average_temperature":"25.591","city":"Ikole","latitude":"7.23N","longitude":"5.68E"}
{"date":"2011-12-01","average_temperature":"26.978","city":"Ikot Ekpene","latitude":"5.63N","longitude":"8.07E"}
{"date":"2010-07-01","average_temperature":"25.302","city":"Ila","latitude":"7.23N","longitude":"5.68E"}
{"date":"2011-05-01","average_temperature":"18.359","city":"Indaiatuba","latitude":"23.31S","longitude":"48.06W"}
{"date":"2012-02-01","average_temperature":"20.89","city":"Ingraj Bazar","latitude":"24.92N","longitude":"88.67E"}
{"date":"2010-07-01","average_temperature":"16.703","city":"Innsbruck","latitude":"47.42N","longitude":"10.66E"}
{"date":"2010-12-01","average_temperature":"-5.354","city":"Innsbruck","latitude":"47.42N","longitude":"10.66E"}
{"date":"2010-05-01","average_temperature":"16.410999999999998","city":"Iquique","latitude":"20.09S","longitude":"69.95W"}
{"date":"2013-05-01","average_temperature":"22.583","city":"Irbid","latitude":"32.95N","longitude":"35.43E"}
{"date":"2012-01-01","average_temperature":"23.857000000000006","city":"Iringa","latitude":"7.23S","longitude":"36.49E"}
{"date":"2010-03-01","average_temperature":"-12.619000000000002","city":"Irkutsk","latitude":"52.24N","longitude":"105.11E"}
{"date":"2010-09-01","average_temperature":"22.414","city":"Iruma","latitude":"36.17N","longitude":"139.23E"}
{"date":"2012-08-01","average_temperature":"22.58","city":"Isiro","latitude":"2.41N","longitude":"28.13E"}
{"date":"2010-09-01","average_temperature":"21.184","city":"Istanbul","latitude":"40.99N","longitude":"29.82E"}
{"date":"2010-06-01","average_temperature":"20.307","city":"Itaguaí","latitude":"23.31S","longitude":"44.56W"}
{"date":"2012-08-01","average_temperature":"27.701","city":"Itami","latitude":"34.56N","longitude":"136.22E"}
{"date":"2012-06-01","average_temperature":"16.064","city":"Ivanovo","latitude":"57.05N","longitude":"39.84E"}
{"date":"2012-11-01","average_temperature":"-0.024000000000000018","city":"Ivanovo","latitude":"57.05N","longitude":"39.84E"}
{"date":"2011-04-01","average_temperature":"9.156","city":"Iwaki","latitude":"37.78N","longitude":"140.34E"}
{"date":"2011-04-01","average_temperature":"12.962","city":"Iwakuni","latitude":"34.56N","longitude":"132.32E"}
{"date":"2010-01-01","average_temperature":"16.008","city":"Jaipur","latitude":"26.52N","longitude":"75.22E"}
{"date":"2012-05-01","average_temperature":"31.816","city":"Jalna","latitude":"20.09N","longitude":"75.07E"}
{"date":"2011-03-01","average_temperature":"21.230999999999998","city":"Jalpaiguri","latitude":"26.52N","longitude":"89.55E"}
{"date":"2013-02-01","average_temperature":"26.166999999999998","city":"Jequié","latitude":"13.66S","longitude":"40.46W"}
{"date":"2013-01-01","average_temperature":"12.140999999999998","city":"Jerusalem","latitude":"31.35N","longitude":"35.81E"}
{"date":"2013-07-01","average_temperature":"34.933","city":"Jhang","latitude":"31.35N","longitude":"71.62E"}
{"date":"2010-09-01","average_temperature":"27.272","city":"Jhansi","latitude":"24.92N","longitude":"78.03E"}
{"date":"2011-09-01","average_temperature":"28.909000000000002","city":"Jhunjhunun","latitude":"28.13N","longitude":"75.45E"}
{"date":"2011-01-01","average_temperature":"24.945","city":"Ji Paraná","latitude":"10.45S","longitude":"61.36W"}
{"date":"2011-02-01","average_temperature":"-12.689","city":"Jiaohe","latitude":"44.20N","longitude":"127.45E"}
{"date":"2012-03-01","average_temperature":"17.848","city":"Jieshi","latitude":"23.31N","longitude":"116.21E"}
{"date":"2010-01-01","average_temperature":"26.61","city":"Jimeta","latitude":"8.84N","longitude":"12.16E"}
{"date":"2011-11-01","average_temperature":"18.96","city":"Jinchengjiang","latitude":"24.92N","longitude":"108.18E"}
{"date":"2012-03-01","average_temperature":"-2.7430000000000003","city":"Jining","latitude":"40.99N","longitude":"112.90E"}
{"date":"2011-08-01","average_temperature":"27.647","city":"Johor Bahru","latitude":"0.80N","longitude":"103.66E"}
{"date":"2013-03-01","average_temperature":"28.053","city":"Johor Bahru","latitude":"0.80N","longitude":"103.66E"}
{"date":"2011-12-01","average_temperature":"26.688","city":"Jolo","latitude":"5.63N","longitude":"119.46E"}
{"date":"2011-12-01","average_temperature":"27.325","city":"Juazeiro Do Norte","latitude":"7.23S","longitude":"39.73W"}
{"date":"2011-02-01","average_temperature":"22.994","city":"Junagadh","latitude":"21.70N","longitude":"70.10E"}
{"date":"2011-09-01","average_temperature":"20.082","city":"Kaifeng","latitude":"34.56N","longitude":"114.81E"}
{"date":"2012-05-01","average_temperature":"15.764000000000001","city":"Kakamigahara","latitude":"36.17N","longitude":"137.24E"}
{"date":"2011-02-01","average_temperature":"25.608","city":"Kampala","latitude":"0.80N","longitude":"32.95E"}
{"date":"2013-05-01","average_temperature":"18.972","city":"Karaj","latitude":"36.17N","longitude":"51.71E"}
{"date":"2012-07-01","average_temperature":"26.26","city":"Kashihara","latitude":"34.56N","longitude":"136.22E"}
{"date":"2011-01-01","average_temperature":"0.8170000000000001","city":"Kashiwa","latitude":"36.17N","longitude":"139.23E"}
{"date":"2013-01-01","average_temperature":"-2.557","city":"Katowice","latitude":"50.63N","longitude":"19.01E"}
{"date":"2010-07-01","average_temperature":"22.543000000000003","city":"Kayseri","latitude":"39.38N","longitude":"35.38E"}
{"date":"2013-02-01","average_temperature":"2.4560000000000004","city":"Kayseri","latitude":"39.38N","longitude":"35.38E"}
{"date":"2011-02-01","average_temperature":"26.805999999999997","city":"Kediri","latitude":"7.23S","longitude":"112.70E"}
{"date":"2010-01-01","average_temperature":"12.075999999999999","city":"Kenitra","latitude":"34.56N","longitude":"5.84W"}
{"date":"2011-12-01","average_temperature":"-20.034000000000002","city":"Khabarovsk","latitude":"49.03N","longitude":"134.69E"}
{"date":"2010-08-01","average_temperature":"30.217","city":"Khanna","latitude":"31.35N","longitude":"75.39E"}
{"date":"2013-07-01","average_temperature":"31.599","city":"Khanna","latitude":"31.35N","longitude":"75.39E"}
{"date":"2010-04-01","average_temperature":"31.873","city":"Kharagpur","latitude":"21.70N","longitude":"87.40E"}
{"date":"2011-09-01","average_temperature":"11.812000000000001","city":"Khimki","latitude":"55.45N","longitude":"36.85E"}
{"date":"2013-09-01","city":"Khushab","latitude":"32.95N","longitude":"71.81E"}
{"date":"2012-09-01","average_temperature":"25.614","city":"Killeen","latitude":"31.35N","longitude":"98.01W"}
{"date":"2012-12-01","average_temperature":"23.401","city":"Kimberley","latitude":"28.13S","longitude":"24.55E"}
{"date":"2010-05-01","average_temperature":"15.231000000000002","city":"Kirov","latitude":"58.66N","longitude":"49.23E"}
{"date":"2010-03-01","average_temperature":"8.894","city":"Kishiwada","latitude":"34.56N","longitude":"136.22E"}
{"date":"2011-01-01","average_temperature":"27.386999999999997","city":"Kismayo","latitude":"0.80S","longitude":"42.59E"}
{"date":"2011-02-01","average_temperature":"-3.571","city":"Klaipeda","latitude":"55.45N","longitude":"19.84E"}
{"date":"2010-10-01","average_temperature":"27.021","city":"Kluang","latitude":"2.41N","longitude":"103.66E"}
{"date":"2012-09-01","average_temperature":"19.848000000000006","city":"Knoxville","latitude":"36.17N","longitude":"83.54W"}
{"date":"2011-08-01","average_temperature":"27.664","city":"Kobe","latitude":"34.56N","longitude":"134.27E"}
{"date":"2010-03-01","average_temperature":"5.355","city":"Koblenz","latitude":"50.63N","longitude":"6.34E"}
{"date":"2013-09-01","city":"Kochi","latitude":"10.45N","longitude":"76.09E"}
{"date":"2012-04-01","average_temperature":"29.009","city":"Kolhapur","latitude":"16.87N","longitude":"73.67E"}
{"date":"2013-05-01","average_temperature":"16.578","city":"Kolomna","latitude":"55.45N","longitude":"39.69E"}
{"date":"2013-05-01","average_temperature":"8.851","city":"Komsomolsk Na Amure","latitude":"50.63N","longitude":"138.17E"}
{"date":"2013-07-01","average_temperature":"27.296999999999997","city":"Korba","latitude":"21.70N","longitude":"82.21E"}
{"date":"2012-11-01","average_temperature":"8.718","city":"Koshigaya","latitude":"36.17N","longitude":"139.23E"}
{"date":"2011-02-01","average_temperature":"25.798000000000002","city":"Kotte","latitude":"7.23N","longitude":"80.27E"}
{"date":"2011-11-01","average_temperature":"0.945","city":"Kremenchuk","latitude":"49.03N","longitude":"34.29E"}
{"date":"2011-10-01","average_temperature":"28.097","city":"Krishnanagar","latitude":"23.31N","longitude":"88.25E"}
{"date":"2012-06-01","average_temperature":"31.959","city":"Krishnanagar","latitude":"23.31N","longitude":"88.25E"}
{"date":"2013-04-01","average_temperature":"16.915","city":"Kroonstad","latitude":"28.13S","longitude":"26.36E"}
{"date":"2010-04-01","average_temperature":"17.171","city":"Kunming","latitude":"24.92N","longitude":"102.86E"}
{"date":"2013-08-01","average_temperature":"19.351","city":"Kunming","latitude":"24.92N","longitude":"102.86E"}
{"date":"2010-05-01","average_temperature":"17.619","city":"Kusatsu","latitude":"34.56N","longitude":"136.22E"}
{"date":"2010-01-01","average_temperature":"26.164","city":"Kusti","latitude":"13.66N","longitude":"32.20E"}
{"date":"2010-10-01","average_temperature":"21.114","city":"La Rioja","latitude":"29.74S","longitude":"66.46W"}
{"date":"2011-11-01","average_temperature":"17.317999999999998","city":"Lafayette","latitude":"29.74N","longitude":"92.31W"}
{"date":"2011-11-01","average_temperature":"12.194","city":"Lalitpur","latitude":"28.13N","longitude":"84.55E"}
{"date":"2010-03-01","average_temperature":"4.498","city":"Lausanne","latitude":"45.81N","longitude":"5.77E"}
{"date":"2010-03-01","average_temperature":"7.616","city":"León","latitude":"42.59N","longitude":"6.55W"}
{"date":"2010-08-01","average_temperature":"22.934","city":"Leganés","latitude":"40.99N","longitude":"4.26W"}
{"date":"2012-03-01","average_temperature":"10.599","city":"Leghorn","latitude":"44.20N","longitude":"11.18E"}
{"date":"2012-07-01","average_temperature":"16.487000000000002","city":"Leicester","latitude":"52.24N","longitude":"0.00W"}
{"date":"2011-09-01","average_temperature":"15.788","city":"Leiden","latitude":"52.24N","longitude":"5.26E"}
{"date":"2010-03-01","average_temperature":"-7.495999999999999","city":"Leninsk Kuznetskiy","latitude":"53.84N","longitude":"85.91E"}
{"date":"2012-01-01","average_temperature":"-1.474","city":"Liaocheng","latitude":"36.17N","longitude":"115.36E"}
{"date":"2010-07-01","average_temperature":"13.487","city":"Lima","latitude":"12.05S","longitude":"77.26W"}
{"date":"2012-12-01","average_temperature":"-4.506","city":"Linshui","latitude":"36.17N","longitude":"113.37E"}
{"date":"2010-07-01","average_temperature":"20.564","city":"Linxia","latitude":"36.17N","longitude":"103.43E"}
{"date":"2012-04-01","average_temperature":"9.427999999999999","city":"Logroño","latitude":"42.59N","longitude":"2.18W"}
{"date":"2013-09-01","city":"Loja","latitude":"4.02S","longitude":"79.55W"}
{"date":"2010-01-01","average_temperature":"14.014000000000001","city":"Loni","latitude":"28.13N","longitude":"77.27E"}
{"date":"2011-07-01","average_temperature":"30.947","city":"Loni","latitude":"28.13N","longitude":"77.27E"}
{"date":"2013-02-01","average_temperature":"4.158","city":"Luohe","latitude":"32.95N","longitude":"113.94E"}
{"date":"2011-01-01","average_temperature":"14.043","city":"Luxor","latitude":"26.52N","longitude":"32.24E"}
{"date":"2011-02-01","average_temperature":"17.219","city":"Luxor","latitude":"26.52N","longitude":"32.24E"}
{"date":"2013-06-01","average_temperature":"31.476","city":"Luxor","latitude":"26.52N","longitude":"32.24E"}
{"date":"2010-09-01","average_temperature":"18.323","city":"Móstoles","latitude":"40.99N","longitude":"4.26W"}
{"date":"2010-03-01","average_temperature":"14.907","city":"Maba","latitude":"24.92N","longitude":"113.50E"}
{"date":"2013-05-01","average_temperature":"22.653","city":"Macheng","latitude":"31.35N","longitude":"114.97E"}
{"date":"2010-08-01","average_temperature":"22.934","city":"Madrid","latitude":"40.99N","longitude":"4.26W"}
{"date":"2011-06-01","average_temperature":"23.044","city":"Magé","latitude":"23.31S","longitude":"42.82W"}
{"date":"2012-03-01","average_temperature":"26.717","city":"Magé","latitude":"23.31S","longitude":"42.82W"}
{"date":"2010-12-01","average_temperature":"26.254","city":"Magelang","latitude":"7.23S","longitude":"109.46E"}
{"date":"2012-02-01","average_temperature":"1.413","city":"Mahabad","latitude":"36.17N","longitude":"45.75E"}
{"date":"2010-04-01","average_temperature":"28.826","city":"Maicao","latitude":"12.05N","longitude":"72.33W"}
{"date":"2012-08-01","average_temperature":"25.542","city":"Maisuru","latitude":"12.05N","longitude":"77.26E"}
{"date":"2011-07-01","average_temperature":"26.884","city":"Makurdi","latitude":"7.23N","longitude":"8.92E"}
{"date":"2011-01-01","average_temperature":"26.267","city":"Malabo","latitude":"4.02N","longitude":"8.84E"}
{"date":"2011-09-01","average_temperature":"25.829","city":"Malatya","latitude":"37.78N","longitude":"38.64E"}
{"date":"2013-03-01","average_temperature":"22.656","city":"Maler Kotla","latitude":"29.74N","longitude":"75.69E"}
{"date":"2010-06-01","average_temperature":"19.733","city":"Manchester","latitude":"42.59N","longitude":"72.00W"}
{"date":"2011-03-01","average_temperature":"20.612","city":"Mandi Bahauddin","latitude":"32.95N","longitude":"73.72E"}
{"date":"2013-06-01","average_temperature":"24.973000000000003","city":"Mangaluru","latitude":"13.66N","longitude":"75.14E"}
{"date":"2011-07-01","average_temperature":"26.919","city":"Manila","latitude":"15.27N","longitude":"120.83E"}
{"date":"2013-03-01","average_temperature":"24.619","city":"Manzanillo","latitude":"18.48N","longitude":"104.79W"}
{"date":"2010-10-01","average_temperature":"14.389000000000001","city":"Mar Del Plata","latitude":"37.78S","longitude":"56.95W"}
{"date":"2010-02-01","average_temperature":"1.596","city":"Marand","latitude":"39.38N","longitude":"45.78E"}
{"date":"2010-06-01","average_temperature":"27.229000000000006","city":"Mardan","latitude":"34.56N","longitude":"72.00E"}
{"date":"2010-01-01","average_temperature":"24.885","city":"Maringá","latitude":"23.31S","longitude":"51.55W"}
{"date":"2012-06-01","average_temperature":"18.674","city":"Maringá","latitude":"23.31S","longitude":"51.55W"}
{"date":"2010-01-01","average_temperature":"25.513","city":"Maroua","latitude":"10.45N","longitude":"13.91E"}
{"date":"2011-03-01","average_temperature":"27.031","city":"Martapura","latitude":"4.02S","longitude":"114.91E"}
{"date":"2010-11-01","average_temperature":"8.065","city":"Matsumoto","latitude":"36.17N","longitude":"137.24E"}
{"date":"2012-02-01","average_temperature":"4.3420000000000005","city":"Matsusaka","latitude":"34.56N","longitude":"136.22E"}
{"date":"2013-09-01","city":"Maturín","latitude":"10.45N","longitude":"63.00W"}
{"date":"2010-11-01","average_temperature":"25.578000000000003","city":"Maymyo","latitude":"21.70N","longitude":"96.06E"}
{"date":"2010-12-01","average_temperature":"-6.251","city":"Mazyr","latitude":"52.24N","longitude":"28.91E"}
{"date":"2011-03-01","average_temperature":"22.069000000000003","city":"Mecca","latitude":"21.70N","longitude":"40.67E"}
{"date":"2012-07-01","average_temperature":"27.934","city":"Meiktila","latitude":"20.09N","longitude":"95.55E"}
{"date":"2010-02-01","average_temperature":"12.695","city":"Mesa","latitude":"32.95N","longitude":"112.02W"}
{"date":"2011-05-01","average_temperature":"24.644000000000002","city":"Metairie","latitude":"29.74N","longitude":"90.46W"}
{"date":"2011-07-01","average_temperature":"21.92","city":"Metepec","latitude":"18.48N","longitude":"99.72W"}
{"date":"2011-07-01","average_temperature":"14.575","city":"Mezhdurechensk","latitude":"53.84N","longitude":"88.64E"}
{"date":"2013-09-01","city":"Mianyang","latitude":"31.35N","longitude":"105.55E"}
{"date":"2011-12-01","average_temperature":"0.16399999999999992","city":"Milan","latitude":"45.81N","longitude":"8.08E"}
{"date":"2011-01-01","average_temperature":"14.71","city":"Mirzapur","latitude":"24.92N","longitude":"83.35E"}
{"date":"2010-04-01","average_temperature":"13.336","city":"Mishima","latitude":"34.56N","longitude":"138.16E"}
{"date":"2012-09-01","average_temperature":"24.998","city":"Miyakonojo","latitude":"31.35N","longitude":"131.94E"}
{"date":"2011-05-01","average_temperature":"22.561","city":"Mobile","latitude":"31.35N","longitude":"88.59W"}
{"date":"2011-08-01","average_temperature":"28.993000000000002","city":"Mobile","latitude":"31.35N","longitude":"88.59W"}
{"date":"2010-01-01","average_temperature":"25.513","city":"Mokolo","latitude":"10.45N","longitude":"13.91E"}
{"date":"2012-12-01","average_temperature":"14.285","city":"Monclova","latitude":"26.52N","longitude":"102.09W"}
{"date":"2013-07-01","average_temperature":"29.253","city":"Monterrey","latitude":"26.52N","longitude":"100.30W"}
{"date":"2013-03-01","average_temperature":"25.226","city":"Montes Claros","latitude":"16.87S","longitude":"43.53W"}
{"date":"2013-09-01","city":"Montes Claros","latitude":"16.87S","longitude":"43.53W"}
{"date":"2011-07-01","average_temperature":"26.44","city":"Moriguchi","latitude":"34.56N","longitude":"136.22E"}
{"date":"2011-12-01","average_temperature":"6.476","city":"Moriguchi","latitude":"34.56N","longitude":"136.22E"}
{"date":"2012-02-01","average_temperature":"20.884","city":"Morvi","latitude":"23.31N","longitude":"70.78E"}
{"date":"2011-10-01","average_temperature":"27.643","city":"Mubi","latitude":"10.45N","longitude":"13.91E"}
{"date":"2011-10-01","average_temperature":"27.325","city":"Multan","latitude":"29.74N","longitude":"72.00E"}
{"date":"2013-05-01","average_temperature":"34.593","city":"Multan","latitude":"29.74N","longitude":"72.00E"}
{"date":"2010-05-01","average_temperature":"17.758","city":"Mutare","latitude":"18.48S","longitude":"32.11E"}
{"date":"2013-08-01","average_temperature":"17.485","city":"Mytishchi","latitude":"55.45N","longitude":"36.85E"}
{"date":"2012-03-01","average_temperature":"27.065","city":"Naga","latitude":"13.66N","longitude":"123.03E"}
{"date":"2012-08-01","average_temperature":"15.758","city":"Nairobi","latitude":"0.80S","longitude":"36.16E"}
{"date":"2010-04-01","average_temperature":"29.848000000000003","city":"Nakhon Si Thammarat","latitude":"8.84N","longitude":"99.73E"}
{"date":"2012-03-01","average_temperature":"18.919","city":"Nakuru","latitude":"0.80S","longitude":"36.16E"}
{"date":"2011-11-01","average_temperature":"22.656999999999996","city":"Nam Dinh","latitude":"20.09N","longitude":"105.78E"}
{"date":"2013-03-01","average_temperature":"9.049","city":"Namangan","latitude":"40.99N","longitude":"72.43E"}
{"date":"2013-03-01","average_temperature":"-10.35","city":"Nancha","latitude":"47.42N","longitude":"129.08E"}
{"date":"2013-09-01","city":"Nanjing","latitude":"31.35N","longitude":"118.74E"}
{"date":"2010-02-01","average_temperature":"-5.481","city":"Nanpiao","latitude":"40.99N","longitude":"121.42E"}
{"date":"2010-12-01","average_temperature":"6.859","city":"Naples","latitude":"40.99N","longitude":"14.91E"}
{"date":"2011-08-01","average_temperature":"25.375","city":"Naples","latitude":"40.99N","longitude":"14.91E"}
{"date":"2010-06-01","average_temperature":"29.478","city":"Narayanganj","latitude":"23.31N","longitude":"90.00E"}
{"date":"2011-11-01","average_temperature":"24.051","city":"Narayanganj","latitude":"23.31N","longitude":"90.00E"}
{"date":"2010-07-01","average_temperature":"24.163","city":"Narita","latitude":"36.17N","longitude":"141.22E"}
{"date":"2013-02-01","average_temperature":"21.84","city":"Narsingdi","latitude":"23.31N","longitude":"90.00E"}
{"date":"2012-09-01","average_temperature":"19.906","city":"Nazran","latitude":"44.20N","longitude":"44.72E"}
{"date":"2010-02-01","average_temperature":"-27.56","city":"Nefteyugansk","latitude":"61.88N","longitude":"73.02E"}
{"date":"2011-01-01","average_temperature":"4.2410000000000005","city":"Neijiang","latitude":"29.74N","longitude":"105.23E"}
{"date":"2012-07-01","average_temperature":"10.832","city":"Newcastle","latitude":"28.13S","longitude":"30.00E"}
{"date":"2010-04-01","average_temperature":"12.877","city":"Ningbo","latitude":"29.74N","longitude":"121.85E"}
{"date":"2011-05-01","average_temperature":"13.569","city":"Nizhniy Novgorod","latitude":"57.05N","longitude":"42.79E"}
{"date":"2010-08-01","average_temperature":"28.265","city":"Nobeoka","latitude":"32.95N","longitude":"131.17E"}
{"date":"2013-08-01","average_temperature":"26.364","city":"Noda","latitude":"36.17N","longitude":"139.23E"}
{"date":"2010-05-01","average_temperature":"20.696","city":"Norfolk","latitude":"36.17N","longitude":"75.58W"}
{"date":"2010-12-01","average_temperature":"3.61","city":"Norfolk","latitude":"36.17N","longitude":"75.58W"}
{"date":"2013-06-01","average_temperature":"24.325","city":"Norfolk","latitude":"36.17N","longitude":"75.58W"}
{"date":"2012-10-01","average_temperature":"-9.897","city":"Norilsk","latitude":"69.92N","longitude":"88.83E"}
{"date":"2010-02-01","average_temperature":"20.936999999999998","city":"North Shore","latitude":"36.17S","longitude":"175.03E"}
{"date":"2012-12-01","average_temperature":"3.809","city":"Nottingham","latitude":"53.84N","longitude":"1.36W"}
{"date":"2013-05-01","average_temperature":"10.322000000000001","city":"Nottingham","latitude":"53.84N","longitude":"1.36W"}
{"date":"2013-05-01","average_temperature":"9.091","city":"Novara","latitude":"45.81N","longitude":"8.08E"}
{"date":"2011-11-01","average_temperature":"25.241","city":"Nueva San Salvador","latitude":"13.66N","longitude":"90.00W"}
{"date":"2011-01-01","average_temperature":"-5.247999999999998","city":"Nukus","latitude":"42.59N","longitude":"58.91E"}
{"date":"2013-04-01","average_temperature":"8.844","city":"Nuremberg","latitude":"49.03N","longitude":"12.24E"}
{"date":"2011-08-01","average_temperature":"24.861","city":"Nzérékoré","latitude":"7.23N","longitude":"8.92W"}
{"date":"2013-06-01","average_temperature":"20.927","city":"Odawara","latitude":"36.17N","longitude":"139.23E"}
{"date":"2010-11-01","average_temperature":"3.4570000000000003","city":"Odense","latitude":"55.45N","longitude":"11.34E"}
{"date":"2010-03-01","average_temperature":"-2.0369999999999995","city":"Odintsovo","latitude":"55.45N","longitude":"36.85E"}
{"date":"2013-03-01","average_temperature":"30.644","city":"Offa","latitude":"8.84N","longitude":"4.05E"}
{"date":"2011-03-01","average_temperature":"30.609","city":"Ogbomosho","latitude":"8.84N","longitude":"4.05E"}
{"date":"2013-06-01","average_temperature":"22.49","city":"Okazaki","latitude":"34.56N","longitude":"136.22E"}
{"date":"2012-07-01","average_temperature":"29.816999999999997","city":"Olathe","latitude":"39.38N","longitude":"95.72W"}
{"date":"2011-02-01","average_temperature":"2.943","city":"Oldenburg","latitude":"52.24N","longitude":"7.88E"}
{"date":"2010-07-01","average_temperature":"16.89","city":"Oldham","latitude":"53.84N","longitude":"1.36W"}
{"date":"2011-08-01","average_temperature":"15.155999999999999","city":"Oldham","latitude":"53.84N","longitude":"1.36W"}
{"date":"2013-01-01","average_temperature":"3.0269999999999997","city":"Oldham","latitude":"53.84N","longitude":"1.36W"}
{"date":"2013-09-01","average_temperature":"21.535","city":"Omaha","latitude":"40.99N","longitude":"95.86W"}
{"date":"2011-07-01","average_temperature":"25.288","city":"Ome","latitude":"36.17N","longitude":"139.23E"}
{"date":"2011-05-01","average_temperature":"15.868","city":"Oradea","latitude":"47.42N","longitude":"22.50E"}
{"date":"2011-08-01","average_temperature":"21.313","city":"Oradea","latitude":"47.42N","longitude":"22.50E"}
{"date":"2010-06-01","average_temperature":"18.25","city":"Orléans","latitude":"47.42N","longitude":"1.18E"}
{"date":"2011-08-01","average_temperature":"29.308000000000003","city":"Orlando","latitude":"28.13N","longitude":"80.91W"}
{"date":"2010-01-01","average_temperature":"23.738000000000003","city":"Osasco","latitude":"23.31S","longitude":"46.31W"}
{"date":"2010-10-01","average_temperature":"19.398","city":"Osasco","latitude":"23.31S","longitude":"46.31W"}
{"date":"2013-01-01","average_temperature":"22.503","city":"Osasco","latitude":"23.31S","longitude":"46.31W"}
{"date":"2010-10-01","average_temperature":"4.371","city":"Oulu","latitude":"65.09N","longitude":"24.89E"}
{"date":"2011-04-01","average_temperature":"2.106","city":"Oulu","latitude":"65.09N","longitude":"24.89E"}
{"date":"2013-09-01","average_temperature":"22.678","city":"Overland Park","latitude":"39.38N","longitude":"93.64W"}
{"date":"2013-01-01","average_temperature":"25.926","city":"Pôrto Seguro","latitude":"16.87S","longitude":"38.51W"}
{"date":"2010-10-01","average_temperature":"9.628","city":"Paderborn","latitude":"52.24N","longitude":"7.88E"}
{"date":"2013-06-01","average_temperature":"26.886","city":"Palmas","latitude":"10.45S","longitude":"48.27W"}
{"date":"2010-01-01","average_temperature":"26.378","city":"Parana","latitude":"31.35S","longitude":"60.31W"}
{"date":"2013-06-01","average_temperature":"16.34","city":"Paris","latitude":"49.03N","longitude":"2.45E"}
{"date":"2013-09-01","city":"Parnamirim","latitude":"5.63S","longitude":"35.52W"}
{"date":"2011-03-01","average_temperature":"27.083","city":"Pasir Gudang","latitude":"0.80N","longitude":"103.66E"}
{"date":"2010-08-01","average_temperature":"27.807","city":"Pasuruan","latitude":"7.23S","longitude":"112.70E"}
{"date":"2012-06-01","average_temperature":"20.165","city":"Paterson","latitude":"40.99N","longitude":"74.56W"}
{"date":"2011-04-01","average_temperature":"27.703000000000003","city":"Patiala","latitude":"29.74N","longitude":"75.69E"}
{"date":"2011-11-01","average_temperature":"22.078000000000003","city":"Patna","latitude":"24.92N","longitude":"85.12E"}
{"date":"2010-09-01","average_temperature":"24.249","city":"Patos De Minas","latitude":"18.48S","longitude":"47.32W"}
{"date":"2013-08-01","average_temperature":"27.054","city":"Peking","latitude":"39.38N","longitude":"116.53E"}
{"date":"2013-02-01","average_temperature":"27.365","city":"Pemba","latitude":"13.66S","longitude":"40.46E"}
{"date":"2011-02-01","average_temperature":"-15.524000000000001","city":"Penza","latitude":"53.84N","longitude":"45.00E"}
{"date":"2013-01-01","average_temperature":"19.998","city":"Pereira","latitude":"5.63N","longitude":"75.87W"}
{"date":"2011-07-01","average_temperature":"16.267","city":"Perth","latitude":"31.35S","longitude":"114.97E"}
{"date":"2012-10-01","average_temperature":"14.501","city":"Perugia","latitude":"42.59N","longitude":"13.09E"}
{"date":"2011-04-01","average_temperature":"18.676","city":"Peshawar","latitude":"34.56N","longitude":"72.00E"}
{"date":"2012-10-01","average_temperature":"21.886","city":"Pietersburg","latitude":"23.31S","longitude":"28.83E"}
{"date":"2012-12-01","average_temperature":"16.13","city":"Pingchen","latitude":"24.92N","longitude":"120.59E"}
{"date":"2011-09-01","average_temperature":"13.880999999999998","city":"Pingliang","latitude":"36.17N","longitude":"107.40E"}
{"date":"2012-05-01","average_temperature":"17.729999999999997","city":"Pitesti","latitude":"44.20N","longitude":"24.60E"}
{"date":"2011-06-01","average_temperature":"21.135","city":"Pittsburgh","latitude":"40.99N","longitude":"80.95W"}
{"date":"2010-06-01","average_temperature":"27.191999999999997","city":"Plây Cu","latitude":"13.66N","longitude":"108.17E"}
{"date":"2011-06-01","average_temperature":"26.206","city":"Plây Cu","latitude":"13.66N","longitude":"108.17E"}
{"date":"2011-05-01","average_temperature":"17.008999999999997","city":"Pleven","latitude":"44.20N","longitude":"24.60E"}
{"date":"2012-05-01","average_temperature":"17.212999999999994","city":"Port Elizabeth","latitude":"34.56S","longitude":"25.30E"}
{"date":"2011-07-01","average_temperature":"21.974","city":"Port Louis","latitude":"20.09S","longitude":"58.01E"}
{"date":"2011-09-01","average_temperature":"22.197000000000006","city":"Port Louis","latitude":"20.09S","longitude":"58.01E"}
{"date":"2013-01-01","average_temperature":"20.774","city":"Port Saint Lucie","latitude":"26.52N","longitude":"80.60W"}
{"date":"2010-07-01","average_temperature":"14.35","city":"Potgietersrus","latitude":"23.31S","longitude":"28.83E"}
{"date":"2013-02-01","average_temperature":"26.293000000000003","city":"Presidente Prudente","latitude":"21.70S","longitude":"51.06W"}
{"date":"2012-03-01","average_temperature":"7.848","city":"Preston","latitude":"53.84N","longitude":"1.36W"}
{"date":"2011-09-01","average_temperature":"27.412","city":"Probolinggo","latitude":"7.23S","longitude":"112.70E"}
{"date":"2012-09-01","average_temperature":"18.007","city":"Provo","latitude":"39.38N","longitude":"112.37W"}
{"date":"2012-02-01","average_temperature":"18.15","city":"Puebla","latitude":"18.48N","longitude":"98.03W"}
{"date":"2012-12-01","average_temperature":"-0.114","city":"Pueblo","latitude":"37.78N","longitude":"103.73W"}
{"date":"2013-04-01","average_temperature":"26.825","city":"Puerto Cabello","latitude":"10.45N","longitude":"67.91W"}
{"date":"2010-10-01","average_temperature":"8.521","city":"Puerto Montt","latitude":"40.99S","longitude":"72.43W"}
{"date":"2010-11-01","average_temperature":"10.49","city":"Puerto Montt","latitude":"40.99S","longitude":"72.43W"}
{"date":"2013-07-01","average_temperature":"4.494","city":"Puerto Montt","latitude":"40.99S","longitude":"72.43W"}
{"date":"2012-03-01","average_temperature":"28.11","city":"Puerto Princesa","latitude":"10.45N","longitude":"118.64E"}
{"date":"2011-05-01","average_temperature":"30.319000000000003","city":"Pune","latitude":"18.48N","longitude":"74.37E"}
{"date":"2010-09-01","average_temperature":"5.13","city":"Punta Arenas","latitude":"52.24S","longitude":"70.95W"}
{"date":"2010-05-01","average_temperature":"30.135","city":"Punto Fijo","latitude":"12.05N","longitude":"70.68W"}
{"date":"2013-06-01","average_temperature":"30.3","city":"Punto Fijo","latitude":"12.05N","longitude":"70.68W"}
{"date":"2013-09-01","city":"Puyang","latitude":"36.17N","longitude":"115.36E"}
{"date":"2012-03-01","average_temperature":"18.21","city":"Qena","latitude":"26.52N","longitude":"32.24E"}
{"date":"2012-04-01","average_temperature":"25.611","city":"Qena","latitude":"26.52N","longitude":"32.24E"}
{"date":"2010-04-01","average_temperature":"27.880000000000006","city":"Quelimane","latitude":"18.48S","longitude":"37.18E"}
{"date":"2010-06-01","average_temperature":"25.328000000000007","city":"Quelimane","latitude":"18.48S","longitude":"37.18E"}
{"date":"2012-12-01","average_temperature":"10.704999999999998","city":"Queluz","latitude":"39.38N","longitude":"8.32W"}
{"date":"2013-03-01","average_temperature":"-0.8280000000000003","city":"Radom","latitude":"50.63N","longitude":"21.55E"}
{"date":"2013-03-01","average_temperature":"24.027","city":"Rampur","latitude":"28.13N","longitude":"79.09E"}
{"date":"2012-07-01","average_temperature":"27.412","city":"Ranchi","latitude":"23.31N","longitude":"84.76E"}
{"date":"2012-03-01","average_temperature":"29.55","city":"Rangoon","latitude":"16.87N","longitude":"95.44E"}
{"date":"2012-06-01","average_temperature":"17.06","city":"Ratisbon","latitude":"49.03N","longitude":"12.24E"}
{"date":"2012-11-01","average_temperature":"18.326","city":"Rawalpindi","latitude":"32.95N","longitude":"73.72E"}
{"date":"2011-11-01","average_temperature":"25.22","city":"Rawang","latitude":"4.02N","longitude":"102.05E"}
{"date":"2012-11-01","average_temperature":"6.2120000000000015","city":"Recklinghausen","latitude":"52.24N","longitude":"7.88E"}
{"date":"2010-12-01","average_temperature":"13.213","city":"Reggio Di Calabria","latitude":"37.78N","longitude":"16.27E"}
{"date":"2010-03-01","average_temperature":"6.417999999999998","city":"Reno","latitude":"39.38N","longitude":"120.69W"}
{"date":"2013-03-01","average_temperature":"22.941999999999997","city":"Resistencia","latitude":"28.13S","longitude":"59.09W"}
{"date":"2011-12-01","average_temperature":"16.203","city":"Rewari","latitude":"28.13N","longitude":"77.27E"}
{"date":"2013-08-01","average_temperature":"27.694000000000003","city":"Rialto","latitude":"34.56N","longitude":"116.76W"}
{"date":"2010-01-01","average_temperature":"24.78","city":"Ribeirão Prêto","latitude":"21.70S","longitude":"47.60W"}
{"date":"2010-12-01","average_temperature":"25.23","city":"Ribeirão Prêto","latitude":"21.70S","longitude":"47.60W"}
{"date":"2011-10-01","average_temperature":"23.319000000000003","city":"Ribeirão Prêto","latitude":"21.70S","longitude":"47.60W"}
{"date":"2013-05-01","average_temperature":"15.073","city":"Riga","latitude":"57.05N","longitude":"25.08E"}
{"date":"2012-01-01","average_temperature":"18.815","city":"Rishra","latitude":"23.31N","longitude":"88.25E"}
{"date":"2013-09-01","city":"Rongcheng","latitude":"29.74N","longitude":"112.62E"}
{"date":"2010-04-01","average_temperature":"10.102","city":"Rouen","latitude":"49.03N","longitude":"0.00W"}
{"date":"2012-05-01","average_temperature":"16.493000000000002","city":"Ryazan","latitude":"53.84N","longitude":"39.55E"}
{"date":"2013-07-01","average_temperature":"19.987000000000002","city":"Rybnik","latitude":"50.63N","longitude":"19.01E"}
{"date":"2011-10-01","average_temperature":"22.627","city":"São João De Meriti","latitude":"23.31S","longitude":"42.82W"}
{"date":"2010-02-01","average_temperature":"28.24","city":"São Luís","latitude":"2.41S","longitude":"44.20W"}
{"date":"2012-11-01","average_temperature":"28.485","city":"São Luís","latitude":"2.41S","longitude":"44.20W"}
{"date":"2013-04-01","average_temperature":"27.379","city":"São Luís","latitude":"2.41S","longitude":"44.20W"}
{"date":"2012-06-01","average_temperature":"18.113","city":"São Paulo","latitude":"23.31S","longitude":"46.31W"}
{"date":"2010-06-01","average_temperature":"18.643","city":"Sacramento","latitude":"37.78N","longitude":"122.03W"}
{"date":"2013-04-01","average_temperature":"18.262","city":"Safaqis","latitude":"34.56N","longitude":"11.68E"}
{"date":"2013-09-01","city":"Saharsa","latitude":"26.52N","longitude":"85.97E"}
{"date":"2013-03-01","average_temperature":"17.143","city":"Salamanca","latitude":"20.09N","longitude":"100.66W"}
{"date":"2012-03-01","average_temperature":"26.228","city":"Salatiga","latitude":"7.23S","longitude":"111.08E"}
{"date":"2012-09-01","average_temperature":"12.190999999999999","city":"Salavat","latitude":"53.84N","longitude":"55.91E"}
{"date":"2010-08-01","average_temperature":"8.979000000000003","city":"Salta","latitude":"24.92S","longitude":"65.62W"}
{"date":"2011-02-01","average_temperature":"23.379","city":"Sambalpur","latitude":"21.70N","longitude":"83.94E"}
{"date":"2011-05-01","average_temperature":"33.454","city":"Sambalpur","latitude":"21.70N","longitude":"83.94E"}
{"date":"2012-03-01","average_temperature":"13.669","city":"San Diego","latitude":"32.95N","longitude":"117.77W"}
{"date":"2012-08-01","average_temperature":"20.531","city":"San Francisco","latitude":"37.78N","longitude":"122.03W"}
{"date":"2012-10-01","average_temperature":"28.572","city":"San Francisco De Macorís","latitude":"20.09N","longitude":"69.95W"}
{"date":"2012-04-01","average_temperature":"26.659000000000002","city":"San José","latitude":"10.45N","longitude":"84.27W"}
{"date":"2010-04-01","average_temperature":"21.766","city":"San Juan Sacatepéquez","latitude":"15.27N","longitude":"90.83W"}
{"date":"2013-04-01","average_temperature":"18.795","city":"San Luis","latitude":"32.95S","longitude":"66.06W"}
{"date":"2010-03-01","average_temperature":"16.090999999999998","city":"San Pablo De Las Salinas","latitude":"20.09N","longitude":"98.96W"}
{"date":"2011-04-01","average_temperature":"26.669","city":"San Pedro","latitude":"13.66N","longitude":"121.38E"}
{"date":"2011-07-01","average_temperature":"6.146","city":"San Rafael","latitude":"34.56S","longitude":"68.11W"}
{"date":"2012-03-01","average_temperature":"17.029","city":"Sanchung","latitude":"24.92N","longitude":"120.59E"}
{"date":"2013-07-01","average_temperature":"28.485","city":"Sanhsia","latitude":"24.92N","longitude":"120.59E"}
{"date":"2011-06-01","average_temperature":"23.201","city":"Sanmenxia","latitude":"34.56N","longitude":"110.92E"}
{"date":"2011-08-01","average_temperature":"19.389","city":"Santa Clara","latitude":"37.78N","longitude":"122.03W"}
{"date":"2010-07-01","average_temperature":"26.41","city":"Santa Teresa","latitude":"10.45N","longitude":"66.27W"}
{"date":"2013-09-01","city":"Santo André","latitude":"23.31S","longitude":"46.31W"}
{"date":"2013-02-01","average_temperature":"29.249000000000002","city":"Sapele","latitude":"5.63N","longitude":"6.46E"}
{"date":"2010-12-01","average_temperature":"4.92","city":"Saqqez","latitude":"36.17N","longitude":"45.75E"}
{"date":"2010-07-01","average_temperature":"26.934","city":"Saratov","latitude":"52.24N","longitude":"47.30E"}
{"date":"2011-01-01","average_temperature":"17.864","city":"Satkhira","latitude":"23.31N","longitude":"88.25E"}
{"date":"2010-04-01","average_temperature":"33.259","city":"Satna","latitude":"24.92N","longitude":"81.58E"}
{"date":"2010-04-01","average_temperature":"31.576","city":"Selam","latitude":"12.05N","longitude":"78.90E"}
{"date":"2013-02-01","average_temperature":"27.34","city":"Sepatan","latitude":"5.63S","longitude":"106.55E"}
{"date":"2012-09-01","average_temperature":"12.509","city":"Serpukhov","latitude":"55.45N","longitude":"36.85E"}
{"date":"2011-02-01","average_temperature":"24.676","city":"Sete Lagoas","latitude":"20.09S","longitude":"44.36W"}
{"date":"2013-05-01","average_temperature":"18.505","city":"Sevilla","latitude":"37.78N","longitude":"6.10W"}
{"date":"2010-03-01","average_temperature":"29.925","city":"Shagamu","latitude":"7.23N","longitude":"4.05E"}
{"date":"2011-04-01","average_temperature":"15.656","city":"Shahe","latitude":"36.17N","longitude":"115.36E"}
{"date":"2011-02-01","average_temperature":"11.377","city":"Shaoguan","latitude":"24.92N","longitude":"113.50E"}
{"date":"2013-07-01","average_temperature":"30.160999999999998","city":"Shaowu","latitude":"28.13N","longitude":"117.27E"}
{"date":"2011-11-01","average_temperature":"15.32","city":"Shaoxing","latitude":"29.74N","longitude":"120.00E"}
{"date":"2012-12-01","average_temperature":"22.104","city":"Sharjah","latitude":"24.92N","longitude":"54.98E"}
{"date":"2010-01-01","average_temperature":"5.421","city":"Shashi","latitude":"29.74N","longitude":"112.62E"}
{"date":"2012-10-01","average_temperature":"25.48","city":"Shekhupura","latitude":"31.35N","longitude":"73.51E"}
{"date":"2013-04-01","average_temperature":"27.055999999999997","city":"Shekhupura","latitude":"31.35N","longitude":"73.51E"}
{"date":"2012-01-01","average_temperature":"-11.977","city":"Shenyang","latitude":"40.99N","longitude":"123.55E"}
{"date":"2010-10-01","average_temperature":"22.96","city":"Shenzhen","latitude":"23.31N","longitude":"114.47E"}
{"date":"2012-06-01","average_temperature":"18.364","city":"Sherbrooke","latitude":"45.81N","longitude":"72.69W"}
{"date":"2012-08-01","average_temperature":"28.531","city":"Shilong","latitude":"23.31N","longitude":"114.47E"}
{"date":"2012-09-01","average_temperature":"25.221999999999998","city":"Shimoga","latitude":"13.66N","longitude":"75.14E"}
{"date":"2013-05-01","average_temperature":"24.456","city":"Shiraz","latitude":"29.74N","longitude":"51.69E"}
{"date":"2012-01-01","average_temperature":"10.700999999999999","city":"Sialkot","latitude":"32.95N","longitude":"73.72E"}
{"date":"2012-12-01","average_temperature":"26.524","city":"Sibu","latitude":"2.41N","longitude":"111.70E"}
{"date":"2011-12-01","average_temperature":"25.659000000000002","city":"Sinnar","latitude":"13.66N","longitude":"33.85E"}
{"date":"2012-06-01","average_temperature":"25.551","city":"Sirjan","latitude":"29.74N","longitude":"55.38E"}
{"date":"2012-08-01","average_temperature":"21.501","city":"Soacha","latitude":"4.02N","longitude":"74.73W"}
{"date":"2013-05-01","average_temperature":"30.491","city":"Sohag","latitude":"26.52N","longitude":"32.24E"}
{"date":"2011-02-01","average_temperature":"29.258000000000006","city":"Sokoto","latitude":"13.66N","longitude":"5.78E"}
{"date":"2012-07-01","average_temperature":"20.352","city":"Sosnowiec","latitude":"50.63N","longitude":"19.01E"}
{"date":"2012-05-01","average_temperature":"27.383000000000006","city":"Spanish Town","latitude":"18.48N","longitude":"77.75W"}
{"date":"2010-03-01","average_temperature":"7.837000000000001","city":"Springfield","latitude":"37.78N","longitude":"93.56W"}
{"date":"2010-12-01","average_temperature":"-3.526","city":"Springfield","latitude":"42.59N","longitude":"72.00W"}
{"date":"2013-05-01","average_temperature":"19.230999999999998","city":"Stara Zagora","latitude":"42.59N","longitude":"26.18E"}
{"date":"2012-08-01","average_temperature":"21.798","city":"Sterling Heights","latitude":"42.59N","longitude":"82.91W"}
{"date":"2012-07-01","average_temperature":"19.632","city":"Stockton","latitude":"37.78N","longitude":"122.03W"}
{"date":"2013-09-01","city":"Stoke On Trent","latitude":"52.24N","longitude":"2.63W"}
{"date":"2011-08-01","average_temperature":"19.002","city":"Strasbourg","latitude":"49.03N","longitude":"7.35E"}
{"date":"2010-03-01","average_temperature":"4.918","city":"Stuttgart","latitude":"49.03N","longitude":"9.80E"}
{"date":"2010-03-01","average_temperature":"3.466","city":"Suceava","latitude":"47.42N","longitude":"27.24E"}
{"date":"2010-07-01","average_temperature":"27.985","city":"Suining","latitude":"29.74N","longitude":"105.23E"}
{"date":"2011-03-01","average_temperature":"26.47","city":"Sukaraja","latitude":"7.23S","longitude":"106.22E"}
{"date":"2010-09-01","average_temperature":"14.431","city":"Sumy","latitude":"50.63N","longitude":"34.23E"}
{"date":"2012-01-01","average_temperature":"8.055","city":"Sunrise Manor","latitude":"36.17N","longitude":"115.36W"}
{"date":"2013-05-01","average_temperature":"27.125","city":"Surakarta","latitude":"7.23S","longitude":"111.08E"}
{"date":"2012-05-01","average_temperature":"33.275999999999996","city":"Surendranagar","latitude":"23.31N","longitude":"72.52E"}
{"date":"2013-07-01","average_temperature":"28.073","city":"Surendranagar","latitude":"23.31N","longitude":"72.52E"}
{"date":"2010-01-01","average_temperature":"-27.985000000000007","city":"Surgut","latitude":"61.88N","longitude":"73.02E"}
{"date":"2013-03-01","average_temperature":"10.33","city":"Suzuka","latitude":"34.56N","longitude":"136.22E"}
{"date":"2013-03-01","average_temperature":"4.127000000000002","city":"Swansea","latitude":"52.24N","longitude":"5.26W"}
{"date":"2011-07-01","average_temperature":"23.271","city":"Syzran","latitude":"53.84N","longitude":"47.73E"}
{"date":"2013-08-01","average_temperature":"27.24","city":"Türkmenabat","latitude":"39.38N","longitude":"64.51E"}
{"date":"2011-09-01","average_temperature":"22.199","city":"Tachikawa","latitude":"36.17N","longitude":"139.23E"}
{"date":"2011-03-01","average_temperature":"21.147","city":"Tacna","latitude":"18.48S","longitude":"70.99W"}
{"date":"2011-09-01","average_temperature":"29.180999999999997","city":"Tadepallegudem","latitude":"16.87N","longitude":"82.05E"}
{"date":"2011-10-01","average_temperature":"9.467","city":"Taganrog","latitude":"47.42N","longitude":"39.08E"}
{"date":"2010-11-01","average_temperature":"11.601","city":"Takatsuki","latitude":"34.56N","longitude":"136.22E"}
{"date":"2012-10-01","average_temperature":"21.283","city":"Talara","latitude":"4.02S","longitude":"81.16W"}
{"date":"2013-04-01","average_temperature":"13.645","city":"Talcahuano","latitude":"36.17S","longitude":"73.59W"}
{"date":"2013-02-01","average_temperature":"16.325","city":"Tali","latitude":"24.92N","longitude":"120.59E"}
{"date":"2012-08-01","average_temperature":"25.02","city":"Tanga","latitude":"5.63S","longitude":"38.74E"}
{"date":"2010-06-01","average_temperature":"25.159000000000002","city":"Tangshan","latitude":"37.78N","longitude":"113.90E"}
{"date":"2010-07-01","average_temperature":"27.936","city":"Tanjung Morawa","latitude":"4.02N","longitude":"98.84E"}
{"date":"2013-02-01","average_temperature":"16.325","city":"Tanshui","latitude":"24.92N","longitude":"120.59E"}
{"date":"2013-08-01","average_temperature":"28.659","city":"Tanshui","latitude":"24.92N","longitude":"120.59E"}
{"date":"2010-09-01","average_temperature":"27.416","city":"Tanta","latitude":"31.35N","longitude":"30.16E"}
{"date":"2013-03-01","average_temperature":"17.578000000000007","city":"Tarija","latitude":"21.70S","longitude":"64.90W"}
{"date":"2013-06-01","average_temperature":"11.966","city":"Tarija","latitude":"21.70S","longitude":"64.90W"}
{"date":"2011-05-01","average_temperature":"28.826999999999998","city":"Tarlac","latitude":"15.27N","longitude":"120.83E"}
{"date":"2012-08-01","average_temperature":"19.069000000000006","city":"Taubaté","latitude":"23.31S","longitude":"46.31W"}
{"date":"2012-12-01","average_temperature":"26.8","city":"Tawau","latitude":"4.02N","longitude":"118.13E"}
{"date":"2013-09-01","average_temperature":"21.18","city":"Tehuacán","latitude":"18.48N","longitude":"98.03W"}
{"date":"2010-04-01","average_temperature":"29.198","city":"Tema","latitude":"5.63N","longitude":"0.00W"}
{"date":"2013-07-01","average_temperature":"27.485","city":"Teresina","latitude":"5.63S","longitude":"43.59W"}
{"date":"2012-09-01","average_temperature":"21.509","city":"Termiz","latitude":"37.78N","longitude":"67.12E"}
{"date":"2012-04-01","average_temperature":"11.517","city":"Terni","latitude":"42.59N","longitude":"13.09E"}
{"date":"2013-07-01","average_temperature":"20.647","city":"Tete","latitude":"16.87S","longitude":"33.49E"}
{"date":"2010-02-01","average_temperature":"23.374","city":"Thiès","latitude":"15.27N","longitude":"17.50W"}
{"date":"2010-11-01","average_temperature":"27.493000000000002","city":"Thiès","latitude":"15.27N","longitude":"17.50W"}
{"date":"2013-04-01","average_temperature":"16.794","city":"Tianmen","latitude":"31.35N","longitude":"113.09E"}
{"date":"2011-08-01","average_temperature":"20.003","city":"Tijuana","latitude":"32.95N","longitude":"117.77W"}
{"date":"2010-05-01","average_temperature":"18.27","city":"Tirana","latitude":"40.99N","longitude":"19.17E"}
{"date":"2012-08-01","average_temperature":"17.764","city":"Tlalnepantla","latitude":"20.09N","longitude":"98.96W"}
{"date":"2010-09-01","average_temperature":"22.414","city":"Toda","latitude":"36.17N","longitude":"139.23E"}
{"date":"2011-05-01","average_temperature":"16.472","city":"Tongliao","latitude":"44.20N","longitude":"122.98E"}
{"date":"2012-02-01","average_temperature":"-1.835","city":"Tongzhou","latitude":"39.38N","longitude":"116.53E"}
{"date":"2013-09-01","average_temperature":"22.941999999999997","city":"Topeka","latitude":"39.38N","longitude":"95.72W"}
{"date":"2012-09-01","average_temperature":"16.514","city":"Toulouse","latitude":"44.20N","longitude":"2.24E"}
{"date":"2012-05-01","average_temperature":"18.609","city":"Toyohashi","latitude":"34.56N","longitude":"138.16E"}
{"date":"2012-11-01","average_temperature":"13.399","city":"Toyokawa","latitude":"34.56N","longitude":"138.16E"}
{"date":"2011-05-01","average_temperature":"15.477","city":"Trier","latitude":"49.03N","longitude":"7.35E"}
{"date":"2012-10-01","average_temperature":"13.540999999999999","city":"Trieste","latitude":"45.81N","longitude":"12.69E"}
{"date":"2013-03-01","average_temperature":"28.465","city":"Trincomalee","latitude":"8.84N","longitude":"81.89E"}
{"date":"2011-06-01","average_temperature":"17.962","city":"Trois Rivières","latitude":"45.81N","longitude":"72.69W"}
{"date":"2011-09-01","average_temperature":"25.029","city":"Tshikapa","latitude":"5.63S","longitude":"20.99E"}
{"date":"2012-04-01","average_temperature":"25.304000000000002","city":"Tshikapa","latitude":"5.63S","longitude":"20.99E"}
{"date":"2012-10-01","average_temperature":"15.722000000000001","city":"Tsuchiura","latitude":"36.17N","longitude":"139.23E"}
{"date":"2011-10-01","average_temperature":"20.011000000000006","city":"Tucson","latitude":"31.35N","longitude":"111.20W"}
{"date":"2013-01-01","average_temperature":"-8.682","city":"Tula","latitude":"53.84N","longitude":"36.82E"}
{"date":"2010-03-01","average_temperature":"7.729","city":"Turhal","latitude":"40.99N","longitude":"36.21E"}
{"date":"2011-09-01","average_temperature":"15.523","city":"Turin","latitude":"45.81N","longitude":"8.08E"}
{"date":"2012-01-01","average_temperature":"-0.9410000000000004","city":"Turin","latitude":"45.81N","longitude":"8.08E"}
{"date":"2010-04-01","average_temperature":"6.73","city":"Tver","latitude":"57.05N","longitude":"36.89E"}
{"date":"2011-03-01","average_temperature":"-7.424000000000001","city":"Tyumen","latitude":"57.05N","longitude":"66.39E"}
{"date":"2013-04-01","average_temperature":"12.784","city":"Ube","latitude":"34.56N","longitude":"130.38E"}
{"date":"2011-12-01","average_temperature":"22.699","city":"Udgir","latitude":"18.48N","longitude":"77.75E"}
{"date":"2011-03-01","average_temperature":"4.674","city":"Ueda","latitude":"36.17N","longitude":"139.23E"}
{"date":"2013-09-01","city":"Ugep","latitude":"5.63N","longitude":"8.07E"}
{"date":"2013-03-01","average_temperature":"18.762999999999998","city":"Uitenhage","latitude":"34.56S","longitude":"25.30E"}
{"date":"2011-01-01","average_temperature":"17.864","city":"Ulubaria","latitude":"23.31N","longitude":"88.25E"}
{"date":"2010-03-01","average_temperature":"29.773000000000003","city":"Umuahia","latitude":"5.63N","longitude":"8.07E"}
{"date":"2012-09-01","average_temperature":"28.776999999999997","city":"Unnao","latitude":"26.52N","longitude":"80.60E"}
{"date":"2011-01-01","average_temperature":"-4.409","city":"Uppsala","latitude":"60.27N","longitude":"16.22E"}
{"date":"2010-10-01","average_temperature":"25.9","city":"Uromi","latitude":"7.23N","longitude":"5.68E"}
{"date":"2012-02-01","average_temperature":"28.636000000000006","city":"Uromi","latitude":"7.23N","longitude":"5.68E"}
{"date":"2010-12-01","average_temperature":"6.728","city":"Usak","latitude":"39.38N","longitude":"29.13E"}
{"date":"2010-01-01","average_temperature":"28.413","city":"Uyo","latitude":"5.63N","longitude":"8.07E"}
{"date":"2010-10-01","average_temperature":"4.093999999999999","city":"Västerås","latitude":"60.27N","longitude":"16.22E"}
{"date":"2012-12-01","average_temperature":"1.075","city":"Vancouver","latitude":"49.03N","longitude":"122.45W"}
{"date":"2011-03-01","average_temperature":"28.709","city":"Velluru","latitude":"12.05N","longitude":"78.90E"}
{"date":"2011-04-01","average_temperature":"14.817","city":"Verwoerdburg","latitude":"26.52S","longitude":"28.66E"}
{"date":"2012-11-01","average_temperature":"24.796000000000006","city":"Vila Velha","latitude":"20.09S","longitude":"40.95W"}
{"date":"2013-08-01","average_temperature":"12.065","city":"Vina Del Mar","latitude":"32.95S","longitude":"71.81W"}
{"date":"2011-06-01","average_temperature":"19.324","city":"Vinnytsya","latitude":"49.03N","longitude":"29.39E"}
{"date":"2012-09-01","average_temperature":"22.956","city":"Virginia Beach","latitude":"36.17N","longitude":"75.58W"}
{"date":"2012-12-01","average_temperature":"11.318","city":"Virginia Beach","latitude":"36.17N","longitude":"75.58W"}
{"date":"2011-11-01","average_temperature":"10.014","city":"Visalia","latitude":"36.17N","longitude":"119.34W"}
{"date":"2010-01-01","average_temperature":"25.259","city":"Vitória Da Conquista","latitude":"15.27S","longitude":"40.83W"}
{"date":"2012-02-01","average_temperature":"24.004","city":"Vizianagaram","latitude":"18.48N","longitude":"82.82E"}
{"date":"2012-09-01","average_temperature":"17.794999999999995","city":"Vladivostok","latitude":"42.59N","longitude":"130.91E"}
{"date":"2010-07-01","average_temperature":"11.262","city":"Vryheid","latitude":"28.13S","longitude":"30.00E"}
{"date":"2010-02-01","average_temperature":"9.031","city":"Wah","latitude":"34.56N","longitude":"72.00E"}
{"date":"2013-03-01","average_temperature":"13.323","city":"Wah","latitude":"34.56N","longitude":"72.00E"}
{"date":"2013-06-01","average_temperature":"13.45","city":"Waitakere","latitude":"36.17S","longitude":"175.03E"}
{"date":"2010-06-01","average_temperature":"34.602","city":"Warqla","latitude":"31.35N","longitude":"5.65E"}
{"date":"2010-07-01","average_temperature":"26.113000000000003","city":"Warri","latitude":"5.63N","longitude":"6.46E"}
{"date":"2010-01-01","average_temperature":"-2.053","city":"Weihai","latitude":"37.78N","longitude":"122.03E"}
{"date":"2013-07-01","average_temperature":"28.638","city":"Wenzhou","latitude":"28.13N","longitude":"120.91E"}
{"date":"2011-10-01","average_temperature":"15.477","city":"Wichita","latitude":"37.78N","longitude":"97.63W"}
{"date":"2010-06-01","average_temperature":"15.185","city":"Windhoek","latitude":"23.31S","longitude":"16.60E"}
{"date":"2012-07-01","average_temperature":"28.915","city":"Wuzhou","latitude":"23.31N","longitude":"110.97E"}
{"date":"2010-10-01","average_temperature":"16.014","city":"Xiazhen","latitude":"34.56N","longitude":"116.76E"}
{"date":"2011-11-01","average_temperature":"5.433","city":"Xinxiang","latitude":"36.17N","longitude":"113.37E"}
{"date":"2010-04-01","average_temperature":"13.717","city":"Xinyang","latitude":"32.95N","longitude":"113.94E"}
{"date":"2013-01-01","average_temperature":"0.998","city":"Xinyang","latitude":"32.95N","longitude":"113.94E"}
{"date":"2013-08-01","average_temperature":"21.991","city":"Xinzhou","latitude":"37.78N","longitude":"111.86E"}
{"date":"2011-04-01","average_temperature":"16.219","city":"Xuzhou","latitude":"34.56N","longitude":"116.76E"}
{"date":"2013-03-01","average_temperature":"18.025","city":"Yüanlin","latitude":"24.92N","longitude":"120.59E"}
{"date":"2013-08-01","average_temperature":"16.910999999999998","city":"Yakeshi","latitude":"49.03N","longitude":"120.00E"}
{"date":"2010-10-01","average_temperature":"24.979","city":"Yamunanagar","latitude":"29.74N","longitude":"77.54E"}
{"date":"2010-04-01","average_temperature":"8.972999999999999","city":"Yanan","latitude":"36.17N","longitude":"109.39E"}
{"date":"2011-01-01","average_temperature":"-1.018","city":"Yancheng","latitude":"32.95N","longitude":"119.68E"}
{"date":"2011-09-01","average_temperature":"22.455","city":"Yangzhou","latitude":"32.95N","longitude":"119.68E"}
{"date":"2011-10-01","average_temperature":"17.774","city":"Yao","latitude":"34.56N","longitude":"136.22E"}
{"date":"2010-10-01","average_temperature":"11.611999999999998","city":"Yerevan","latitude":"40.99N","longitude":"44.73E"}
{"date":"2013-03-01","average_temperature":"4.109","city":"Yerevan","latitude":"40.99N","longitude":"44.73E"}
{"date":"2013-05-01","average_temperature":"19.677","city":"Yevpatoriya","latitude":"45.81N","longitude":"33.46E"}
{"date":"2012-07-01","average_temperature":"24.479","city":"Yonkers","latitude":"40.99N","longitude":"74.56W"}
{"date":"2013-05-01","average_temperature":"10.322000000000001","city":"York","latitude":"53.84N","longitude":"1.36W"}
{"date":"2011-05-01","average_temperature":"26.256999999999998","city":"Yulin","latitude":"21.70N","longitude":"109.90E"}
{"date":"2010-05-01","average_temperature":"19.748","city":"Yuyao","latitude":"29.74N","longitude":"121.85E"}
{"date":"2010-09-01","average_temperature":"23.93","city":"Zaoyang","latitude":"31.35N","longitude":"113.09E"}
{"date":"2012-04-01","average_temperature":"21.538","city":"Zapopan","latitude":"20.09N","longitude":"104.08W"}
{"date":"2012-05-01","average_temperature":"21.485","city":"Zhaoyang","latitude":"32.95N","longitude":"119.68E"}
{"date":"2012-11-01","average_temperature":"6.454","city":"Zhoucun","latitude":"36.17N","longitude":"117.35E"}
{"date":"2011-08-01","average_temperature":"18.149","city":"Zhukovskiy","latitude":"55.45N","longitude":"36.85E"}
{"date":"2011-04-01","average_temperature":"18.514","city":"Zhuzhou","latitude":"28.13N","longitude":"113.64E"}
{"date":"2011-05-01","average_temperature":"15.277999999999999","city":"Zhytomyr","latitude":"50.63N","longitude":"29.15E"}
