{"date":"2010-11-01","average_temperature":"-0.968","city":"Öskemen","latitude":"50.63N","longitude":"82.39E"}
{"date":"2011-06-01","average_temperature":"16.055","city":"Aalborg","latitude":"57.05N","longitude":"10.33E"}
{"date":"2011-10-01","average_temperature":"7.4780000000000015","city":"Abbotsford","latitude":"49.03N","longitude":"122.45W"}
{"date":"2012-03-01","average_temperature":"28.887","city":"Abidjan","latitude":"5.63N","longitude":"3.23W"}
{"date":"2010-10-01","average_temperature":"27.021","city":"Abomey Calavi","latitude":"7.23N","longitude":"2.43E"}
{"date":"2012-08-01","average_temperature":"26.217","city":"Achalpur","latitude":"21.70N","longitude":"77.02E"}
{"date":"2011-07-01","average_temperature":"23.362","city":"Acheng","latitude":"45.81N","longitude":"128.08E"}
{"date":"2013-06-01","average_temperature":"11.958","city":"Adelaide","latitude":"34.56S","longitude":"138.16E"}
{"date":"2011-05-01","average_temperature":"35.24200000000001","city":"Adilabad","latitude":"20.09N","longitude":"78.48E"}
{"date":"2010-01-01","average_temperature":"20.969","city":"Ahmadabad","latitude":"23.31N","longitude":"72.52E"}
{"date":"2010-03-01","average_temperature":"29.593","city":"Ahmadabad","latitude":"23.31N","longitude":"72.52E"}
{"date":"2010-05-01","average_temperature":"31.7","city":"Ahmadnagar","latitude":"18.48N","longitude":"74.37E"}
{"date":"2010-10-01","average_temperature":"26.846","city":"Akola","latitude":"20.09N","longitude":"76.78E"}
{"date":"2010-09-01","average_temperature":"21.556","city":"Aksaray","latitude":"37.78N","longitude":"34.58E"}
{"date":"2012-08-01","average_temperature":"24.311","city":"Aksu","latitude":"40.99N","longitude":"80.95E"}
{"date":"2011-08-01","average_temperature":"26.647","city":"Aktau","latitude":"44.20N","longitude":"51.43E"}
{"date":"2013-03-01","average_temperature":"6.68","city":"Aktau","latitude":"44.20N","longitude":"51.43E"}
{"date":"2012-10-01","average_temperature":"22.798","city":"Alanya","latitude":"36.17N","longitude":"31.82E"}
{"date":"2011-07-01","average_temperature":"31.024","city":"Aleppo","latitude":"36.17N","longitude":"37.79E"}
{"date":"2010-06-01","average_temperature":"21.943","city":"Allentown","latitude":"40.99N","longitude":"74.56W"}
{"date":"2013-07-01","average_temperature":"24.721999999999998","city":"Allentown","latitude":"40.99N","longitude":"74.56W"}
{"date":"2012-07-01","average_temperature":"20.074","city":"Almaty","latitude":"42.59N","longitude":"76.36E"}
{"date":"2013-07-01","average_temperature":"19.839000000000002","city":"Almaty","latitude":"42.59N","longitude":"76.36E"}
{"date":"2010-05-01","average_temperature":"16.555999999999997","city":"Almetyevsk","latitude":"55.45N","longitude":"51.02E"}
{"date":"2013-08-01","average_temperature":"28.441999999999997","city":"Alor Setar","latitude":"5.63N","longitude":"100.09E"}
{"date":"2010-01-01","average_temperature":"14.014000000000001","city":"Alwar","latitude":"28.13N","longitude":"77.27E"}
{"date":"2013-05-01","average_temperature":"27.219","city":"Amaigbo","latitude":"5.63N","longitude":"8.07E"}
{"date":"2011-03-01","average_temperature":"16.961000000000002","city":"Ambato","latitude":"0.80S","longitude":"77.95W"}
{"date":"2011-09-01","average_temperature":"30.549","city":"Ambattur","latitude":"13.66N","longitude":"80.09E"}
{"date":"2010-09-01","average_temperature":"13.661","city":"Amersfoort","latitude":"52.24N","longitude":"5.26E"}
{"date":"2010-06-01","average_temperature":"26.105999999999998","city":"Amol","latitude":"36.17N","longitude":"51.71E"}
{"date":"2011-03-01","average_temperature":"21.528000000000002","city":"Amritsar","latitude":"31.35N","longitude":"75.39E"}
{"date":"2013-06-01","average_temperature":"31.468000000000004","city":"Amroha","latitude":"28.13N","longitude":"79.09E"}
{"date":"2010-12-01","average_temperature":"23.103","city":"Anantapur","latitude":"15.27N","longitude":"77.50E"}
{"date":"2013-08-01","average_temperature":"24.654000000000003","city":"Ancona","latitude":"44.20N","longitude":"13.42E"}
{"date":"2010-12-01","average_temperature":"4.582","city":"Ankara","latitude":"39.38N","longitude":"33.29E"}
{"date":"2011-07-01","average_temperature":"24.478","city":"Anshan","latitude":"40.99N","longitude":"123.55E"}
{"date":"2011-07-01","average_temperature":"19.581","city":"Apucarana","latitude":"23.31S","longitude":"51.55W"}
{"date":"2012-03-01","average_temperature":"25.259","city":"Apucarana","latitude":"23.31S","longitude":"51.55W"}
{"date":"2012-04-01","average_temperature":"13.543","city":"Ardabil","latitude":"37.78N","longitude":"48.81E"}
{"date":"2012-11-01","average_temperature":"26.206999999999997","city":"Arjawinangun","latitude":"7.23S","longitude":"107.84E"}
{"date":"2010-05-01","average_temperature":"9.184","city":"Arkhangelsk","latitude":"65.09N","longitude":"40.21E"}
{"date":"2012-11-01","average_temperature":"-1.0539999999999998","city":"Arkhangelsk","latitude":"65.09N","longitude":"40.21E"}
{"date":"2011-02-01","average_temperature":"22.121","city":"Armenia","latitude":"4.02N","longitude":"76.34W"}
{"date":"2012-04-01","average_temperature":"21.986","city":"Armenia","latitude":"4.02N","longitude":"76.34W"}
{"date":"2012-07-01","average_temperature":"30.72","city":"Aryanah","latitude":"36.17N","longitude":"9.94E"}
{"date":"2011-10-01","average_temperature":"22.79","city":"Ashqelon","latitude":"31.35N","longitude":"33.93E"}
{"date":"2012-08-01","average_temperature":"21.315","city":"Asunción","latitude":"24.92S","longitude":"58.52W"}
{"date":"2012-11-01","average_temperature":"1.923","city":"Atyrau","latitude":"47.42N","longitude":"50.92E"}
{"date":"2013-02-01","average_temperature":"-5.357","city":"Augsburg","latitude":"47.42N","longitude":"10.66E"}
{"date":"2013-07-01","average_temperature":"28.945999999999998","city":"Austin","latitude":"29.74N","longitude":"97.85W"}
{"date":"2013-04-01","average_temperature":"32.124","city":"Avadi","latitude":"13.66N","longitude":"80.09E"}
{"date":"2012-02-01","average_temperature":"26.764","city":"Bacoor","latitude":"15.27N","longitude":"120.83E"}
{"date":"2010-01-01","average_temperature":"12.22","city":"Bahawalnagar","latitude":"29.74N","longitude":"73.85E"}
{"date":"2011-10-01","average_temperature":"27.325","city":"Bahawalpur","latitude":"29.74N","longitude":"72.00E"}
{"date":"2010-06-01","average_temperature":"9.630999999999998","city":"Bahia Blanca","latitude":"39.38S","longitude":"62.43W"}
{"date":"2010-07-01","average_temperature":"21.798000000000002","city":"Baia Mare","latitude":"47.42N","longitude":"22.50E"}
{"date":"2012-10-01","average_temperature":"6.104","city":"Baicheng","latitude":"45.81N","longitude":"123.46E"}
{"date":"2011-09-01","average_temperature":"27.385","city":"Balikpapan","latitude":"0.80S","longitude":"116.52E"}
{"date":"2011-01-01","average_temperature":"17.864","city":"Bally","latitude":"23.31N","longitude":"88.25E"}
{"date":"2012-09-01","average_temperature":"29.653000000000002","city":"Bally","latitude":"23.31N","longitude":"88.25E"}
{"date":"2010-10-01","average_temperature":"6.65","city":"Balti","latitude":"47.42N","longitude":"27.24E"}
{"date":"2010-04-01","average_temperature":"11.225999999999999","city":"Bandar E Anzali","latitude":"37.78N","longitude":"48.81E"}
{"date":"2010-03-01","average_temperature":"27.37","city":"Bandundu","latitude":"4.02S","longitude":"16.88E"}
{"date":"2013-02-01","average_temperature":"25.502","city":"Banjaran","latitude":"7.23S","longitude":"107.84E"}
{"date":"2011-01-01","average_temperature":"17.037","city":"Bankura","latitude":"23.31N","longitude":"86.50E"}
{"date":"2013-03-01","average_temperature":"27.701999999999998","city":"Bansbaria","latitude":"23.31N","longitude":"88.25E"}
{"date":"2010-10-01","average_temperature":"28.071","city":"Barasat","latitude":"23.31N","longitude":"88.25E"}
{"date":"2010-01-01","average_temperature":"19.407","city":"Baripada","latitude":"21.70N","longitude":"87.40E"}
{"date":"2011-08-01","average_temperature":"30.678","city":"Barnala","latitude":"29.74N","longitude":"75.69E"}
{"date":"2013-04-01","average_temperature":"26.088","city":"Barquisimeto","latitude":"10.45N","longitude":"69.55W"}
{"date":"2013-07-01","average_temperature":"20.131","city":"Bauru","latitude":"21.70S","longitude":"49.33W"}
{"date":"2013-04-01","average_temperature":"29.858","city":"Begusarai","latitude":"24.92N","longitude":"86.90E"}
{"date":"2010-01-01","average_temperature":"26.736","city":"Belawan","latitude":"4.02N","longitude":"98.84E"}
{"date":"2010-05-01","average_temperature":"32.773","city":"Bellary","latitude":"15.27N","longitude":"77.50E"}
{"date":"2010-04-01","average_temperature":"17.125999999999998","city":"Benghazi","latitude":"32.95N","longitude":"20.11E"}
{"date":"2013-07-01","average_temperature":"24.472","city":"Benghazi","latitude":"32.95N","longitude":"20.11E"}
{"date":"2011-06-01","average_temperature":"22.111","city":"Benguela","latitude":"12.05S","longitude":"13.15E"}
{"date":"2011-12-01","average_temperature":"24.587","city":"Benguela","latitude":"12.05S","longitude":"13.15E"}
{"date":"2011-07-01","average_temperature":"29.581999999999997","city":"Benha","latitude":"29.74N","longitude":"31.38E"}
{"date":"2010-09-01","average_temperature":"24.586","city":"Beppu","latitude":"32.95N","longitude":"131.17E"}
{"date":"2010-09-01","average_temperature":"13.204","city":"Bergisch Gladbach","latitude":"50.63N","longitude":"6.34E"}
{"date":"2011-09-01","average_temperature":"16.585","city":"Besançon","latitude":"47.42N","longitude":"5.92E"}
{"date":"2013-07-01","average_temperature":"19.498","city":"Betim","latitude":"20.09S","longitude":"44.36W"}
{"date":"2010-07-01","average_temperature":"30.293000000000006","city":"Bettiah","latitude":"26.52N","longitude":"84.18E"}
{"date":"2010-02-01","average_temperature":"21.392000000000003","city":"Bhagalpur","latitude":"24.92N","longitude":"86.90E"}
{"date":"2010-08-01","average_temperature":"21.429","city":"Bharatpur","latitude":"28.13N","longitude":"84.55E"}
{"date":"2012-10-01","average_temperature":"27.839000000000002","city":"Bhimavaram","latitude":"16.87N","longitude":"82.05E"}
{"date":"2011-12-01","average_temperature":"21.719","city":"Bhubaneswar","latitude":"20.09N","longitude":"85.31E"}
{"date":"2010-06-01","average_temperature":"31.65","city":"Bhusawal","latitude":"21.70N","longitude":"75.29E"}
{"date":"2012-11-01","average_temperature":"4.657","city":"Bialystok","latitude":"53.84N","longitude":"23.18E"}
{"date":"2011-11-01","average_temperature":"24.313000000000002","city":"Bid","latitude":"18.48N","longitude":"76.06E"}
{"date":"2010-11-01","average_temperature":"25.245","city":"Bijapur","latitude":"16.87N","longitude":"75.35E"}
{"date":"2013-06-01","average_temperature":"16.404","city":"Bilbao","latitude":"42.59N","longitude":"2.18W"}
{"date":"2011-06-01","average_temperature":"28.427","city":"Binjai","latitude":"4.02N","longitude":"98.84E"}
{"date":"2010-04-01","average_temperature":"33.028","city":"Birnin Kebbi","latitude":"12.05N","longitude":"4.93E"}
{"date":"2012-05-01","average_temperature":"17.622","city":"Bisho","latitude":"32.95S","longitude":"27.77E"}
{"date":"2010-06-01","average_temperature":"7.974","city":"Bloemfontein","latitude":"29.74S","longitude":"25.85E"}
{"date":"2010-05-01","average_temperature":"10.604","city":"Bochum","latitude":"52.24N","longitude":"7.88E"}
{"date":"2012-12-01","average_temperature":"28.171","city":"Bohicon","latitude":"7.23N","longitude":"2.43E"}
{"date":"2013-05-01","average_temperature":"27.808000000000003","city":"Bohicon","latitude":"7.23N","longitude":"2.43E"}
{"date":"2012-09-01","average_temperature":"20.906999999999996","city":"Bojnurd","latitude":"37.78N","longitude":"56.95E"}
{"date":"2013-09-01","city":"Boksburg","latitude":"26.52S","longitude":"28.66E"}
{"date":"2012-09-01","average_temperature":"13.822","city":"Bonn","latitude":"50.63N","longitude":"6.34E"}
{"date":"2011-09-01","average_temperature":"19.701","city":"Bordeaux","latitude":"44.20N","longitude":"0.00W"}
{"date":"2010-01-01","average_temperature":"-4.205","city":"Braila","latitude":"45.81N","longitude":"28.85E"}
{"date":"2013-05-01","average_temperature":"12.154000000000002","city":"Brakpan","latitude":"26.52S","longitude":"28.66E"}
{"date":"2011-10-01","average_temperature":"24.275","city":"Brazzaville","latitude":"4.02S","longitude":"15.27E"}
{"date":"2010-05-01","average_temperature":"13.53","city":"Brescia","latitude":"45.81N","longitude":"10.38E"}
{"date":"2012-11-01","average_temperature":"7.0729999999999995","city":"Budapest","latitude":"47.42N","longitude":"20.13E"}
{"date":"2013-06-01","average_temperature":"23.073","city":"Buenaventura","latitude":"4.02N","longitude":"76.34W"}
{"date":"2010-07-01","average_temperature":"29.236","city":"Buhe","latitude":"29.74N","longitude":"112.62E"}
{"date":"2012-12-01","average_temperature":"24.167","city":"Buon Me Thuot","latitude":"12.05N","longitude":"108.49E"}
{"date":"2013-09-01","city":"Buraydah","latitude":"26.52N","longitude":"44.78E"}
{"date":"2010-02-01","average_temperature":"10.353","city":"Burbank","latitude":"34.56N","longitude":"118.70W"}
{"date":"2012-04-01","average_temperature":"28.143","city":"Burewala","latitude":"29.74N","longitude":"72.00E"}
{"date":"2010-05-01","average_temperature":"30.164","city":"Cà Mau","latitude":"8.84N","longitude":"104.59E"}
{"date":"2012-07-01","average_temperature":"28.394000000000002","city":"Cà Mau","latitude":"8.84N","longitude":"104.59E"}
{"date":"2010-03-01","average_temperature":"22.301","city":"Córdoba","latitude":"18.48N","longitude":"96.34W"}
{"date":"2011-08-01","average_temperature":"28.276","city":"Córdoba","latitude":"37.78N","longitude":"4.07W"}
{"date":"2012-03-01","average_temperature":"14.818","city":"Cadiz","latitude":"36.17N","longitude":"5.97W"}
{"date":"2011-03-01","average_temperature":"12.446","city":"Cagliari","latitude":"39.38N","longitude":"8.32E"}
{"date":"2012-11-01","average_temperature":"27.191","city":"Cainta","latitude":"15.27N","longitude":"120.83E"}
{"date":"2013-08-01","average_temperature":"25.587000000000003","city":"Calabar","latitude":"5.63N","longitude":"8.07E"}
{"date":"2013-08-01","average_temperature":"24.500999999999998","city":"Campina Grande","latitude":"7.23S","longitude":"36.49W"}
{"date":"2012-10-01","average_temperature":"26.264","city":"Caracas","latitude":"10.45N","longitude":"66.27W"}
{"date":"2012-03-01","average_temperature":"8.123000000000001","city":"Cardiff","latitude":"52.24N","longitude":"2.63W"}
{"date":"2012-02-01","average_temperature":"25.309","city":"Carmen","latitude":"18.48N","longitude":"91.27W"}
{"date":"2013-08-01","average_temperature":"28.136","city":"Carolina","latitude":"18.48N","longitude":"65.92W"}
{"date":"2010-03-01","average_temperature":"26.143","city":"Carrefour","latitude":"18.48N","longitude":"72.68W"}
{"date":"2012-04-01","average_temperature":"14.457","city":"Casablanca","latitude":"32.95N","longitude":"6.70W"}
{"date":"2010-03-01","average_temperature":"28.024","city":"Castanhal","latitude":"0.80S","longitude":"47.41W"}
{"date":"2013-08-01","average_temperature":"26.325","city":"Catania","latitude":"37.78N","longitude":"14.24E"}
{"date":"2010-10-01","average_temperature":"28.629","city":"Caucaia","latitude":"4.02S","longitude":"39.38W"}
{"date":"2010-12-01","average_temperature":"23.397","city":"Caxias Do Sul","latitude":"29.74S","longitude":"51.69W"}
{"date":"2013-06-01","average_temperature":"13.77","city":"Caxias Do Sul","latitude":"29.74S","longitude":"51.69W"}
{"date":"2013-01-01","average_temperature":"17.757","city":"Chandannagar","latitude":"23.31N","longitude":"88.25E"}
{"date":"2010-07-01","average_temperature":"33.683","city":"Chandler","latitude":"32.95N","longitude":"112.02W"}
{"date":"2010-10-01","average_temperature":"22.724","city":"Chandler","latitude":"32.95N","longitude":"112.02W"}
{"date":"2013-07-01","average_temperature":"33.059000000000005","city":"Chandler","latitude":"32.95N","longitude":"112.02W"}
{"date":"2010-11-01","average_temperature":"25.291999999999998","city":"Chandpur","latitude":"23.31N","longitude":"90.00E"}
{"date":"2010-06-01","average_temperature":"26.590999999999998","city":"Charallave","latitude":"10.45N","longitude":"66.27W"}
{"date":"2012-12-01","average_temperature":"8.689","city":"Chattanooga","latitude":"34.56N","longitude":"85.62W"}
{"date":"2010-12-01","average_temperature":"-0.5649999999999995","city":"Cheltenham","latitude":"52.24N","longitude":"2.63W"}
{"date":"2013-05-01","average_temperature":"10.489999999999998","city":"Cheltenham","latitude":"52.24N","longitude":"2.63W"}
{"date":"2010-03-01","average_temperature":"-5.848","city":"Chelyabinsk","latitude":"55.45N","longitude":"62.36E"}
{"date":"2011-07-01","average_temperature":"19.374","city":"Chengdu","latitude":"31.35N","longitude":"103.66E"}
{"date":"2013-05-01","average_temperature":"25.483","city":"Chenghai","latitude":"23.31N","longitude":"116.21E"}
{"date":"2011-01-01","average_temperature":"-4.372","city":"Cherkasy","latitude":"49.03N","longitude":"31.84E"}
{"date":"2010-02-01","average_temperature":"24.72","city":"Chetumal","latitude":"18.48N","longitude":"87.89W"}
{"date":"2011-12-01","average_temperature":"16.427000000000003","city":"Chhapra","latitude":"26.52N","longitude":"84.18E"}
{"date":"2012-09-01","average_temperature":"18.692999999999998","city":"Chicago","latitude":"42.59N","longitude":"87.27W"}
{"date":"2013-09-01","city":"Chigasaki","latitude":"36.17N","longitude":"139.23E"}
{"date":"2013-05-01","average_temperature":"23.95","city":"Chilpancingo","latitude":"18.48N","longitude":"99.72W"}
{"date":"2010-04-01","average_temperature":"10.227","city":"Chisinau","latitude":"47.42N","longitude":"29.61E"}
{"date":"2012-08-01","average_temperature":"25.715999999999998","city":"Choloma","latitude":"15.27N","longitude":"87.50W"}
{"date":"2011-07-01","average_temperature":"6.816","city":"Christchurch","latitude":"44.20S","longitude":"172.17E"}
{"date":"2010-05-01","average_temperature":"15.248","city":"Chula Vista","latitude":"32.95N","longitude":"117.77W"}
{"date":"2011-08-01","average_temperature":"25.154","city":"Ciamis","latitude":"7.23S","longitude":"107.84E"}
{"date":"2013-03-01","average_temperature":"25.63","city":"Cianjur","latitude":"7.23S","longitude":"107.84E"}
{"date":"2012-04-01","average_temperature":"27.609","city":"Cibitung","latitude":"5.63S","longitude":"106.55E"}
{"date":"2012-04-01","average_temperature":"25.644","city":"Cicalengka","latitude":"7.23S","longitude":"107.84E"}
{"date":"2010-11-01","average_temperature":"24.174","city":"Ciego De Ávila","latitude":"21.70N","longitude":"78.75W"}
{"date":"2010-02-01","average_temperature":"22.653","city":"Cienfuegos","latitude":"21.70N","longitude":"80.48W"}
{"date":"2012-09-01","average_temperature":"27.433000000000003","city":"Cikarang","latitude":"5.63S","longitude":"106.55E"}
{"date":"2011-08-01","average_temperature":"25.154","city":"Ciparay","latitude":"7.23S","longitude":"107.84E"}
{"date":"2011-04-01","average_temperature":"27.579","city":"Ciudad Bolívar","latitude":"8.84N","longitude":"64.05W"}
{"date":"2011-11-01","average_temperature":"11.272","city":"Clarksville","latitude":"36.17N","longitude":"87.51W"}
{"date":"2010-07-01","average_temperature":"13.229000000000001","city":"Coquimbo","latitude":"29.74S","longitude":"72.00W"}
{"date":"2010-11-01","average_temperature":"21.348000000000003","city":"Coral Springs","latitude":"26.52N","longitude":"80.60W"}
{"date":"2012-07-01","average_temperature":"18.422","city":"Coronel Fabriciano","latitude":"20.09S","longitude":"42.65W"}
{"date":"2012-11-01","average_temperature":"7.481999999999998","city":"Craiova","latitude":"44.20N","longitude":"24.60E"}
{"date":"2010-04-01","average_temperature":"9.039","city":"Crawley","latitude":"50.63N","longitude":"1.27W"}
{"date":"2012-08-01","average_temperature":"16.783","city":"Criciúma","latitude":"28.13S","longitude":"50.00W"}
{"date":"2013-04-01","average_temperature":"19.011","city":"Cuautitlán Izcalli","latitude":"20.09N","longitude":"98.96W"}
{"date":"2011-05-01","average_temperature":"14.277999999999999","city":"Czestochowa","latitude":"50.63N","longitude":"19.01E"}
{"date":"2011-08-01","average_temperature":"33.831","city":"Dahuk","latitude":"36.17N","longitude":"43.76E"}
{"date":"2013-02-01","average_temperature":"11.047","city":"Dahuk","latitude":"36.17N","longitude":"43.76E"}
{"date":"2010-05-01","average_temperature":"16.522000000000002","city":"Dalian","latitude":"39.38N","longitude":"120.69E"}
{"date":"2011-03-01","average_temperature":"3.957","city":"Dalian","latitude":"39.38N","longitude":"120.69E"}
{"date":"2013-09-01","city":"Danshui","latitude":"23.31N","longitude":"114.47E"}
{"date":"2010-06-01","average_temperature":"26.802","city":"Darjiling","latitude":"26.52N","longitude":"87.76E"}
{"date":"2012-05-01","average_temperature":"28.299","city":"Dasmariñas","latitude":"13.66N","longitude":"121.38E"}
{"date":"2010-06-01","average_temperature":"24.419","city":"Dehui","latitude":"44.20N","longitude":"125.22E"}
{"date":"2012-12-01","average_temperature":"27.011","city":"Depok","latitude":"5.63S","longitude":"106.55E"}
{"date":"2013-03-01","average_temperature":"18.127","city":"Dera Ghazi Khan","latitude":"29.74N","longitude":"70.15E"}
{"date":"2011-11-01","average_temperature":"2.13","city":"Derbent","latitude":"42.59N","longitude":"48.00E"}
{"date":"2011-02-01","average_temperature":"-4.363","city":"Detroit","latitude":"42.59N","longitude":"82.91W"}
{"date":"2010-03-01","average_temperature":"27.927","city":"Dhaulpur","latitude":"26.52N","longitude":"77.01E"}
{"date":"2012-12-01","average_temperature":"21.564","city":"Dhule","latitude":"20.09N","longitude":"75.07E"}
{"date":"2013-08-01","average_temperature":"25.372000000000003","city":"Dibrugarh","latitude":"28.13N","longitude":"95.45E"}
{"date":"2011-09-01","average_temperature":"26.521","city":"Dindigul","latitude":"10.45N","longitude":"77.73E"}
{"date":"2013-05-01","average_temperature":"22.281999999999996","city":"Dodoma","latitude":"5.63S","longitude":"35.52E"}
{"date":"2012-06-01","average_temperature":"27.59","city":"Donghai","latitude":"23.31N","longitude":"116.21E"}
{"date":"2011-12-01","average_temperature":"-8.642000000000001","city":"Dongling","latitude":"40.99N","longitude":"123.55E"}
{"date":"2011-04-01","average_temperature":"12.511","city":"Dortmund","latitude":"52.24N","longitude":"7.88E"}
{"date":"2011-04-01","average_temperature":"14.217","city":"Downey","latitude":"34.56N","longitude":"118.70W"}
{"date":"2011-12-01","average_temperature":"5.8500000000000005","city":"Dudley","latitude":"52.24N","longitude":"2.63W"}
{"date":"2011-10-01","average_temperature":"27.179000000000002","city":"Dumaguete","latitude":"8.84N","longitude":"124.05E"}
{"date":"2013-08-01","average_temperature":"13.533","city":"Dundee","latitude":"57.05N","longitude":"4.43W"}
{"date":"2010-06-01","average_temperature":"1.639","city":"Dunedin","latitude":"45.81S","longitude":"169.62E"}
{"date":"2011-04-01","average_temperature":"7.562","city":"Dunedin","latitude":"45.81S","longitude":"169.62E"}
{"date":"2011-02-01","average_temperature":"28.146","city":"Duque De Caxias","latitude":"23.31S","longitude":"42.82W"}
{"date":"2011-09-01","average_temperature":"17.949","city":"Ebetsu","latitude":"42.59N","longitude":"141.82E"}
{"date":"2011-10-01","average_temperature":"11.337","city":"Ede","latitude":"52.24N","longitude":"5.26E"}
{"date":"2010-07-01","average_temperature":"25.426","city":"Ede","latitude":"7.23N","longitude":"4.05E"}
{"date":"2012-01-01","average_temperature":"12.382","city":"El Faiyûm","latitude":"29.74N","longitude":"31.38E"}
{"date":"2011-03-01","average_temperature":"25.68","city":"El Limón","latitude":"10.45N","longitude":"67.91W"}
{"date":"2013-01-01","average_temperature":"25.201","city":"El Limón","latitude":"10.45N","longitude":"67.91W"}
{"date":"2011-01-01","average_temperature":"-2.717","city":"Elblag","latitude":"53.84N","longitude":"20.45E"}
{"date":"2012-04-01","average_temperature":"14.003","city":"Engels","latitude":"50.63N","longitude":"46.90E"}
{"date":"2011-06-01","average_temperature":"17.176000000000002","city":"Ensenada","latitude":"31.35N","longitude":"116.86W"}
{"date":"2010-01-01","average_temperature":"28.256","city":"Enugu","latitude":"7.23N","longitude":"7.30E"}
{"date":"2010-12-01","average_temperature":"18.53","city":"Envigado","latitude":"5.63N","longitude":"75.87W"}
{"date":"2013-01-01","average_temperature":"19.998","city":"Envigado","latitude":"5.63N","longitude":"75.87W"}
{"date":"2010-02-01","average_temperature":"5.664","city":"Eslamshahr","latitude":"36.17N","longitude":"51.71E"}
{"date":"2011-08-01","average_temperature":"25.52","city":"Eslamshahr","latitude":"36.17N","longitude":"51.71E"}
{"date":"2010-09-01","average_temperature":"28.36","city":"Etah","latitude":"28.13N","longitude":"79.09E"}
{"date":"2013-04-01","average_temperature":"9.347000000000001","city":"Eugene","latitude":"44.20N","longitude":"122.98W"}
{"date":"2013-07-01","average_temperature":"29.816999999999997","city":"Fatehpur","latitude":"26.52N","longitude":"80.60E"}
{"date":"2012-06-01","average_temperature":"27.184","city":"Fengshan","latitude":"23.31N","longitude":"119.71E"}
{"date":"2011-12-01","average_temperature":"26.92","city":"Fernando De La Mora","latitude":"24.92S","longitude":"56.75W"}
{"date":"2010-11-01","average_temperature":"8.952","city":"Florence","latitude":"44.20N","longitude":"11.18E"}
{"date":"2010-04-01","average_temperature":"21.809","city":"Formosa","latitude":"26.52S","longitude":"57.31W"}
{"date":"2011-06-01","average_temperature":"17.197000000000006","city":"Foz Do Iguaçu","latitude":"24.92S","longitude":"54.98W"}
{"date":"2011-04-01","average_temperature":"22.772","city":"Franca","latitude":"20.09S","longitude":"47.77W"}
{"date":"2013-04-01","average_temperature":"20.48","city":"Franco Da Rocha","latitude":"23.31S","longitude":"46.31W"}
{"date":"2011-09-01","average_temperature":"20.54","city":"Fremont","latitude":"37.78N","longitude":"122.03W"}
{"date":"2013-03-01","average_temperature":"-1.196","city":"Fuxin","latitude":"42.59N","longitude":"122.18E"}
{"date":"2010-11-01","average_temperature":"11.976","city":"Fuyang","latitude":"32.95N","longitude":"115.85E"}
{"date":"2010-06-01","average_temperature":"24.975","city":"Fuyu","latitude":"45.81N","longitude":"125.77E"}
{"date":"2011-07-01","average_temperature":"18.026","city":"Göteborg","latitude":"58.66N","longitude":"12.31E"}
{"date":"2013-04-01","average_temperature":"12.155","city":"Galati","latitude":"45.81N","longitude":"28.85E"}
{"date":"2013-07-01","average_temperature":"24.891","city":"Garut","latitude":"7.23S","longitude":"107.84E"}
{"date":"2010-10-01","average_temperature":"30.386999999999997","city":"Gashua","latitude":"13.66N","longitude":"10.73E"}
{"date":"2013-08-01","average_temperature":"18.935","city":"Gdansk","latitude":"53.84N","longitude":"17.73E"}
{"date":"2012-02-01","average_temperature":"-5.15","city":"Gdynia","latitude":"53.84N","longitude":"17.73E"}
{"date":"2010-07-01","average_temperature":"28.482","city":"Godhra","latitude":"23.31N","longitude":"74.27E"}
{"date":"2010-03-01","average_temperature":"24.316000000000006","city":"Goiânia","latitude":"16.87S","longitude":"48.56W"}
{"date":"2013-04-01","average_temperature":"22.956999999999997","city":"Goiânia","latitude":"16.87S","longitude":"48.56W"}
{"date":"2013-01-01","average_temperature":"20.457","city":"Gondal","latitude":"21.70N","longitude":"70.10E"}
{"date":"2012-01-01","average_temperature":"24.634","city":"Governador Valadares","latitude":"18.48S","longitude":"42.25W"}
{"date":"2012-11-01","average_temperature":"4.461","city":"Green Bay","latitude":"44.20N","longitude":"87.20W"}
{"date":"2010-04-01","average_temperature":"27.035","city":"Grogol","latitude":"7.23S","longitude":"111.08E"}
{"date":"2013-03-01","average_temperature":"25.609","city":"Guanare","latitude":"8.84N","longitude":"70.54W"}
{"date":"2010-06-01","average_temperature":"19.111","city":"Guarapari","latitude":"20.09S","longitude":"40.95W"}
{"date":"2011-03-01","average_temperature":"21.92","city":"Guarujá","latitude":"23.31S","longitude":"46.31W"}
{"date":"2010-01-01","average_temperature":"23.738000000000003","city":"Guarulhos","latitude":"23.31S","longitude":"46.31W"}
{"date":"2013-02-01","average_temperature":"-6.742999999999999","city":"Guelph","latitude":"44.20N","longitude":"80.50W"}
{"date":"2011-07-01","average_temperature":"29.366","city":"Guntur","latitude":"16.87N","longitude":"80.37E"}
{"date":"2013-09-01","city":"Guntur","latitude":"16.87N","longitude":"80.37E"}
{"date":"2011-03-01","average_temperature":"31.558000000000003","city":"Gusau","latitude":"12.05N","longitude":"6.58E"}
{"date":"2012-11-01","average_temperature":"6.4689999999999985","city":"Haarlemmermeer","latitude":"52.24N","longitude":"5.26E"}
{"date":"2012-10-01","average_temperature":"26.741999999999997","city":"Hadejia","latitude":"12.05N","longitude":"9.86E"}
{"date":"2013-07-01","average_temperature":"29.361","city":"Haldia","latitude":"21.70N","longitude":"87.40E"}
{"date":"2013-08-01","average_temperature":"22.118","city":"Haldwani","latitude":"29.74N","longitude":"79.38E"}
{"date":"2012-08-01","average_temperature":"23.166999999999998","city":"Hami","latitude":"42.59N","longitude":"93.82E"}
{"date":"2012-03-01","average_temperature":"7.73","city":"Hamilton","latitude":"42.59N","longitude":"80.73W"}
{"date":"2010-02-01","average_temperature":"0.3960000000000001","city":"Hamm","latitude":"52.24N","longitude":"7.88E"}
{"date":"2010-11-01","average_temperature":"12.795","city":"Hampton","latitude":"36.17N","longitude":"75.58W"}
{"date":"2013-06-01","average_temperature":"22.49","city":"Handa","latitude":"34.56N","longitude":"136.22E"}
{"date":"2011-06-01","average_temperature":"27.27","city":"Handan","latitude":"36.17N","longitude":"115.36E"}
{"date":"2011-03-01","average_temperature":"27.394","city":"Haora","latitude":"23.31N","longitude":"88.25E"}
{"date":"2012-12-01","average_temperature":"19.621","city":"Haora","latitude":"23.31N","longitude":"88.25E"}
{"date":"2011-02-01","average_temperature":"21.893","city":"Harare","latitude":"18.48S","longitude":"30.42E"}
{"date":"2013-07-01","average_temperature":"26.261000000000006","city":"Hargeysa","latitude":"8.84N","longitude":"44.59E"}
{"date":"2011-05-01","average_temperature":"28.152","city":"Hassan","latitude":"13.66N","longitude":"76.79E"}
{"date":"2012-04-01","average_temperature":"5.065","city":"Hegang","latitude":"47.42N","longitude":"131.45E"}
{"date":"2011-07-01","average_temperature":"28.826","city":"Hialeah","latitude":"26.52N","longitude":"80.60W"}
{"date":"2012-09-01","average_temperature":"28.118000000000002","city":"Ho Chi Minh City","latitude":"10.45N","longitude":"107.18E"}
{"date":"2012-08-01","average_temperature":"9.9","city":"Hobart","latitude":"42.59S","longitude":"148.36E"}
{"date":"2012-03-01","average_temperature":"8.587","city":"Hofu","latitude":"34.56N","longitude":"132.32E"}
{"date":"2013-02-01","average_temperature":"5.745","city":"Hofu","latitude":"34.56N","longitude":"132.32E"}
{"date":"2013-01-01","average_temperature":"13.892000000000001","city":"Hong Gai","latitude":"21.70N","longitude":"106.44E"}
{"date":"2011-11-01","average_temperature":"21.211","city":"Hoshiarpur","latitude":"31.35N","longitude":"75.39E"}
{"date":"2013-02-01","average_temperature":"22.802","city":"Huambo","latitude":"13.66S","longitude":"15.69E"}
{"date":"2011-05-01","average_temperature":"22.666","city":"Huangzhou","latitude":"29.74N","longitude":"114.46E"}
{"date":"2012-08-01","average_temperature":"28.015","city":"Huelva","latitude":"37.78N","longitude":"6.10W"}
{"date":"2011-10-01","average_temperature":"8.276","city":"Hulan","latitude":"45.81N","longitude":"125.77E"}
{"date":"2011-05-01","average_temperature":"24.947","city":"Humen","latitude":"23.31N","longitude":"114.47E"}
{"date":"2013-02-01","average_temperature":"0.4630000000000001","city":"Iasi","latitude":"47.42N","longitude":"27.24E"}
{"date":"2012-03-01","average_temperature":"10.983","city":"Ichihara","latitude":"34.56N","longitude":"140.11E"}
{"date":"2013-03-01","average_temperature":"13.193","city":"Ichihara","latitude":"34.56N","longitude":"140.11E"}
{"date":"2012-04-01","average_temperature":"11.355","city":"Ichikawa","latitude":"36.17N","longitude":"139.23E"}
{"date":"2010-10-01","average_temperature":"25.9","city":"Ikare","latitude":"7.23N","longitude":"5.68E"}
{"date":"2011-07-01","average_temperature":"25.285999999999998","city":"Ikare","latitude":"7.23N","longitude":"5.68E"}
{"date":"2011-02-01","average_temperature":"28.525","city":"Ikere","latitude":"7.23N","longitude":"5.68E"}
{"date":"2011-08-01","average_temperature":"24.976999999999997","city":"Ikere","latitude":"7.23N","longitude":"5.68E"}
{"date":"2011-03-01","average_temperature":"29.572000000000006","city":"Ilawe","latitude":"7.23N","longitude":"5.68E"}
{"date":"2010-02-01","average_temperature":"30.769000000000002","city":"Ilesha","latitude":"8.84N","longitude":"4.05E"}
{"date":"2011-04-01","average_temperature":"12.548","city":"Inazawa","latitude":"34.56N","longitude":"136.22E"}
{"date":"2013-03-01","average_temperature":"10.33","city":"Inazawa","latitude":"34.56N","longitude":"136.22E"}
{"date":"2012-04-01","average_temperature":"11.912999999999998","city":"Indianapolis","latitude":"39.38N","longitude":"85.32W"}
{"date":"2012-07-01","average_temperature":"25.215999999999998","city":"Inisa","latitude":"7.23N","longitude":"4.05E"}
{"date":"2013-06-01","average_temperature":"14.698","city":"Ipswich","latitude":"52.24N","longitude":"0.00W"}
{"date":"2011-10-01","average_temperature":"21.109","city":"Irbid","latitude":"32.95N","longitude":"35.43E"}
{"date":"2012-05-01","average_temperature":"26.236","city":"Irbil","latitude":"36.17N","longitude":"43.76E"}
{"date":"2010-02-01","average_temperature":"3.306","city":"Iruma","latitude":"36.17N","longitude":"139.23E"}
{"date":"2013-01-01","average_temperature":"24.54","city":"Isiro","latitude":"2.41N","longitude":"28.13E"}
{"date":"2012-06-01","average_temperature":"25.949","city":"Iskenderun","latitude":"36.17N","longitude":"35.80E"}
{"date":"2011-10-01","average_temperature":"24.108","city":"Ismailia","latitude":"31.35N","longitude":"32.04E"}
{"date":"2012-09-01","average_temperature":"27.409000000000002","city":"Ismailia","latitude":"31.35N","longitude":"32.04E"}
{"date":"2012-12-01","average_temperature":"26.051","city":"Itaboraí","latitude":"23.31S","longitude":"42.82W"}
{"date":"2013-08-01","average_temperature":"23.175","city":"Itaboraí","latitude":"23.31S","longitude":"42.82W"}
{"date":"2011-07-01","average_temperature":"20.643","city":"Itaguaí","latitude":"23.31S","longitude":"44.56W"}
{"date":"2012-02-01","average_temperature":"25.749000000000002","city":"Itajaí","latitude":"26.52S","longitude":"48.36W"}
{"date":"2010-07-01","average_temperature":"24.398000000000003","city":"Ivanovo","latitude":"57.05N","longitude":"39.84E"}
{"date":"2013-03-01","average_temperature":"25.678","city":"Jabalpur","latitude":"23.31N","longitude":"79.51E"}
{"date":"2013-01-01","average_temperature":"27.265","city":"Jaboatão","latitude":"8.84S","longitude":"34.86W"}
{"date":"2013-07-01","average_temperature":"31.599","city":"Jalandhar","latitude":"31.35N","longitude":"75.39E"}
{"date":"2010-03-01","average_temperature":"28.882","city":"Jalna","latitude":"20.09N","longitude":"75.07E"}
{"date":"2011-09-01","average_temperature":"28.495","city":"Jamalpur","latitude":"24.92N","longitude":"90.44E"}
{"date":"2012-06-01","average_temperature":"28.125","city":"Jamalpur","latitude":"24.92N","longitude":"90.44E"}
{"date":"2012-09-01","average_temperature":"29.331999999999997","city":"Jamalpur","latitude":"24.92N","longitude":"86.90E"}
{"date":"2011-02-01","average_temperature":"22.994","city":"Jamnagar","latitude":"21.70N","longitude":"70.10E"}
{"date":"2010-09-01","average_temperature":"29.795","city":"Jaranwala","latitude":"31.35N","longitude":"73.51E"}
{"date":"2011-10-01","average_temperature":"12.001","city":"Jersey City","latitude":"40.99N","longitude":"74.56W"}
{"date":"2010-08-01","average_temperature":"25.974","city":"Jiaozhou","latitude":"36.17N","longitude":"119.34E"}
{"date":"2010-09-01","average_temperature":"21.117","city":"Jiaozuo","latitude":"34.56N","longitude":"112.86E"}
{"date":"2013-02-01","average_temperature":"-10.493","city":"Jiayuguan","latitude":"39.38N","longitude":"97.80E"}
{"date":"2010-03-01","average_temperature":"26.316999999999997","city":"Jiddah","latitude":"21.70N","longitude":"38.94E"}
{"date":"2011-05-01","average_temperature":"21.916","city":"Jieshou","latitude":"32.95N","longitude":"115.85E"}
{"date":"2011-02-01","average_temperature":"21.627","city":"Jimma","latitude":"7.23N","longitude":"36.49E"}
{"date":"2011-06-01","average_temperature":"11.404000000000002","city":"Jinchang","latitude":"37.78N","longitude":"101.69E"}
{"date":"2012-08-01","average_temperature":"27.588","city":"Jinchengjiang","latitude":"24.92N","longitude":"108.18E"}
{"date":"2012-01-01","average_temperature":"12.397","city":"Jind","latitude":"29.74N","longitude":"75.69E"}
{"date":"2011-10-01","average_temperature":"17.826999999999995","city":"Jingdezhen","latitude":"29.74N","longitude":"116.31E"}
{"date":"2010-02-01","average_temperature":"-5.481","city":"Jinzhou","latitude":"40.99N","longitude":"121.42E"}
{"date":"2012-04-01","average_temperature":"8.568","city":"Jiutai","latitude":"44.20N","longitude":"125.22E"}
{"date":"2012-06-01","average_temperature":"23.293000000000003","city":"Jiutepec","latitude":"18.48N","longitude":"99.72W"}
{"date":"2013-06-01","average_temperature":"9.982000000000001","city":"Johannesburg","latitude":"26.52S","longitude":"28.66E"}
{"date":"2013-07-01","average_temperature":"26.738000000000003","city":"Jombang","latitude":"7.23S","longitude":"112.70E"}
{"date":"2012-01-01","average_temperature":"27.271","city":"Juba","latitude":"4.02N","longitude":"31.34E"}
{"date":"2013-03-01","average_temperature":"28.854","city":"Juba","latitude":"4.02N","longitude":"31.34E"}
{"date":"2013-02-01","average_temperature":"27.351","city":"Kabankalan","latitude":"10.45N","longitude":"123.55E"}
{"date":"2012-10-01","average_temperature":"15.716","city":"Kabul","latitude":"34.56N","longitude":"70.05E"}
{"date":"2013-09-01","city":"Kalisz","latitude":"52.24N","longitude":"18.39E"}
{"date":"2011-04-01","average_temperature":"14.190999999999999","city":"Kallithéa","latitude":"37.78N","longitude":"24.41E"}
{"date":"2013-03-01","average_temperature":"13.785","city":"Kallithéa","latitude":"37.78N","longitude":"24.41E"}
{"date":"2011-06-01","average_temperature":"18.875999999999998","city":"Kaluga","latitude":"53.84N","longitude":"36.82E"}
{"date":"2011-02-01","average_temperature":"15.970999999999998","city":"Kamoke","latitude":"31.35N","longitude":"73.51E"}
{"date":"2011-06-01","average_temperature":"20.047","city":"Kamyshin","latitude":"50.63N","longitude":"44.37E"}
{"date":"2013-09-01","city":"Kandi","latitude":"10.45N","longitude":"2.45E"}
{"date":"2010-01-01","average_temperature":"17.930999999999997","city":"Kaohsiung","latitude":"23.31N","longitude":"119.71E"}
{"date":"2011-07-01","average_temperature":"28.92","city":"Kaolack","latitude":"13.66N","longitude":"15.69W"}
{"date":"2011-04-01","average_temperature":"26.798","city":"Karang Tengah","latitude":"7.23S","longitude":"106.22E"}
{"date":"2013-06-01","average_temperature":"26.918000000000003","city":"Karang Tengah","latitude":"7.23S","longitude":"106.22E"}
{"date":"2012-05-01","average_temperature":"18.069000000000003","city":"Kariya","latitude":"34.56N","longitude":"136.22E"}
{"date":"2010-10-01","average_temperature":"19.117","city":"Kashan","latitude":"34.56N","longitude":"50.59E"}
{"date":"2013-01-01","average_temperature":"-1.148","city":"Kayseri","latitude":"39.38N","longitude":"35.38E"}
{"date":"2013-04-01","average_temperature":"5.83","city":"Kazan","latitude":"55.45N","longitude":"48.19E"}
{"date":"2012-09-01","average_temperature":"26.875999999999998","city":"Kebumen","latitude":"7.23S","longitude":"109.46E"}
{"date":"2010-03-01","average_temperature":"6.016","city":"Kecskemét","latitude":"47.42N","longitude":"20.13E"}
{"date":"2010-11-01","average_temperature":"28.095","city":"Kediri","latitude":"7.23S","longitude":"112.70E"}
{"date":"2013-08-01","average_temperature":"26.16","city":"Kemang","latitude":"7.23S","longitude":"106.22E"}
{"date":"2010-04-01","average_temperature":"1.764","city":"Kemerovo","latitude":"55.45N","longitude":"85.04E"}
{"date":"2013-07-01","average_temperature":"23.011","city":"Kerch","latitude":"45.81N","longitude":"35.77E"}
{"date":"2011-02-01","average_temperature":"6.244","city":"Kerman","latitude":"29.74N","longitude":"57.23E"}
{"date":"2010-01-01","average_temperature":"19.407","city":"Kharagpur","latitude":"21.70N","longitude":"87.40E"}
{"date":"2010-04-01","average_temperature":"31.086","city":"Khlong Luang","latitude":"13.66N","longitude":"99.91E"}
{"date":"2011-06-01","average_temperature":"31.524","city":"Kirkuk","latitude":"36.17N","longitude":"43.76E"}
{"date":"2012-03-01","average_temperature":"10.176","city":"Kirkuk","latitude":"36.17N","longitude":"43.76E"}
{"date":"2011-12-01","average_temperature":"1.2770000000000001","city":"Konya","latitude":"37.78N","longitude":"32.54E"}
{"date":"2012-10-01","average_temperature":"25.747","city":"Kotte","latitude":"7.23N","longitude":"80.27E"}
{"date":"2013-02-01","average_temperature":"2.975","city":"Krasnodar","latitude":"45.81N","longitude":"38.08E"}
{"date":"2013-04-01","average_temperature":"30.435","city":"Krishnanagar","latitude":"23.31N","longitude":"88.25E"}
{"date":"2013-02-01","average_temperature":"26.471999999999998","city":"Kuching","latitude":"0.80N","longitude":"110.09E"}
{"date":"2012-10-01","average_temperature":"25.908","city":"Kulti","latitude":"23.31N","longitude":"86.50E"}
{"date":"2012-06-01","average_temperature":"25.545","city":"Kupang","latitude":"10.45S","longitude":"123.55E"}
{"date":"2010-11-01","average_temperature":"-2.3070000000000004","city":"Kurgan","latitude":"55.45N","longitude":"65.20E"}
{"date":"2012-06-01","average_temperature":"20.513","city":"Kurgan","latitude":"55.45N","longitude":"65.20E"}
{"date":"2012-09-01","average_temperature":"12.145999999999999","city":"Kurgan","latitude":"55.45N","longitude":"65.20E"}
{"date":"2012-12-01","average_temperature":"5.229","city":"Kusatsu","latitude":"34.56N","longitude":"136.22E"}
{"date":"2010-06-01","average_temperature":"11.835999999999999","city":"La Plata","latitude":"34.56S","longitude":"58.38W"}
{"date":"2010-01-01","average_temperature":"26.321","city":"Lafia","latitude":"8.84N","longitude":"8.92E"}
{"date":"2011-12-01","average_temperature":"27.12","city":"Lafiagi","latitude":"8.84N","longitude":"5.68E"}
{"date":"2011-09-01","average_temperature":"19.965999999999998","city":"Lalitpur","latitude":"28.13N","longitude":"84.55E"}
{"date":"2010-10-01","average_temperature":"16.91","city":"Lancaster","latitude":"34.56N","longitude":"118.70W"}
{"date":"2013-02-01","average_temperature":"24.268","city":"Las Tunas","latitude":"21.70N","longitude":"77.02W"}
{"date":"2012-01-01","average_temperature":"21.971999999999998","city":"Latur","latitude":"18.48N","longitude":"76.06E"}
{"date":"2010-07-01","average_temperature":"19.775","city":"Leiden","latitude":"52.24N","longitude":"5.26E"}
{"date":"2012-06-01","average_temperature":"25.462","city":"Lengshuijiang","latitude":"28.13N","longitude":"111.82E"}
{"date":"2013-02-01","average_temperature":"7.7589999999999995","city":"Lengshuijiang","latitude":"28.13N","longitude":"111.82E"}
{"date":"2012-03-01","average_temperature":"8.16","city":"Leverkusen","latitude":"50.63N","longitude":"6.34E"}
{"date":"2012-12-01","average_temperature":"5.6850000000000005","city":"Limoges","latitude":"45.81N","longitude":"1.15E"}
{"date":"2013-03-01","average_temperature":"1.415","city":"Lincoln","latitude":"40.99N","longitude":"95.86W"}
{"date":"2011-09-01","average_temperature":"14.925","city":"Linz","latitude":"49.03N","longitude":"14.69E"}
{"date":"2013-03-01","average_temperature":"-5.221","city":"Lipetsk","latitude":"52.24N","longitude":"39.42E"}
{"date":"2012-06-01","average_temperature":"21.232","city":"Lisbon","latitude":"39.38N","longitude":"8.32W"}
{"date":"2013-01-01","average_temperature":"10.385","city":"Lisbon","latitude":"39.38N","longitude":"8.32W"}
{"date":"2012-10-01","average_temperature":"23.471","city":"Liusha","latitude":"23.31N","longitude":"116.21E"}
{"date":"2012-08-01","average_temperature":"20.713","city":"Lobito","latitude":"12.05S","longitude":"13.15E"}
{"date":"2013-03-01","average_temperature":"24.501","city":"Londrina","latitude":"23.31S","longitude":"51.55W"}
{"date":"2013-07-01","average_temperature":"17.759","city":"Lubumbashi","latitude":"12.05S","longitude":"27.95E"}
{"date":"2012-09-01","average_temperature":"24.816","city":"Lumajang","latitude":"8.84S","longitude":"112.70E"}
{"date":"2010-10-01","average_temperature":"16.224","city":"Luohe","latitude":"32.95N","longitude":"113.94E"}
{"date":"2011-02-01","average_temperature":"22.186999999999998","city":"Lusaka","latitude":"15.27S","longitude":"27.50E"}
{"date":"2012-06-01","average_temperature":"24.051","city":"Luzhou","latitude":"29.74N","longitude":"105.23E"}
{"date":"2010-06-01","average_temperature":"25.754","city":"Macheng","latitude":"31.35N","longitude":"114.97E"}
{"date":"2012-11-01","average_temperature":"-4.104000000000001","city":"Magnitogorsk","latitude":"53.84N","longitude":"58.64E"}
{"date":"2011-05-01","average_temperature":"17.698999999999995","city":"Mahabad","latitude":"36.17N","longitude":"45.75E"}
{"date":"2013-01-01","average_temperature":"24.67","city":"Mahbubnagar","latitude":"16.87N","longitude":"78.70E"}
{"date":"2010-03-01","average_temperature":"28.918000000000003","city":"Maicao","latitude":"12.05N","longitude":"72.33W"}
{"date":"2011-08-01","average_temperature":"30.311","city":"Maicao","latitude":"12.05N","longitude":"72.33W"}
{"date":"2012-09-01","average_temperature":"26.09","city":"Majalaya","latitude":"7.23S","longitude":"107.84E"}
{"date":"2013-02-01","average_temperature":"27.042","city":"Makati","latitude":"15.27N","longitude":"120.83E"}
{"date":"2010-05-01","average_temperature":"27.348000000000003","city":"Malabo","latitude":"4.02N","longitude":"8.84E"}
{"date":"2012-10-01","average_temperature":"28.901","city":"Malang","latitude":"7.23S","longitude":"112.70E"}
{"date":"2013-08-01","average_temperature":"24.995","city":"Malegaon","latitude":"20.09N","longitude":"75.07E"}
{"date":"2010-04-01","average_temperature":"27.525","city":"Man","latitude":"7.23N","longitude":"7.30W"}
{"date":"2013-08-01","average_temperature":"35.21","city":"Manama","latitude":"26.52N","longitude":"50.15E"}
{"date":"2011-03-01","average_temperature":"27.351999999999997","city":"Mandaue","latitude":"10.45N","longitude":"123.55E"}
{"date":"2012-01-01","average_temperature":"27.025","city":"Mandaue","latitude":"10.45N","longitude":"123.55E"}
{"date":"2011-10-01","average_temperature":"25.322","city":"Mandya","latitude":"12.05N","longitude":"77.26E"}
{"date":"2012-07-01","average_temperature":"28.836","city":"Manisa","latitude":"39.38N","longitude":"27.05E"}
{"date":"2012-11-01","average_temperature":"14.450999999999999","city":"Manisa","latitude":"39.38N","longitude":"27.05E"}
{"date":"2011-02-01","average_temperature":"19.313","city":"Manizales","latitude":"5.63N","longitude":"75.87W"}
{"date":"2013-03-01","average_temperature":"23.919","city":"Maputo","latitude":"26.52S","longitude":"32.24E"}
{"date":"2011-02-01","average_temperature":"27.383000000000006","city":"Maracaibo","latitude":"10.45N","longitude":"71.18W"}
{"date":"2010-04-01","average_temperature":"22.594","city":"Maringá","latitude":"23.31S","longitude":"51.55W"}
{"date":"2012-08-01","average_temperature":"21.732","city":"Maringá","latitude":"23.31S","longitude":"51.55W"}
{"date":"2012-03-01","average_temperature":"27.6","city":"Masaya","latitude":"12.05N","longitude":"85.48W"}
{"date":"2011-05-01","average_temperature":"10.445","city":"Maseru","latitude":"29.74S","longitude":"27.69E"}
{"date":"2012-12-01","average_temperature":"19.369","city":"Maseru","latitude":"29.74S","longitude":"27.69E"}
{"date":"2010-08-01","average_temperature":"27.546999999999997","city":"Matsumoto","latitude":"36.17N","longitude":"137.24E"}
{"date":"2012-05-01","average_temperature":"15.764000000000001","city":"Matsumoto","latitude":"36.17N","longitude":"137.24E"}
{"date":"2011-05-01","average_temperature":"18.11","city":"Matsusaka","latitude":"34.56N","longitude":"136.22E"}
{"date":"2011-12-01","average_temperature":"16.427000000000003","city":"Mau","latitude":"26.52N","longitude":"84.18E"}
{"date":"2013-07-01","average_temperature":"27.073","city":"Mawlamyine","latitude":"16.87N","longitude":"97.12E"}
{"date":"2012-09-01","average_temperature":"23.264","city":"Maxixe","latitude":"23.31S","longitude":"35.83E"}
{"date":"2011-11-01","average_temperature":"23.094","city":"Mbeya","latitude":"8.84S","longitude":"33.24E"}
{"date":"2013-06-01","average_temperature":"28.679000000000002","city":"Meilu","latitude":"21.70N","longitude":"109.90E"}
{"date":"2012-12-01","average_temperature":"25.416","city":"Mejicanos","latitude":"13.66N","longitude":"90.00W"}
{"date":"2012-01-01","average_temperature":"9.359","city":"Mesquite","latitude":"32.95N","longitude":"96.70W"}
{"date":"2012-07-01","average_temperature":"30.415","city":"Mesquite","latitude":"32.95N","longitude":"96.70W"}
{"date":"2013-03-01","average_temperature":"13.184","city":"Messina","latitude":"37.78N","longitude":"16.27E"}
{"date":"2013-04-01","average_temperature":"26.929","city":"Metro","latitude":"5.63S","longitude":"104.93E"}
{"date":"2012-07-01","average_temperature":"20.227","city":"Miass","latitude":"55.45N","longitude":"59.53E"}
{"date":"2010-07-01","average_temperature":"16.89","city":"Middlesbrough","latitude":"53.84N","longitude":"1.36W"}
{"date":"2010-12-01","average_temperature":"-1.1570000000000005","city":"Middlesbrough","latitude":"53.84N","longitude":"1.36W"}
{"date":"2011-03-01","average_temperature":"26.133000000000003","city":"Miri","latitude":"4.02N","longitude":"113.30E"}
{"date":"2012-06-01","average_temperature":"21.125","city":"Mixco","latitude":"15.27N","longitude":"90.83W"}
{"date":"2012-12-01","average_temperature":"11.077","city":"Miyakonojo","latitude":"31.35N","longitude":"131.94E"}
{"date":"2013-03-01","average_temperature":"29.531","city":"Modakeke","latitude":"7.23N","longitude":"4.05E"}
{"date":"2010-01-01","average_temperature":"27.520000000000003","city":"Mogadishu","latitude":"2.41N","longitude":"45.80E"}
{"date":"2013-02-01","average_temperature":"23.564","city":"Moji Das Cruzes","latitude":"23.31S","longitude":"46.31W"}
{"date":"2011-08-01","average_temperature":"25.985","city":"Mokolo","latitude":"10.45N","longitude":"13.91E"}
{"date":"2013-03-01","average_temperature":"30.78","city":"Mopti","latitude":"15.27N","longitude":"4.17W"}
{"date":"2013-04-01","average_temperature":"28.980999999999998","city":"Moradabad","latitude":"28.13N","longitude":"79.09E"}
{"date":"2010-01-01","average_temperature":"25.119","city":"Moshi","latitude":"4.02S","longitude":"37.77E"}
{"date":"2011-11-01","average_temperature":"25.196","city":"Moshi","latitude":"4.02S","longitude":"37.77E"}
{"date":"2013-08-01","average_temperature":"18.567","city":"Murom","latitude":"55.45N","longitude":"42.52E"}
{"date":"2012-04-01","average_temperature":"28.143","city":"Muzaffargarh","latitude":"29.74N","longitude":"72.00E"}
{"date":"2012-12-01","average_temperature":"15.658","city":"Muzaffargarh","latitude":"29.74N","longitude":"72.00E"}
{"date":"2012-03-01","average_temperature":"24.309","city":"Mwanza","latitude":"2.41S","longitude":"32.95E"}
{"date":"2012-06-01","average_temperature":"24.333000000000002","city":"Nacala","latitude":"15.27S","longitude":"40.83E"}
{"date":"2012-12-01","average_temperature":"-2.318","city":"Nalchik","latitude":"42.59N","longitude":"43.64E"}
{"date":"2010-01-01","average_temperature":"-21.151999999999997","city":"Nancha","latitude":"47.42N","longitude":"129.08E"}
{"date":"2012-12-01","average_temperature":"22.504","city":"Nandurbar","latitude":"21.70N","longitude":"73.56E"}
{"date":"2011-09-01","average_temperature":"25.855","city":"Natal","latitude":"5.63S","longitude":"35.52W"}
{"date":"2010-06-01","average_temperature":"23.250999999999998","city":"Nazilli","latitude":"37.78N","longitude":"28.47E"}
{"date":"2011-12-01","average_temperature":"19.198","city":"Nazret","latitude":"8.84N","longitude":"39.73E"}
{"date":"2010-05-01","average_temperature":"16.107","city":"Neftekamsk","latitude":"55.45N","longitude":"53.86E"}
{"date":"2011-08-01","average_temperature":"20.07","city":"Nehe","latitude":"49.03N","longitude":"124.90E"}
{"date":"2012-03-01","average_temperature":"17.534000000000002","city":"Neuquen","latitude":"39.38S","longitude":"68.67W"}
{"date":"2012-05-01","average_temperature":"16.267","city":"Nevinnomyssk","latitude":"44.20N","longitude":"42.48E"}
{"date":"2012-07-01","average_temperature":"32.448","city":"New Delhi","latitude":"28.13N","longitude":"77.27E"}
{"date":"2010-12-01","average_temperature":"-2.165","city":"New York","latitude":"40.99N","longitude":"74.56W"}
{"date":"2010-09-01","average_temperature":"25.601999999999997","city":"Ningbo","latitude":"29.74N","longitude":"121.85E"}
{"date":"2011-04-01","average_temperature":"15.174000000000001","city":"Ningbo","latitude":"29.74N","longitude":"121.85E"}
{"date":"2013-06-01","average_temperature":"22.49","city":"Nishinomiya","latitude":"34.56N","longitude":"136.22E"}
{"date":"2010-09-01","average_temperature":"22.42","city":"Norwalk","latitude":"34.56N","longitude":"118.70W"}
{"date":"2011-01-01","average_temperature":"10.432","city":"Norwalk","latitude":"34.56N","longitude":"118.70W"}
{"date":"2013-04-01","average_temperature":"15.921","city":"Norwalk","latitude":"34.56N","longitude":"118.70W"}
{"date":"2012-04-01","average_temperature":"7.496","city":"Norwich","latitude":"52.24N","longitude":"0.00W"}
{"date":"2011-09-01","average_temperature":"25.084","city":"Nossa Senhora Do Socorro","latitude":"10.45S","longitude":"36.82W"}
{"date":"2010-05-01","average_temperature":"15.890999999999998","city":"Novo Hamburgo","latitude":"29.74S","longitude":"51.69W"}
{"date":"2010-07-01","average_temperature":"16.816","city":"Novosibirsk","latitude":"55.45N","longitude":"82.20E"}
{"date":"2010-09-01","average_temperature":"25.558000000000003","city":"Nueva San Salvador","latitude":"13.66N","longitude":"90.00W"}
{"date":"2012-02-01","average_temperature":"6.728","city":"Numazu","latitude":"34.56N","longitude":"138.16E"}
{"date":"2013-05-01","average_temperature":"18.707","city":"Numazu","latitude":"34.56N","longitude":"138.16E"}
{"date":"2010-12-01","average_temperature":"-2.423","city":"Oberhausen","latitude":"50.63N","longitude":"6.34E"}
{"date":"2013-02-01","average_temperature":"-5.018999999999999","city":"Obihiro","latitude":"42.59N","longitude":"144.00E"}
{"date":"2012-11-01","average_temperature":"26.382","city":"Ocumare Del Tuy","latitude":"10.45N","longitude":"66.27W"}
{"date":"2012-09-01","average_temperature":"19.437","city":"Odesa","latitude":"45.81N","longitude":"31.15E"}
{"date":"2010-03-01","average_temperature":"-5.952000000000001","city":"Oktyabrskiy","latitude":"53.84N","longitude":"53.18E"}
{"date":"2013-08-01","average_temperature":"16.473","city":"Oldham","latitude":"53.84N","longitude":"1.36W"}
{"date":"2012-12-01","average_temperature":"-4.2040000000000015","city":"Olsztyn","latitude":"53.84N","longitude":"20.45E"}
{"date":"2011-08-01","average_temperature":"28.618000000000002","city":"Ontario","latitude":"34.56N","longitude":"116.76W"}
{"date":"2012-11-01","average_temperature":"6.367000000000001","city":"Oradea","latitude":"47.42N","longitude":"22.50E"}
{"date":"2013-09-01","city":"Orai","latitude":"26.52N","longitude":"78.81E"}
{"date":"2011-01-01","average_temperature":"-18.272000000000002","city":"Orsk","latitude":"50.63N","longitude":"59.58E"}
{"date":"2011-02-01","average_temperature":"-18.012999999999995","city":"Orsk","latitude":"50.63N","longitude":"59.58E"}
{"date":"2011-04-01","average_temperature":"7.121","city":"Orsk","latitude":"50.63N","longitude":"59.58E"}
{"date":"2013-05-01","average_temperature":"6.972","city":"Oruro","latitude":"18.48S","longitude":"67.61W"}
{"date":"2011-12-01","average_temperature":"14.571","city":"Osorno","latitude":"40.99S","longitude":"72.43W"}
{"date":"2011-08-01","average_temperature":"25.689","city":"Overland Park","latitude":"39.38N","longitude":"93.64W"}
{"date":"2013-08-01","average_temperature":"20.881","city":"Oviedo","latitude":"42.59N","longitude":"6.55W"}
{"date":"2010-08-01","average_temperature":"26.114","city":"Owerri","latitude":"5.63N","longitude":"6.46E"}
{"date":"2013-08-01","average_temperature":"17.881999999999994","city":"Pachuca","latitude":"20.09N","longitude":"98.96W"}
{"date":"2011-12-01","average_temperature":"24.888","city":"Padang","latitude":"0.80S","longitude":"100.45E"}
{"date":"2012-03-01","average_temperature":"22.201","city":"Pakpattan","latitude":"29.74N","longitude":"73.85E"}
{"date":"2011-03-01","average_temperature":"25.623","city":"Palanpur","latitude":"24.92N","longitude":"72.71E"}
{"date":"2012-03-01","average_temperature":"24.719","city":"Palanpur","latitude":"24.92N","longitude":"72.71E"}
{"date":"2013-08-01","average_temperature":"29.654000000000003","city":"Pali","latitude":"26.52N","longitude":"73.43E"}
{"date":"2011-10-01","average_temperature":"20.635","city":"Palma","latitude":"39.38N","longitude":"2.08E"}
{"date":"2010-02-01","average_temperature":"26.855999999999998","city":"Palo Negro","latitude":"10.45N","longitude":"67.91W"}
{"date":"2012-05-01","average_temperature":"28.129","city":"Pamulang","latitude":"5.63S","longitude":"106.55E"}
{"date":"2011-12-01","average_temperature":"26.279","city":"Panamá","latitude":"8.84N","longitude":"80.27W"}
{"date":"2011-03-01","average_temperature":"-0.44","city":"Panevezys","latitude":"55.45N","longitude":"25.51E"}
{"date":"2012-10-01","average_temperature":"25.903000000000002","city":"Parakou","latitude":"8.84N","longitude":"2.43E"}
{"date":"2011-05-01","average_temperature":"27.468000000000004","city":"Paramaribo","latitude":"5.63N","longitude":"54.89W"}
{"date":"2012-01-01","average_temperature":"26.241999999999997","city":"Paramaribo","latitude":"5.63N","longitude":"54.89W"}
{"date":"2012-10-01","average_temperature":"26.845","city":"Parnamirim","latitude":"5.63S","longitude":"35.52W"}
{"date":"2012-02-01","average_temperature":"0.24399999999999974","city":"Parsabad","latitude":"39.38N","longitude":"47.86E"}
{"date":"2011-09-01","average_temperature":"27.209","city":"Pasarkemis","latitude":"5.63S","longitude":"106.55E"}
{"date":"2010-11-01","average_temperature":"27.094","city":"Pasir Gudang","latitude":"0.80N","longitude":"103.66E"}
{"date":"2012-11-01","average_temperature":"26.951","city":"Pasir Gudang","latitude":"0.80N","longitude":"103.66E"}
{"date":"2013-04-01","average_temperature":"30.761999999999997","city":"Patan","latitude":"23.31N","longitude":"72.52E"}
{"date":"2012-02-01","average_temperature":"5.684","city":"Pathankot","latitude":"32.95N","longitude":"75.64E"}
{"date":"2011-01-01","average_temperature":"17.003999999999998","city":"Pembroke Pines","latitude":"26.52N","longitude":"80.60W"}
{"date":"2012-03-01","average_temperature":"12.369000000000002","city":"Peoria","latitude":"40.99N","longitude":"89.47W"}
{"date":"2013-09-01","city":"Perbaungan","latitude":"4.02N","longitude":"98.84E"}
{"date":"2010-01-01","average_temperature":"2.741","city":"Perpignan","latitude":"42.59N","longitude":"2.18E"}
{"date":"2010-02-01","average_temperature":"9.031","city":"Peshawar","latitude":"34.56N","longitude":"72.00E"}
{"date":"2011-06-01","average_temperature":"28.590999999999998","city":"Phan Thiet","latitude":"10.45N","longitude":"107.18E"}
{"date":"2010-10-01","average_temperature":"22.746","city":"Piedras Negras","latitude":"28.13N","longitude":"100.91W"}
{"date":"2010-07-01","average_temperature":"30.574","city":"Pilibhit","latitude":"28.13N","longitude":"79.09E"}
{"date":"2012-09-01","average_temperature":"25.457","city":"Plây Cu","latitude":"13.66N","longitude":"108.17E"}
{"date":"2012-05-01","average_temperature":"17.729999999999997","city":"Pleven","latitude":"44.20N","longitude":"24.60E"}
{"date":"2012-06-01","average_temperature":"16.464000000000002","city":"Plock","latitude":"52.24N","longitude":"18.39E"}
{"date":"2011-08-01","average_temperature":"27.612","city":"Pontianak","latitude":"0.80S","longitude":"110.09E"}
{"date":"2013-01-01","average_temperature":"20.457","city":"Porbandar","latitude":"21.70N","longitude":"70.10E"}
{"date":"2013-08-01","average_temperature":"27.474","city":"Porbandar","latitude":"21.70N","longitude":"70.10E"}
{"date":"2012-06-01","average_temperature":"15.68","city":"Port Elizabeth","latitude":"34.56S","longitude":"25.30E"}
{"date":"2010-02-01","average_temperature":"27.576","city":"Port Louis","latitude":"20.09S","longitude":"58.01E"}
{"date":"2013-01-01","average_temperature":"5.984","city":"Portsmouth","latitude":"50.63N","longitude":"1.27W"}
{"date":"2012-10-01","average_temperature":"8.536","city":"Prague","latitude":"50.63N","longitude":"13.94E"}
{"date":"2011-05-01","average_temperature":"27.111","city":"Pringsewu","latitude":"5.63S","longitude":"104.93E"}
{"date":"2013-01-01","average_temperature":"-7.446000000000001","city":"Provo","latitude":"39.38N","longitude":"112.37W"}
{"date":"2012-08-01","average_temperature":"5.3610000000000015","city":"Puerto Montt","latitude":"40.99S","longitude":"72.43W"}
{"date":"2010-11-01","average_temperature":"25.680999999999997","city":"Puerto Vallarta","latitude":"20.09N","longitude":"105.78W"}
{"date":"2010-03-01","average_temperature":"30.096999999999998","city":"Puri","latitude":"20.09N","longitude":"85.31E"}
{"date":"2012-02-01","average_temperature":"17.127000000000002","city":"Purnia","latitude":"26.52N","longitude":"87.76E"}
{"date":"2012-09-01","average_temperature":"25.836","city":"Purnia","latitude":"26.52N","longitude":"87.76E"}
{"date":"2011-05-01","average_temperature":"31.008000000000003","city":"Puruliya","latitude":"23.31N","longitude":"86.50E"}
{"date":"2010-11-01","average_temperature":"27.24","city":"Purwokerto","latitude":"7.23S","longitude":"109.46E"}
{"date":"2013-06-01","average_temperature":"23.805999999999997","city":"Qarchak","latitude":"36.17N","longitude":"51.71E"}
{"date":"2013-06-01","average_temperature":"26.838","city":"Qianjiang","latitude":"29.74N","longitude":"112.62E"}
{"date":"2011-04-01","average_temperature":"22.357","city":"Qinzhou","latitude":"21.70N","longitude":"108.17E"}
{"date":"2013-05-01","average_temperature":"17.287","city":"Qiqihar","latitude":"47.42N","longitude":"124.34E"}
{"date":"2011-08-01","average_temperature":"28.951999999999998","city":"Qom","latitude":"34.56N","longitude":"50.59E"}
{"date":"2013-05-01","average_temperature":"10.974","city":"Quebec","latitude":"47.42N","longitude":"72.24W"}
{"date":"2011-04-01","average_temperature":"17.941","city":"Queluz","latitude":"39.38N","longitude":"8.32W"}
{"date":"2011-11-01","average_temperature":"15.977","city":"Querétaro","latitude":"20.09N","longitude":"100.66W"}
{"date":"2013-04-01","average_temperature":"20.671999999999997","city":"Quetta","latitude":"29.74N","longitude":"66.46E"}
{"date":"2010-01-01","average_temperature":"16.662000000000006","city":"Quilpue","latitude":"32.95S","longitude":"71.81W"}
{"date":"2010-09-01","average_temperature":"17.697","city":"Quito","latitude":"0.80S","longitude":"77.95W"}
{"date":"2011-03-01","average_temperature":"3.398","city":"Radom","latitude":"50.63N","longitude":"21.55E"}
{"date":"2012-01-01","average_temperature":"4.806","city":"Rafsanjan","latitude":"29.74N","longitude":"55.38E"}
{"date":"2013-03-01","average_temperature":"26.221999999999998","city":"Raiganj","latitude":"24.92N","longitude":"88.67E"}
{"date":"2011-12-01","average_temperature":"26.513","city":"Rajapalaiyam","latitude":"8.84N","longitude":"77.03E"}
{"date":"2013-09-01","city":"Rajkot","latitude":"21.70N","longitude":"70.10E"}
{"date":"2010-04-01","average_temperature":"16.701","city":"Raleigh","latitude":"36.17N","longitude":"79.56W"}
{"date":"2012-06-01","average_temperature":"26.072","city":"Ramat Gan","latitude":"32.95N","longitude":"35.43E"}
{"date":"2010-10-01","average_temperature":"26.675","city":"Rampur","latitude":"28.13N","longitude":"79.09E"}
{"date":"2012-11-01","average_temperature":"20.12","city":"Ranchi","latitude":"23.31N","longitude":"84.76E"}
{"date":"2011-04-01","average_temperature":"15.322000000000001","city":"Rancho Cucamonga","latitude":"34.56N","longitude":"116.76W"}
{"date":"2012-02-01","average_temperature":"22.916","city":"Randfontein","latitude":"26.52S","longitude":"26.87E"}
{"date":"2012-01-01","average_temperature":"26.913","city":"Rangkasbitung","latitude":"5.63S","longitude":"106.55E"}
{"date":"2012-12-01","average_temperature":"27.011","city":"Rangkasbitung","latitude":"5.63S","longitude":"106.55E"}
{"date":"2011-09-01","average_temperature":"26.316999999999997","city":"Rangpur","latitude":"26.52N","longitude":"89.55E"}
{"date":"2011-04-01","average_temperature":"30.427","city":"Ratlam","latitude":"23.31N","longitude":"74.27E"}
{"date":"2010-03-01","average_temperature":"7.084","city":"Ravenna","latitude":"44.20N","longitude":"11.18E"}
{"date":"2011-11-01","average_temperature":"28.129","city":"Rayong","latitude":"12.05N","longitude":"101.92E"}
{"date":"2013-02-01","average_temperature":"27.34","city":"Rengasdengklok","latitude":"5.63S","longitude":"106.55E"}
{"date":"2013-05-01","average_temperature":"18.077","city":"Resistencia","latitude":"28.13S","longitude":"59.09W"}
{"date":"2011-03-01","average_temperature":"-0.6869999999999998","city":"Riga","latitude":"57.05N","longitude":"25.08E"}
{"date":"2011-02-01","average_temperature":"7.77","city":"Riverside","latitude":"34.56N","longitude":"116.76W"}
{"date":"2010-01-01","average_temperature":"6.779","city":"Rongcheng","latitude":"26.52N","longitude":"103.88E"}
{"date":"2012-08-01","average_temperature":"28.691999999999997","city":"Rongcheng","latitude":"29.74N","longitude":"112.62E"}
{"date":"2011-07-01","average_temperature":"28.351","city":"Ruian","latitude":"28.13N","longitude":"120.91E"}
{"date":"2011-10-01","average_temperature":"5.331","city":"Rybinsk","latitude":"58.66N","longitude":"40.00E"}
{"date":"2012-04-01","average_temperature":"26.042","city":"São João De Meriti","latitude":"23.31S","longitude":"42.82W"}
{"date":"2011-03-01","average_temperature":"21.92","city":"São José Dos Campos","latitude":"23.31S","longitude":"46.31W"}
{"date":"2013-01-01","average_temperature":"22.503","city":"São Paulo","latitude":"23.31S","longitude":"46.31W"}
{"date":"2013-08-01","average_temperature":"18.215","city":"São Paulo","latitude":"23.31S","longitude":"46.31W"}
{"date":"2012-04-01","average_temperature":"22.683000000000003","city":"Sabará","latitude":"20.09S","longitude":"44.36W"}
{"date":"2011-02-01","average_temperature":"13.314","city":"Sabratah","latitude":"32.95N","longitude":"12.45E"}
{"date":"2012-09-01","average_temperature":"26.72","city":"Safaqis","latitude":"34.56N","longitude":"11.68E"}
{"date":"2013-07-01","average_temperature":"20.157","city":"Saint Étienne","latitude":"45.81N","longitude":"3.46E"}
{"date":"2013-01-01","average_temperature":"6.1370000000000005","city":"Saint Helens","latitude":"53.84N","longitude":"4.09W"}
{"date":"2010-04-01","average_temperature":"23.187","city":"Saint Louis","latitude":"16.87N","longitude":"16.74W"}
{"date":"2013-07-01","average_temperature":"27.565","city":"Saint Petersburg","latitude":"28.13N","longitude":"82.73W"}
{"date":"2011-07-01","average_temperature":"23.746","city":"Samsun","latitude":"40.99N","longitude":"36.21E"}
{"date":"2011-04-01","average_temperature":"28.915","city":"Samut Prakan","latitude":"13.66N","longitude":"99.91E"}
{"date":"2013-01-01","average_temperature":"8.32","city":"San Jose","latitude":"37.78N","longitude":"122.03W"}
{"date":"2010-04-01","average_temperature":"25.916","city":"San Juan","latitude":"18.48N","longitude":"65.92W"}
{"date":"2013-02-01","average_temperature":"27.639","city":"San Lorenzo","latitude":"24.92S","longitude":"56.75W"}
{"date":"2012-11-01","average_temperature":"14.947","city":"San Luis Potosí","latitude":"21.70N","longitude":"101.25W"}
{"date":"2012-10-01","average_temperature":"16.844","city":"San Pablo De Las Salinas","latitude":"20.09N","longitude":"98.96W"}
{"date":"2012-09-01","average_temperature":"27.465","city":"Sanbu","latitude":"21.70N","longitude":"113.37E"}
{"date":"2010-02-01","average_temperature":"16.123","city":"Sanchung","latitude":"24.92N","longitude":"120.59E"}
{"date":"2010-09-01","average_temperature":"25.246","city":"Sanda","latitude":"34.56N","longitude":"134.27E"}
{"date":"2010-12-01","average_temperature":"14.832","city":"Santa Catarina","latitude":"26.52N","longitude":"100.30W"}
{"date":"2012-01-01","average_temperature":"9.993","city":"Santa Clara","latitude":"37.78N","longitude":"122.03W"}
{"date":"2011-01-01","average_temperature":"25.025","city":"Santa Cruz","latitude":"13.66N","longitude":"121.38E"}
{"date":"2010-11-01","average_temperature":"20.768","city":"Santa Cruz Do Sul","latitude":"29.74S","longitude":"51.69W"}
{"date":"2011-01-01","average_temperature":"23.078000000000003","city":"Santiago","latitude":"16.87N","longitude":"122.23E"}
{"date":"2011-10-01","average_temperature":"27.37","city":"Santo Domingo","latitude":"18.48N","longitude":"69.30W"}
{"date":"2010-10-01","average_temperature":"3.265","city":"Saransk","latitude":"53.84N","longitude":"45.00E"}
{"date":"2010-03-01","average_temperature":"31.934","city":"Sarh","latitude":"8.84N","longitude":"18.65E"}
{"date":"2012-04-01","average_temperature":"30.968000000000004","city":"Sasaram","latitude":"24.92N","longitude":"83.35E"}
{"date":"2011-07-01","average_temperature":"18.21","city":"Saskatoon","latitude":"52.24N","longitude":"107.74W"}
{"date":"2012-10-01","average_temperature":"26.045","city":"Satna","latitude":"24.92N","longitude":"81.58E"}
{"date":"2011-04-01","average_temperature":"11.532","city":"Satu Mare","latitude":"47.42N","longitude":"22.50E"}
{"date":"2010-10-01","average_temperature":"15.880999999999998","city":"Sayama","latitude":"36.17N","longitude":"139.23E"}
{"date":"2012-05-01","average_temperature":"9.642","city":"Seattle","latitude":"47.42N","longitude":"121.97W"}
{"date":"2011-09-01","average_temperature":"27.253","city":"Semarang","latitude":"7.23S","longitude":"111.08E"}
{"date":"2011-11-01","average_temperature":"26.953000000000003","city":"Serekunda","latitude":"13.66N","longitude":"17.34W"}
{"date":"2012-01-01","average_temperature":"-7.713000000000001","city":"Serpukhov","latitude":"55.45N","longitude":"36.85E"}
{"date":"2012-06-01","average_temperature":"21.232","city":"Setúbal","latitude":"39.38N","longitude":"8.32W"}
{"date":"2010-08-01","average_temperature":"30.226","city":"Shantipur","latitude":"23.31N","longitude":"88.25E"}
{"date":"2012-05-01","average_temperature":"17.554000000000002","city":"Shenyang","latitude":"40.99N","longitude":"123.55E"}
{"date":"2012-09-01","average_temperature":"27.031999999999996","city":"Shillong","latitude":"24.92N","longitude":"92.22E"}
{"date":"2012-04-01","average_temperature":"15.407","city":"Shimla","latitude":"31.35N","longitude":"77.28E"}
{"date":"2012-08-01","average_temperature":"28.691999999999997","city":"Shishou","latitude":"29.74N","longitude":"112.62E"}
{"date":"2012-03-01","average_temperature":"2.318","city":"Shizuishan","latitude":"39.38N","longitude":"106.13E"}
{"date":"2012-06-01","average_temperature":"30.441999999999997","city":"Sholapur","latitude":"18.48N","longitude":"76.06E"}
{"date":"2013-06-01","average_temperature":"28.180999999999997","city":"Sholapur","latitude":"18.48N","longitude":"76.06E"}
{"date":"2012-06-01","average_temperature":"27.11","city":"Shreveport","latitude":"32.95N","longitude":"92.87W"}
{"date":"2011-01-01","average_temperature":"-22.029","city":"Shuangcheng","latitude":"45.81N","longitude":"125.77E"}
{"date":"2012-02-01","average_temperature":"13.161","city":"Sialkot","latitude":"32.95N","longitude":"73.72E"}
{"date":"2012-06-01","average_temperature":"15.261","city":"Siegen","latitude":"50.63N","longitude":"8.87E"}
{"date":"2012-01-01","average_temperature":"25.719","city":"Sikasso","latitude":"10.45N","longitude":"5.73W"}
{"date":"2011-04-01","average_temperature":"27.118000000000002","city":"Singaraja","latitude":"8.84S","longitude":"114.32E"}
{"date":"2010-01-01","average_temperature":"7.081","city":"Sirjan","latitude":"29.74N","longitude":"55.38E"}
{"date":"2012-10-01","average_temperature":"17.369","city":"Sirjan","latitude":"29.74N","longitude":"55.38E"}
{"date":"2010-08-01","average_temperature":"28.686999999999998","city":"Sitapur","latitude":"28.13N","longitude":"80.91E"}
{"date":"2011-09-01","average_temperature":"28.945","city":"Siwan","latitude":"26.52N","longitude":"84.18E"}
{"date":"2012-05-01","average_temperature":"32.592","city":"Siwan","latitude":"26.52N","longitude":"84.18E"}
{"date":"2013-05-01","average_temperature":"10.809000000000001","city":"Slough","latitude":"52.24N","longitude":"0.00W"}
{"date":"2012-03-01","average_temperature":"28.393","city":"Soledad","latitude":"10.45N","longitude":"74.45W"}
{"date":"2012-09-01","average_temperature":"13.699000000000002","city":"Somerset West","latitude":"34.56S","longitude":"19.46E"}
{"date":"2010-09-01","average_temperature":"27.363000000000003","city":"Sorong","latitude":"0.80S","longitude":"130.98E"}
{"date":"2010-12-01","average_temperature":"2.8020000000000005","city":"Southampton","latitude":"50.63N","longitude":"1.27W"}
{"date":"2013-04-01","average_temperature":"11.333","city":"Springfield","latitude":"39.38N","longitude":"89.48W"}
{"date":"2010-06-01","average_temperature":"22.066999999999997","city":"Staryy Oskol","latitude":"50.63N","longitude":"36.76E"}
{"date":"2010-11-01","average_temperature":"4.738","city":"Sterling Heights","latitude":"42.59N","longitude":"82.91W"}
{"date":"2010-07-01","average_temperature":"19.855","city":"Sudbury","latitude":"45.81N","longitude":"81.92W"}
{"date":"2010-08-01","average_temperature":"20.067","city":"Suihua","latitude":"47.42N","longitude":"126.71E"}
{"date":"2012-01-01","average_temperature":"4.188","city":"Suita","latitude":"34.56N","longitude":"136.22E"}
{"date":"2013-05-01","average_temperature":"23.2","city":"Sullana","latitude":"5.63S","longitude":"80.72W"}
{"date":"2010-11-01","average_temperature":"27.338","city":"Sungai Petani","latitude":"5.63N","longitude":"100.09E"}
{"date":"2013-07-01","average_temperature":"31.698","city":"Sunrise Manor","latitude":"36.17N","longitude":"115.36W"}
{"date":"2010-02-01","average_temperature":"27.483","city":"Surabaya","latitude":"7.23S","longitude":"112.70E"}
{"date":"2013-02-01","average_temperature":"-8.854","city":"Syzran","latitude":"53.84N","longitude":"47.73E"}
{"date":"2013-05-01","average_temperature":"22.921000000000006","city":"Tabora","latitude":"5.63S","longitude":"32.29E"}
{"date":"2011-10-01","average_temperature":"7.977000000000001","city":"Tacoma","latitude":"47.42N","longitude":"121.97W"}
{"date":"2010-08-01","average_temperature":"27.385","city":"Taganrog","latitude":"47.42N","longitude":"39.08E"}
{"date":"2011-11-01","average_temperature":"27.072","city":"Taiping","latitude":"4.02N","longitude":"100.45E"}
{"date":"2011-03-01","average_temperature":"3.247","city":"Takaoka","latitude":"36.17N","longitude":"137.24E"}
{"date":"2011-01-01","average_temperature":"2.86","city":"Takarazuka","latitude":"34.56N","longitude":"136.22E"}
{"date":"2011-08-01","average_temperature":"27.376","city":"Takarazuka","latitude":"34.56N","longitude":"136.22E"}
{"date":"2013-01-01","average_temperature":"3.917","city":"Takarazuka","latitude":"34.56N","longitude":"136.22E"}
{"date":"2011-02-01","average_temperature":"27.962","city":"Takoradi","latitude":"5.63N","longitude":"1.61W"}
{"date":"2012-03-01","average_temperature":"26.785999999999998","city":"Talara","latitude":"4.02S","longitude":"81.16W"}
{"date":"2010-08-01","average_temperature":"10.502","city":"Talcahuano","latitude":"36.17S","longitude":"73.59W"}
{"date":"2010-08-01","average_temperature":"27.807","city":"Taman","latitude":"7.23S","longitude":"112.70E"}
{"date":"2010-04-01","average_temperature":"32.079","city":"Tambaram","latitude":"13.66N","longitude":"80.09E"}
{"date":"2011-01-01","average_temperature":"-6.0889999999999995","city":"Tampere","latitude":"61.88N","longitude":"22.08E"}
{"date":"2011-03-01","average_temperature":"19.377","city":"Tandil","latitude":"37.78S","longitude":"58.98W"}
{"date":"2011-02-01","average_temperature":"14.784","city":"Tanshui","latitude":"24.92N","longitude":"120.59E"}
{"date":"2012-08-01","average_temperature":"26.531","city":"Tanza","latitude":"15.27N","longitude":"120.83E"}
{"date":"2012-10-01","average_temperature":"18.98","city":"Tarija","latitude":"21.70S","longitude":"64.90W"}
{"date":"2011-11-01","average_temperature":"3.45","city":"Tarsus","latitude":"37.78N","longitude":"34.58E"}
{"date":"2011-12-01","average_temperature":"14.073","city":"Tartus","latitude":"34.56N","longitude":"35.03E"}
{"date":"2012-06-01","average_temperature":"24.929","city":"Tartus","latitude":"34.56N","longitude":"35.03E"}
{"date":"2012-05-01","average_temperature":"18.169","city":"Taubaté","latitude":"23.31S","longitude":"46.31W"}
{"date":"2010-11-01","average_temperature":"22.988000000000003","city":"Taunggyi","latitude":"20.09N","longitude":"97.25E"}
{"date":"2010-10-01","average_temperature":"12.785","city":"Tauranga","latitude":"37.78S","longitude":"176.95E"}
{"date":"2011-04-01","average_temperature":"26.307","city":"Tawau","latitude":"4.02N","longitude":"118.13E"}
{"date":"2013-09-01","city":"Tbilisi","latitude":"40.99N","longitude":"44.73E"}
{"date":"2013-03-01","average_temperature":"24.795","city":"Tegucigalpa","latitude":"13.66N","longitude":"86.70W"}
{"date":"2013-03-01","average_temperature":"17.778","city":"Tel Aviv Yafo","latitude":"31.35N","longitude":"33.93E"}
{"date":"2013-08-01","average_temperature":"7.239","city":"Temuco","latitude":"39.38S","longitude":"72.83W"}
{"date":"2012-02-01","average_temperature":"0.9970000000000004","city":"Termiz","latitude":"37.78N","longitude":"67.12E"}
{"date":"2010-09-01","average_temperature":"27.587","city":"Thana","latitude":"18.48N","longitude":"72.68E"}
{"date":"2013-03-01","average_temperature":"2.253","city":"The Hague","latitude":"52.24N","longitude":"5.26E"}
{"date":"2011-08-01","average_temperature":"23.358","city":"Thornton","latitude":"39.38N","longitude":"104.05W"}
{"date":"2013-03-01","average_temperature":"14.463","city":"Thousand Oaks","latitude":"34.56N","longitude":"118.70W"}
{"date":"2011-08-01","average_temperature":"25.708000000000002","city":"Tirana","latitude":"40.99N","longitude":"19.17E"}
{"date":"2013-03-01","average_temperature":"29.709","city":"Tiruchchirappalli","latitude":"10.45N","longitude":"79.36E"}
{"date":"2013-05-01","average_temperature":"28.872","city":"Tirunelveli","latitude":"8.84N","longitude":"77.03E"}
{"date":"2013-04-01","average_temperature":"32.124","city":"Tirupati","latitude":"13.66N","longitude":"80.09E"}
{"date":"2010-12-01","average_temperature":"24.256","city":"Tiruvannamalai","latitude":"12.05N","longitude":"78.90E"}
{"date":"2011-12-01","average_temperature":"25.416","city":"Tiruvottiyur","latitude":"13.66N","longitude":"80.09E"}
{"date":"2013-04-01","average_temperature":"22.464000000000002","city":"Tlaquepaque","latitude":"20.09N","longitude":"104.08W"}
{"date":"2012-03-01","average_temperature":"6.43","city":"Tongchuan","latitude":"34.56N","longitude":"108.97E"}
{"date":"2013-02-01","average_temperature":"-12.068","city":"Tongliao","latitude":"44.20N","longitude":"122.98E"}
{"date":"2013-09-01","city":"Tongliao","latitude":"44.20N","longitude":"122.98E"}
{"date":"2010-01-01","average_temperature":"4.206","city":"Tongling","latitude":"31.35N","longitude":"118.74E"}
{"date":"2011-12-01","average_temperature":"14.091","city":"Torreón","latitude":"24.92N","longitude":"102.86W"}
{"date":"2013-03-01","average_temperature":"11.575","city":"Toulon","latitude":"42.59N","longitude":"6.55E"}
{"date":"2013-03-01","average_temperature":"26.766","city":"Townsville","latitude":"18.48S","longitude":"147.04E"}
{"date":"2012-04-01","average_temperature":"9.415","city":"Trento","latitude":"45.81N","longitude":"10.38E"}
{"date":"2010-08-01","average_temperature":"19.768","city":"Tunja","latitude":"5.63N","longitude":"72.65W"}
{"date":"2011-05-01","average_temperature":"19.865","city":"Tunja","latitude":"5.63N","longitude":"72.65W"}
{"date":"2010-09-01","average_temperature":"23.406","city":"Turgutlu","latitude":"37.78N","longitude":"28.47E"}
{"date":"2010-08-01","average_temperature":"16.131","city":"Turin","latitude":"45.81N","longitude":"8.08E"}
{"date":"2011-04-01","average_temperature":"11.19","city":"Tuzla","latitude":"44.20N","longitude":"17.89E"}
{"date":"2011-10-01","average_temperature":"5.728","city":"Tver","latitude":"57.05N","longitude":"36.89E"}
{"date":"2012-07-01","average_temperature":"28.364","city":"Ubon Ratchathani","latitude":"15.27N","longitude":"104.17E"}
{"date":"2010-10-01","average_temperature":"26.752","city":"Ugep","latitude":"5.63N","longitude":"8.07E"}
{"date":"2012-04-01","average_temperature":"18.002","city":"Uitenhage","latitude":"34.56S","longitude":"25.30E"}
{"date":"2013-02-01","average_temperature":"-23.851999999999997","city":"Ulaanbaatar","latitude":"47.42N","longitude":"107.76E"}
{"date":"2011-08-01","average_temperature":"15.543","city":"Ulan Ude","latitude":"52.24N","longitude":"107.74E"}
{"date":"2012-11-01","average_temperature":"-2.9830000000000005","city":"Ussuriysk","latitude":"44.20N","longitude":"131.93E"}
{"date":"2010-01-01","average_temperature":"27.934","city":"Valledupar","latitude":"10.45N","longitude":"72.82W"}
{"date":"2010-12-01","average_temperature":"10.287","city":"Vallejo","latitude":"37.78N","longitude":"122.03W"}
{"date":"2010-01-01","average_temperature":"4.004","city":"Vancouver","latitude":"49.03N","longitude":"122.45W"}
{"date":"2013-03-01","average_temperature":"9.401","city":"Varamin","latitude":"36.17N","longitude":"51.71E"}
{"date":"2012-09-01","average_temperature":"20.665","city":"Varna","latitude":"42.59N","longitude":"28.36E"}
{"date":"2010-08-01","average_temperature":"18.67","city":"Velikiy Novgorod","latitude":"58.66N","longitude":"30.77E"}
{"date":"2010-06-01","average_temperature":"20.565","city":"Vicenza","latitude":"45.81N","longitude":"12.69E"}
{"date":"2012-10-01","average_temperature":"13.540999999999999","city":"Vicenza","latitude":"45.81N","longitude":"12.69E"}
{"date":"2012-05-01","average_temperature":"27.49","city":"Vientiane","latitude":"18.48N","longitude":"103.10E"}
{"date":"2011-07-01","average_temperature":"19.575","city":"Vila Velha","latitude":"20.09S","longitude":"40.95W"}
{"date":"2013-06-01","average_temperature":"20.848000000000003","city":"Vila Velha","latitude":"20.09S","longitude":"40.95W"}
{"date":"2010-02-01","average_temperature":"16.169","city":"Vina Del Mar","latitude":"32.95S","longitude":"71.81W"}
{"date":"2012-03-01","average_temperature":"2.173","city":"Vinnytsya","latitude":"49.03N","longitude":"29.39E"}
{"date":"2011-05-01","average_temperature":"16.41","city":"Vitoria","latitude":"42.59N","longitude":"2.18W"}
{"date":"2011-10-01","average_temperature":"26.015","city":"Vizianagaram","latitude":"18.48N","longitude":"82.82E"}
{"date":"2012-02-01","average_temperature":"-6.314","city":"Vladikavkaz","latitude":"42.59N","longitude":"43.64E"}
{"date":"2012-02-01","average_temperature":"-7.803999999999999","city":"Vladivostok","latitude":"42.59N","longitude":"130.91E"}
{"date":"2011-02-01","average_temperature":"24.027","city":"Volta Redonda","latitude":"21.70S","longitude":"44.13W"}
{"date":"2011-06-01","average_temperature":"22.266","city":"Volzhskiy","latitude":"49.03N","longitude":"44.08E"}
{"date":"2013-06-01","average_temperature":"11.952","city":"Vryheid","latitude":"28.13S","longitude":"30.00E"}
{"date":"2011-04-01","average_temperature":"13.627","city":"Washington","latitude":"39.38N","longitude":"76.99W"}
{"date":"2012-09-01","average_temperature":"13.901","city":"Watford","latitude":"52.24N","longitude":"0.00W"}
{"date":"2012-11-01","average_temperature":"22.731","city":"Welkom","latitude":"28.13S","longitude":"26.36E"}
{"date":"2012-05-01","average_temperature":"14.704999999999998","city":"Wiesbaden","latitude":"50.63N","longitude":"8.87E"}
{"date":"2012-01-01","average_temperature":"-11.698000000000002","city":"Winnipeg","latitude":"50.63N","longitude":"97.61W"}
{"date":"2013-06-01","average_temperature":"25.803","city":"Xiamen","latitude":"24.92N","longitude":"118.82E"}
{"date":"2013-04-01","average_temperature":"16.997","city":"Xiangdong","latitude":"28.13N","longitude":"113.64E"}
{"date":"2012-06-01","average_temperature":"26.319000000000003","city":"Xiangfan","latitude":"32.95N","longitude":"112.02E"}
{"date":"2010-12-01","average_temperature":"0.845","city":"Xianyang","latitude":"34.56N","longitude":"108.97E"}
{"date":"2011-04-01","average_temperature":"6.332999999999999","city":"Xining","latitude":"36.17N","longitude":"101.44E"}
{"date":"2011-11-01","average_temperature":"9.12","city":"Xintai","latitude":"36.17N","longitude":"117.35E"}
{"date":"2011-09-01","average_temperature":"23.147","city":"Xuanzhou","latitude":"31.35N","longitude":"118.74E"}
{"date":"2011-09-01","average_temperature":"18.698","city":"Xuchang","latitude":"34.56N","longitude":"112.86E"}
{"date":"2013-05-01","average_temperature":"26.391","city":"Yangjiang","latitude":"21.70N","longitude":"111.63E"}
{"date":"2010-03-01","average_temperature":"17.894000000000002","city":"Yangmei","latitude":"24.92N","longitude":"120.59E"}
{"date":"2013-07-01","average_temperature":"27.324","city":"Yavatmal","latitude":"20.09N","longitude":"78.48E"}
{"date":"2010-04-01","average_temperature":"8.327","city":"Yelets","latitude":"52.24N","longitude":"39.42E"}
{"date":"2012-01-01","average_temperature":"-7.7040000000000015","city":"Yelets","latitude":"52.24N","longitude":"39.42E"}
{"date":"2012-12-01","average_temperature":"23.683000000000003","city":"Yenangyaung","latitude":"20.09N","longitude":"95.55E"}
{"date":"2013-04-01","average_temperature":"10.290999999999999","city":"Yerevan","latitude":"40.99N","longitude":"44.73E"}
{"date":"2013-01-01","average_temperature":"26.154","city":"Yogyakarta","latitude":"7.23S","longitude":"111.08E"}
{"date":"2010-03-01","average_temperature":"7.047000000000001","city":"Yonago","latitude":"36.17N","longitude":"133.26E"}
{"date":"2011-07-01","average_temperature":"29.253","city":"Yushan","latitude":"31.35N","longitude":"120.63E"}
{"date":"2012-03-01","average_temperature":"-6.9860000000000015","city":"Zalantun","latitude":"47.42N","longitude":"121.97E"}
{"date":"2011-05-01","average_temperature":"27.741","city":"Zamboanga","latitude":"7.23N","longitude":"122.43E"}
{"date":"2013-04-01","average_temperature":"28.451999999999998","city":"Zamboanga","latitude":"7.23N","longitude":"122.43E"}
{"date":"2011-07-01","average_temperature":"25.061","city":"Zanzibar","latitude":"5.63S","longitude":"38.74E"}
{"date":"2011-10-01","average_temperature":"26.124000000000002","city":"Zanzibar","latitude":"5.63S","longitude":"38.74E"}
{"date":"2013-06-01","average_temperature":"24.993000000000002","city":"Zanzibar","latitude":"5.63S","longitude":"38.74E"}
{"date":"2010-08-01","average_temperature":"26.023000000000003","city":"Zaporizhzhya","latitude":"47.42N","longitude":"34.34E"}
{"date":"2013-03-01","average_temperature":"-7.497000000000001","city":"Zelenograd","latitude":"55.45N","longitude":"36.85E"}
{"date":"2010-02-01","average_temperature":"2.306","city":"Zhangdian","latitude":"36.17N","longitude":"117.35E"}
{"date":"2013-01-01","average_temperature":"-12.305","city":"Zhangjiakou","latitude":"40.99N","longitude":"115.03E"}
{"date":"2012-03-01","average_temperature":"4.162","city":"Zhaocheng","latitude":"37.78N","longitude":"120.00E"}
{"date":"2012-01-01","average_temperature":"1.9040000000000001","city":"Zhenjiang","latitude":"32.95N","longitude":"119.68E"}
{"date":"2012-10-01","average_temperature":"18.191000000000006","city":"Zhuji","latitude":"29.74N","longitude":"120.00E"}
{"date":"2010-11-01","average_temperature":"13.769","city":"Zhuzhou","latitude":"28.13N","longitude":"113.64E"}
{"date":"2012-08-01","average_temperature":"28.622","city":"Zhuzhou","latitude":"28.13N","longitude":"113.64E"}
{"date":"2012-12-01","average_temperature":"9.211","city":"Zigong","latitude":"29.74N","longitude":"105.23E"}
{"date":"2010-08-01","average_temperature":"25.13","city":"Zonguldak","latitude":"40.99N","longitude":"31.95E"}
