{"date":"2010-08-01","average_temperature":"16.898","city":"Århus","latitude":"57.05N","longitude":"10.33E"}
{"date":"2011-11-01","average_temperature":"23.546","city":"Achalpur","latitude":"21.70N","longitude":"77.02E"}
{"date":"2010-11-01","average_temperature":"15.009","city":"Acuña","latitude":"29.74N","longitude":"101.54W"}
{"date":"2013-02-01","average_temperature":"25.305999999999997","city":"Adilabad","latitude":"20.09N","longitude":"78.48E"}
{"date":"2012-06-01","average_temperature":"21.541999999999998","city":"Afyonkarahisar","latitude":"39.38N","longitude":"31.21E"}
{"date":"2011-03-01","average_temperature":"25.594","city":"Agartala","latitude":"23.31N","longitude":"91.75E"}
{"date":"2011-07-01","average_temperature":"25.494","city":"Agboville","latitude":"5.63N","longitude":"4.84W"}
{"date":"2012-02-01","average_temperature":"1.8419999999999999","city":"Ageo","latitude":"36.17N","longitude":"139.23E"}
{"date":"2010-09-01","average_temperature":"28.522","city":"Agra","latitude":"26.52N","longitude":"78.81E"}
{"date":"2010-10-01","average_temperature":"11.675999999999998","city":"Aix En Provence","latitude":"44.20N","longitude":"4.47E"}
{"date":"2012-06-01","average_temperature":"27.116999999999997","city":"Algiers","latitude":"36.17N","longitude":"3.98E"}
{"date":"2013-07-01","average_temperature":"20.032","city":"Almetyevsk","latitude":"55.45N","longitude":"51.02E"}
{"date":"2011-11-01","average_temperature":"27.538","city":"Alor Setar","latitude":"5.63N","longitude":"100.09E"}
{"date":"2010-01-01","average_temperature":"12.42","city":"Ambala","latitude":"29.74N","longitude":"77.54E"}
{"date":"2013-06-01","average_temperature":"15.043","city":"Amersfoort","latitude":"52.24N","longitude":"5.26E"}
{"date":"2012-12-01","average_temperature":"-20.079","city":"Anda","latitude":"45.81N","longitude":"125.77E"}
{"date":"2010-04-01","average_temperature":"13.979000000000001","city":"Angren","latitude":"40.99N","longitude":"70.30E"}
{"date":"2010-09-01","average_temperature":"17.585","city":"Ann Arbor","latitude":"42.59N","longitude":"82.91W"}
{"date":"2013-07-01","average_temperature":"27.046","city":"Antakya","latitude":"36.17N","longitude":"35.80E"}
{"date":"2010-02-01","average_temperature":"6.112","city":"Antalya","latitude":"37.78N","longitude":"30.51E"}
{"date":"2012-02-01","average_temperature":"22.118000000000002","city":"Antananarivo","latitude":"18.48S","longitude":"47.32E"}
{"date":"2011-07-01","average_temperature":"19.649","city":"Antioch","latitude":"37.78N","longitude":"122.03W"}
{"date":"2010-02-01","average_temperature":"1.1819999999999995","city":"Arnhem","latitude":"52.24N","longitude":"5.26E"}
{"date":"2011-08-01","average_temperature":"29.202","city":"Aryanah","latitude":"36.17N","longitude":"9.94E"}
{"date":"2012-04-01","average_temperature":"8.705","city":"Arzamas","latitude":"55.45N","longitude":"42.52E"}
{"date":"2012-08-01","average_temperature":"28.523000000000003","city":"Asansol","latitude":"23.31N","longitude":"86.50E"}
{"date":"2010-03-01","average_temperature":"16.203","city":"Asfi","latitude":"32.95N","longitude":"8.62W"}
{"date":"2011-11-01","average_temperature":"12.546","city":"Athens","latitude":"37.78N","longitude":"24.41E"}
{"date":"2013-01-01","average_temperature":"22.503","city":"Atibaia","latitude":"23.31S","longitude":"46.31W"}
{"date":"2011-04-01","average_temperature":"11.175","city":"Atsugi","latitude":"36.17N","longitude":"139.23E"}
{"date":"2013-08-01","average_temperature":"13.758","city":"Auckland","latitude":"36.17S","longitude":"175.03E"}
{"date":"2013-01-01","average_temperature":"-3.4019999999999997","city":"Augsburg","latitude":"47.42N","longitude":"10.66E"}
{"date":"2010-02-01","average_temperature":"24.073","city":"Aurangabad","latitude":"20.09N","longitude":"75.07E"}
{"date":"2010-03-01","average_temperature":"28.882","city":"Aurangabad","latitude":"20.09N","longitude":"75.07E"}
{"date":"2011-11-01","average_temperature":"26.589","city":"Avadi","latitude":"13.66N","longitude":"80.09E"}
{"date":"2011-10-01","average_temperature":"27.494","city":"Bacolod","latitude":"10.45N","longitude":"123.55E"}
{"date":"2012-06-01","average_temperature":"35.726","city":"Baghdad","latitude":"32.95N","longitude":"45.00E"}
{"date":"2013-06-01","average_temperature":"35.018","city":"Bahawalnagar","latitude":"29.74N","longitude":"73.85E"}
{"date":"2010-08-01","average_temperature":"9.219","city":"Bahia Blanca","latitude":"39.38S","longitude":"62.43W"}
{"date":"2013-04-01","average_temperature":"16.883","city":"Bahia Blanca","latitude":"39.38S","longitude":"62.43W"}
{"date":"2011-07-01","average_temperature":"19.343","city":"Bahir Dar","latitude":"12.05N","longitude":"37.81E"}
{"date":"2010-01-01","average_temperature":"19.407","city":"Baleshwar","latitude":"21.70N","longitude":"87.40E"}
{"date":"2010-02-01","average_temperature":"28.133000000000003","city":"Balikpapan","latitude":"0.80S","longitude":"116.52E"}
{"date":"2013-01-01","average_temperature":"27.398000000000003","city":"Balikpapan","latitude":"0.80S","longitude":"116.52E"}
{"date":"2013-09-01","city":"Ballia","latitude":"26.52N","longitude":"84.18E"}
{"date":"2013-02-01","average_temperature":"26.851999999999997","city":"Bandar Maharani","latitude":"2.41N","longitude":"102.05E"}
{"date":"2012-06-01","average_temperature":"25.03","city":"Bandundu","latitude":"4.02S","longitude":"16.88E"}
{"date":"2011-02-01","average_temperature":"11.923","city":"Bantou","latitude":"24.92N","longitude":"118.82E"}
{"date":"2011-08-01","average_temperature":"27.927","city":"Bantou","latitude":"24.92N","longitude":"118.82E"}
{"date":"2013-06-01","average_temperature":"26.98","city":"Banyuwangi","latitude":"8.84S","longitude":"114.32E"}
{"date":"2011-03-01","average_temperature":"2.052","city":"Baoding","latitude":"39.38N","longitude":"114.45E"}
{"date":"2012-10-01","average_temperature":"4.725","city":"Baoshan","latitude":"47.42N","longitude":"131.45E"}
{"date":"2010-03-01","average_temperature":"26.846","city":"Barinas","latitude":"8.84N","longitude":"70.54W"}
{"date":"2013-07-01","average_temperature":"29.361","city":"Baripada","latitude":"21.70N","longitude":"87.40E"}
{"date":"2011-12-01","average_temperature":"23.238000000000003","city":"Barretos","latitude":"20.09S","longitude":"47.77W"}
{"date":"2010-11-01","average_temperature":"25.378","city":"Baruta","latitude":"10.45N","longitude":"66.27W"}
{"date":"2010-01-01","average_temperature":"-3.5969999999999995","city":"Basel","latitude":"47.42N","longitude":"8.29E"}
{"date":"2011-09-01","average_temperature":"24.667","city":"Bata","latitude":"2.41N","longitude":"10.45E"}
{"date":"2013-09-01","city":"Bata","latitude":"2.41N","longitude":"10.45E"}
{"date":"2013-09-01","city":"Bataysk","latitude":"47.42N","longitude":"39.08E"}
{"date":"2012-07-01","average_temperature":"28.814","city":"Bayamo","latitude":"20.09N","longitude":"76.78W"}
{"date":"2011-04-01","average_temperature":"26.131","city":"Belford Roxo","latitude":"23.31S","longitude":"42.82W"}
{"date":"2011-06-01","average_temperature":"19.999000000000002","city":"Bello","latitude":"5.63N","longitude":"75.87W"}
{"date":"2012-08-01","average_temperature":"29.799","city":"Beni Suef","latitude":"29.74N","longitude":"31.38E"}
{"date":"2013-02-01","average_temperature":"15.931","city":"Beni Suef","latitude":"29.74N","longitude":"31.38E"}
{"date":"2010-03-01","average_temperature":"26.033","city":"Berbera","latitude":"10.45N","longitude":"45.00E"}
{"date":"2011-04-01","average_temperature":"12.623","city":"Bergamo","latitude":"45.81N","longitude":"10.38E"}
{"date":"2012-03-01","average_temperature":"27.878","city":"Bhadreswar","latitude":"23.31N","longitude":"88.25E"}
{"date":"2013-06-01","average_temperature":"28.939","city":"Biên Hòa","latitude":"10.45N","longitude":"107.18E"}
{"date":"2012-01-01","average_temperature":"28.224","city":"Bida","latitude":"8.84N","longitude":"5.68E"}
{"date":"2010-04-01","average_temperature":"27.546","city":"Bintulu","latitude":"2.41N","longitude":"113.30E"}
{"date":"2012-04-01","average_temperature":"24.006","city":"Biratnagar","latitude":"26.52N","longitude":"87.76E"}
{"date":"2011-07-01","average_temperature":"6.525","city":"Bloemfontein","latitude":"29.74S","longitude":"25.85E"}
{"date":"2013-09-01","city":"Bohicon","latitude":"7.23N","longitude":"2.43E"}
{"date":"2010-09-01","average_temperature":"17.673","city":"Boston","latitude":"42.59N","longitude":"72.00W"}
{"date":"2010-03-01","average_temperature":"19.372","city":"Brakpan","latitude":"26.52S","longitude":"28.66E"}
{"date":"2012-05-01","average_temperature":"15.26","city":"Brasov","latitude":"45.81N","longitude":"26.54E"}
{"date":"2010-10-01","average_temperature":"8.214","city":"Bratislava","latitude":"47.42N","longitude":"17.76E"}
{"date":"2013-05-01","average_temperature":"27.215","city":"Brebes","latitude":"7.23S","longitude":"109.46E"}
{"date":"2010-02-01","average_temperature":"0.6860000000000002","city":"Brescia","latitude":"45.81N","longitude":"10.38E"}
{"date":"2012-06-01","average_temperature":"16.672","city":"Brest","latitude":"52.24N","longitude":"23.65E"}
{"date":"2013-05-01","average_temperature":"23.972","city":"Brownsville","latitude":"26.52N","longitude":"96.72W"}
{"date":"2013-05-01","average_temperature":"29.241","city":"Bukit Mertajam","latitude":"5.63N","longitude":"100.09E"}
{"date":"2013-04-01","average_temperature":"28.404","city":"Burewala","latitude":"29.74N","longitude":"72.00E"}
{"date":"2010-02-01","average_temperature":"6.475","city":"Bursa","latitude":"39.38N","longitude":"29.13E"}
{"date":"2012-05-01","average_temperature":"25.949","city":"Cabudare","latitude":"10.45N","longitude":"69.55W"}
{"date":"2010-09-01","average_temperature":"27.974","city":"Cadiz","latitude":"10.45N","longitude":"123.55E"}
{"date":"2012-05-01","average_temperature":"28.299","city":"Calamba","latitude":"13.66N","longitude":"121.38E"}
{"date":"2012-05-01","average_temperature":"10.26","city":"Calgary","latitude":"50.63N","longitude":"112.82W"}
{"date":"2010-11-01","average_temperature":"20.449","city":"Cam Pha","latitude":"21.70N","longitude":"108.17E"}
{"date":"2012-10-01","average_temperature":"25.805","city":"Camaçari","latitude":"12.05S","longitude":"37.81W"}
{"date":"2012-07-01","average_temperature":"16.487000000000002","city":"Cambridge","latitude":"52.24N","longitude":"0.00W"}
{"date":"2010-07-01","average_temperature":"28.281","city":"Campeche","latitude":"20.09N","longitude":"90.43W"}
{"date":"2010-04-01","average_temperature":"30.506","city":"Can Tho","latitude":"10.45N","longitude":"105.55E"}
{"date":"2010-08-01","average_temperature":"29.395","city":"Cap Haïtien","latitude":"20.09N","longitude":"71.66W"}
{"date":"2012-02-01","average_temperature":"21.18","city":"Cape Coral","latitude":"26.52N","longitude":"82.39W"}
{"date":"2010-12-01","average_temperature":"21.238000000000003","city":"Cartago","latitude":"4.02N","longitude":"76.34W"}
{"date":"2012-06-01","average_temperature":"27.686","city":"Caucaia","latitude":"4.02S","longitude":"39.38W"}
{"date":"2010-12-01","average_temperature":"7.027","city":"Chandigarh","latitude":"31.35N","longitude":"77.28E"}
{"date":"2012-03-01","average_temperature":"1.121","city":"Chaoyang","latitude":"40.99N","longitude":"121.42E"}
{"date":"2011-02-01","average_temperature":"-13.625","city":"Cherepovets","latitude":"58.66N","longitude":"36.92E"}
{"date":"2013-05-01","average_temperature":"29.064","city":"Chikmagalur","latitude":"13.66N","longitude":"75.14E"}
{"date":"2010-02-01","average_temperature":"12.39","city":"Chimalhuacán","latitude":"20.09N","longitude":"98.96W"}
{"date":"2012-03-01","average_temperature":"24.763","city":"Chimoio","latitude":"18.48S","longitude":"33.80E"}
{"date":"2011-08-01","average_temperature":"24.264","city":"Chitradurga","latitude":"13.66N","longitude":"76.79E"}
{"date":"2010-02-01","average_temperature":"6.447","city":"Chizhou","latitude":"31.35N","longitude":"116.86E"}
{"date":"2011-03-01","average_temperature":"9.912","city":"Chizhou","latitude":"31.35N","longitude":"116.86E"}
{"date":"2012-12-01","average_temperature":"17.805999999999997","city":"Chuncheng","latitude":"21.70N","longitude":"111.63E"}
{"date":"2010-04-01","average_temperature":"19.015","city":"Chungho","latitude":"24.92N","longitude":"120.59E"}
{"date":"2010-01-01","average_temperature":"26.787000000000006","city":"Cibitung","latitude":"5.63S","longitude":"106.55E"}
{"date":"2012-10-01","average_temperature":"27.316999999999997","city":"Cibitung","latitude":"5.63S","longitude":"106.55E"}
{"date":"2012-01-01","average_temperature":"25.043000000000003","city":"Cikampek","latitude":"7.23S","longitude":"107.84E"}
{"date":"2010-09-01","average_temperature":"26.296999999999997","city":"Citeureup","latitude":"5.63S","longitude":"106.55E"}
{"date":"2012-05-01","average_temperature":"28.129","city":"Citeureup","latitude":"5.63S","longitude":"106.55E"}
{"date":"2012-10-01","average_temperature":"27.316999999999997","city":"Citeureup","latitude":"5.63S","longitude":"106.55E"}
{"date":"2010-12-01","average_temperature":"2.509","city":"Columbia","latitude":"34.56N","longitude":"81.73W"}
{"date":"2010-12-01","average_temperature":"13.972999999999999","city":"Coquimbo","latitude":"29.74S","longitude":"72.00W"}
{"date":"2011-03-01","average_temperature":"22.612","city":"Coronel Fabriciano","latitude":"20.09S","longitude":"42.65W"}
{"date":"2011-10-01","average_temperature":"21.228","city":"Coronel Fabriciano","latitude":"20.09S","longitude":"42.65W"}
{"date":"2013-08-01","average_temperature":"19.454","city":"Coronel Fabriciano","latitude":"20.09S","longitude":"42.65W"}
{"date":"2011-08-01","average_temperature":"19.008000000000006","city":"Cottbus","latitude":"52.24N","longitude":"13.14E"}
{"date":"2013-08-01","average_temperature":"13.387","city":"Criciúma","latitude":"28.13S","longitude":"50.00W"}
{"date":"2010-03-01","average_temperature":"21.891","city":"Culiacán","latitude":"24.92N","longitude":"108.18W"}
{"date":"2013-04-01","average_temperature":"11.318","city":"Cusco","latitude":"13.66S","longitude":"71.83W"}
{"date":"2013-08-01","average_temperature":"27.25","city":"Dadiangas","latitude":"5.63N","longitude":"125.92E"}
{"date":"2011-06-01","average_temperature":"18.352","city":"Dali","latitude":"26.52N","longitude":"100.30E"}
{"date":"2012-03-01","average_temperature":"2.545","city":"Dalian","latitude":"39.38N","longitude":"120.69E"}
{"date":"2011-05-01","average_temperature":"24.979000000000006","city":"Daliang","latitude":"23.31N","longitude":"112.72E"}
{"date":"2011-10-01","average_temperature":"29.456","city":"Damaturu","latitude":"12.05N","longitude":"11.51E"}
{"date":"2010-05-01","average_temperature":"35.576","city":"Damoh","latitude":"23.31N","longitude":"79.51E"}
{"date":"2012-07-01","average_temperature":"27.489","city":"Dasmariñas","latitude":"13.66N","longitude":"121.38E"}
{"date":"2010-08-01","average_temperature":"22.715","city":"Dawukou","latitude":"39.38N","longitude":"106.13E"}
{"date":"2011-03-01","average_temperature":"25.961","city":"Dehri","latitude":"24.92N","longitude":"83.35E"}
{"date":"2011-08-01","average_temperature":"23.243000000000002","city":"Dehui","latitude":"44.20N","longitude":"125.22E"}
{"date":"2010-05-01","average_temperature":"19.784000000000002","city":"Denizli","latitude":"37.78N","longitude":"28.47E"}
{"date":"2012-10-01","average_temperature":"18.434","city":"Denton","latitude":"32.95N","longitude":"96.70W"}
{"date":"2012-12-01","average_temperature":"26.736","city":"Depok","latitude":"7.23S","longitude":"109.46E"}
{"date":"2012-11-01","average_temperature":"19.528","city":"Dera Ghazi Khan","latitude":"29.74N","longitude":"70.15E"}
{"date":"2013-02-01","average_temperature":"-2.356","city":"Des Moines","latitude":"40.99N","longitude":"93.73W"}
{"date":"2011-12-01","average_temperature":"-0.9520000000000001","city":"Dezhou","latitude":"37.78N","longitude":"115.93E"}
{"date":"2012-07-01","average_temperature":"28.721999999999998","city":"Dhanbad","latitude":"23.31N","longitude":"86.50E"}
{"date":"2013-07-01","average_temperature":"29.092","city":"Dhanbad","latitude":"23.31N","longitude":"86.50E"}
{"date":"2013-04-01","average_temperature":"27.51","city":"Digos","latitude":"7.23N","longitude":"125.68E"}
{"date":"2013-07-01","average_temperature":"31.729","city":"Dire Dawa","latitude":"10.45N","longitude":"41.73E"}
{"date":"2011-01-01","average_temperature":"4.376","city":"Do Rud","latitude":"32.95N","longitude":"48.83E"}
{"date":"2012-05-01","average_temperature":"34.396","city":"Doha","latitude":"24.92N","longitude":"51.43E"}
{"date":"2010-05-01","average_temperature":"27.593000000000004","city":"Dongli","latitude":"20.09N","longitude":"110.90E"}
{"date":"2010-01-01","average_temperature":"2.225","city":"Dongtai","latitude":"32.95N","longitude":"119.68E"}
{"date":"2011-10-01","average_temperature":"11.337","city":"Dordrecht","latitude":"52.24N","longitude":"5.26E"}
{"date":"2013-07-01","average_temperature":"20.709000000000003","city":"Dresden","latitude":"50.63N","longitude":"13.94E"}
{"date":"2010-10-01","average_temperature":"9.873","city":"Dudley","latitude":"52.24N","longitude":"2.63W"}
{"date":"2011-08-01","average_temperature":"15.375","city":"Dudley","latitude":"52.24N","longitude":"2.63W"}
{"date":"2013-01-01","average_temperature":"3.7110000000000003","city":"Dudley","latitude":"52.24N","longitude":"2.63W"}
{"date":"2010-03-01","average_temperature":"15.440999999999999","city":"Duma","latitude":"32.95N","longitude":"37.34E"}
{"date":"2013-08-01","average_temperature":"4.728","city":"Dunedin","latitude":"45.81S","longitude":"169.62E"}
{"date":"2012-08-01","average_temperature":"23.517","city":"Duque De Caxias","latitude":"23.31S","longitude":"42.82W"}
{"date":"2011-08-01","average_temperature":"15.435","city":"East London","latitude":"32.95S","longitude":"27.77E"}
{"date":"2013-02-01","average_temperature":"3.64","city":"Eastbourne","latitude":"50.63N","longitude":"1.27E"}
{"date":"2010-05-01","average_temperature":"9.962","city":"Ebetsu","latitude":"42.59N","longitude":"141.82E"}
{"date":"2013-07-01","average_temperature":"18.090999999999998","city":"Ecatepec","latitude":"20.09N","longitude":"98.96W"}
{"date":"2012-10-01","average_temperature":"24.029","city":"Edéa","latitude":"4.02N","longitude":"10.45E"}
{"date":"2013-02-01","average_temperature":"1.5589999999999995","city":"Ede","latitude":"52.24N","longitude":"5.26E"}
{"date":"2012-03-01","average_temperature":"8.734","city":"Edison","latitude":"40.99N","longitude":"74.56W"}
{"date":"2012-05-01","average_temperature":"17.779","city":"Edison","latitude":"40.99N","longitude":"74.56W"}
{"date":"2013-01-01","average_temperature":"-14.509","city":"Ekibastuz","latitude":"52.24N","longitude":"76.20E"}
{"date":"2010-06-01","average_temperature":"27.172","city":"El Limón","latitude":"10.45N","longitude":"67.91W"}
{"date":"2012-08-01","average_temperature":"26.892000000000003","city":"El Monte","latitude":"34.56N","longitude":"118.70W"}
{"date":"2013-06-01","average_temperature":"25.758000000000003","city":"El Progreso","latitude":"15.27N","longitude":"87.50W"}
{"date":"2011-06-01","average_temperature":"21.128","city":"Eldoret","latitude":"0.80N","longitude":"34.55E"}
{"date":"2013-06-01","average_temperature":"19.433","city":"Elektrostal","latitude":"55.45N","longitude":"39.69E"}
{"date":"2012-10-01","average_temperature":"10.505","city":"Erzurum","latitude":"39.38N","longitude":"41.62E"}
{"date":"2011-09-01","average_temperature":"17.582","city":"Eugene","latitude":"44.20N","longitude":"122.98W"}
{"date":"2011-08-01","average_temperature":"28.296999999999997","city":"Ezhou","latitude":"29.74N","longitude":"114.46E"}
{"date":"2011-03-01","average_temperature":"25.195999999999998","city":"Faizabad","latitude":"26.52N","longitude":"82.39E"}
{"date":"2011-10-01","average_temperature":"26.456999999999997","city":"Faizabad","latitude":"26.52N","longitude":"82.39E"}
{"date":"2010-02-01","average_temperature":"19.178","city":"Faridabad","latitude":"28.13N","longitude":"77.27E"}
{"date":"2010-02-01","average_temperature":"22.35","city":"Faridpur","latitude":"23.31N","longitude":"90.00E"}
{"date":"2010-06-01","average_temperature":"34.247","city":"Farrukhabad","latitude":"28.13N","longitude":"79.09E"}
{"date":"2011-11-01","average_temperature":"12.808000000000002","city":"Fayetteville","latitude":"34.56N","longitude":"79.78W"}
{"date":"2013-07-01","average_temperature":"30.191999999999997","city":"Firozabad","latitude":"26.52N","longitude":"78.81E"}
{"date":"2013-02-01","average_temperature":"15.640999999999998","city":"Firozpur","latitude":"31.35N","longitude":"75.39E"}
{"date":"2011-08-01","average_temperature":"18.093","city":"Frankfurt","latitude":"50.63N","longitude":"8.87E"}
{"date":"2010-01-01","average_temperature":"-3.5969999999999995","city":"Freiburg","latitude":"47.42N","longitude":"8.29E"}
{"date":"2010-06-01","average_temperature":"23.058000000000003","city":"Fresno","latitude":"36.17N","longitude":"119.34W"}
{"date":"2010-05-01","average_temperature":"18.156","city":"Fujieda","latitude":"34.56N","longitude":"138.16E"}
{"date":"2011-03-01","average_temperature":"8.665","city":"Fujieda","latitude":"34.56N","longitude":"138.16E"}
{"date":"2011-05-01","average_temperature":"24.2","city":"Gainesville","latitude":"29.74N","longitude":"83.08W"}
{"date":"2010-03-01","average_temperature":"27.927","city":"Gangapur","latitude":"26.52N","longitude":"77.01E"}
{"date":"2010-08-01","average_temperature":"29.229","city":"Gangapur","latitude":"26.52N","longitude":"77.01E"}
{"date":"2010-07-01","average_temperature":"21.373","city":"Garanhuns","latitude":"8.84S","longitude":"36.49W"}
{"date":"2010-01-01","average_temperature":"12.425","city":"Garza García","latitude":"26.52N","longitude":"100.30W"}
{"date":"2010-08-01","average_temperature":"29.894000000000002","city":"Garza García","latitude":"26.52N","longitude":"100.30W"}
{"date":"2011-07-01","average_temperature":"28.897","city":"Gazipur","latitude":"23.31N","longitude":"90.00E"}
{"date":"2012-05-01","average_temperature":"14.65","city":"Gdynia","latitude":"53.84N","longitude":"17.73E"}
{"date":"2013-02-01","average_temperature":"14.704","city":"Gejiu","latitude":"23.31N","longitude":"103.98E"}
{"date":"2011-12-01","average_temperature":"13.105","city":"General Escobedo","latitude":"26.52N","longitude":"100.30W"}
{"date":"2011-02-01","average_temperature":"5.542000000000001","city":"Gent","latitude":"50.63N","longitude":"3.80E"}
{"date":"2012-04-01","average_temperature":"8.620000000000001","city":"Gent","latitude":"50.63N","longitude":"3.80E"}
{"date":"2012-07-01","average_temperature":"30.031","city":"Ghazipur","latitude":"24.92N","longitude":"83.35E"}
{"date":"2011-12-01","average_temperature":"12.645999999999999","city":"Gijón","latitude":"44.20N","longitude":"6.71W"}
{"date":"2012-07-01","average_temperature":"18.820999999999998","city":"Glazov","latitude":"58.66N","longitude":"52.31E"}
{"date":"2012-01-01","average_temperature":"12.013","city":"Gojra","latitude":"31.35N","longitude":"73.51E"}
{"date":"2012-10-01","average_temperature":"19.78","city":"Goma","latitude":"2.41S","longitude":"29.73E"}
{"date":"2010-07-01","average_temperature":"24.278","city":"Gomel","latitude":"52.24N","longitude":"31.53E"}
{"date":"2011-04-01","average_temperature":"8.572000000000001","city":"Gomel","latitude":"52.24N","longitude":"31.53E"}
{"date":"2011-02-01","average_temperature":"20.648000000000003","city":"Gondar","latitude":"12.05N","longitude":"37.81E"}
{"date":"2013-01-01","average_temperature":"-17.987000000000005","city":"Gongzhuling","latitude":"44.20N","longitude":"125.22E"}
{"date":"2011-07-01","average_temperature":"17.164","city":"Graz","latitude":"47.42N","longitude":"15.39E"}
{"date":"2012-11-01","average_temperature":"10.354","city":"Guangshui","latitude":"31.35N","longitude":"113.09E"}
{"date":"2013-09-01","city":"Guangyuan","latitude":"32.95N","longitude":"106.28E"}
{"date":"2011-07-01","average_temperature":"15.522","city":"Guarapuava","latitude":"24.92S","longitude":"51.43W"}
{"date":"2012-08-01","average_temperature":"25.823","city":"Guarenas","latitude":"10.45N","longitude":"66.27W"}
{"date":"2013-08-01","average_temperature":"18.215","city":"Guarujá","latitude":"23.31S","longitude":"46.31W"}
{"date":"2010-08-01","average_temperature":"26.634","city":"Guatire","latitude":"10.45N","longitude":"66.27W"}
{"date":"2010-07-01","average_temperature":"21.267","city":"Guayaquil","latitude":"2.41S","longitude":"79.55W"}
{"date":"2010-04-01","average_temperature":"23.586","city":"Guaymas","latitude":"28.13N","longitude":"110.00W"}
{"date":"2011-02-01","average_temperature":"25.432","city":"Gudivada","latitude":"16.87N","longitude":"80.37E"}
{"date":"2010-12-01","average_temperature":"12.345","city":"Gujrat","latitude":"32.95N","longitude":"73.72E"}
{"date":"2010-07-01","average_temperature":"26.468000000000004","city":"Gusau","latitude":"12.05N","longitude":"6.58E"}
{"date":"2012-07-01","average_temperature":"24.444000000000006","city":"Hachioji","latitude":"36.17N","longitude":"139.23E"}
{"date":"2010-07-01","average_temperature":"28.576","city":"Hai Phong","latitude":"21.70N","longitude":"106.44E"}
{"date":"2010-09-01","average_temperature":"11.964","city":"Halle","latitude":"50.63N","longitude":"11.41E"}
{"date":"2011-03-01","average_temperature":"8.665","city":"Hamamatsu","latitude":"34.56N","longitude":"138.16E"}
{"date":"2011-11-01","average_temperature":"8.645999999999999","city":"Handan","latitude":"36.17N","longitude":"115.36E"}
{"date":"2011-12-01","average_temperature":"0.016","city":"Handan","latitude":"36.17N","longitude":"115.36E"}
{"date":"2013-03-01","average_temperature":"22.051","city":"Harare","latitude":"18.48S","longitude":"30.42E"}
{"date":"2013-09-01","city":"Harare","latitude":"18.48S","longitude":"30.42E"}
{"date":"2011-08-01","average_temperature":"27.041999999999998","city":"Hargeysa","latitude":"8.84N","longitude":"44.59E"}
{"date":"2010-12-01","average_temperature":"13.874","city":"Haridwar","latitude":"29.74N","longitude":"77.54E"}
{"date":"2012-02-01","average_temperature":"3.657","city":"Hartford","latitude":"40.99N","longitude":"72.43W"}
{"date":"2010-10-01","average_temperature":"24.537","city":"Hassan","latitude":"13.66N","longitude":"76.79E"}
{"date":"2013-04-01","average_temperature":"3.0089999999999995","city":"Hegang","latitude":"47.42N","longitude":"131.45E"}
{"date":"2011-05-01","average_temperature":"12.786","city":"Heihe","latitude":"50.63N","longitude":"128.03E"}
{"date":"2011-02-01","average_temperature":"1.932","city":"Heilbronn","latitude":"49.03N","longitude":"9.80E"}
{"date":"2013-02-01","average_temperature":"-16.042","city":"Hengshan","latitude":"45.81N","longitude":"130.38E"}
{"date":"2010-02-01","average_temperature":"7.273","city":"Hiroshima","latitude":"34.56N","longitude":"132.32E"}
{"date":"2013-09-01","city":"Hisar","latitude":"29.74N","longitude":"75.69E"}
{"date":"2011-06-01","average_temperature":"20.16","city":"Hitachi","latitude":"36.17N","longitude":"141.22E"}
{"date":"2010-03-01","average_temperature":"28.59","city":"Ho Chi Minh City","latitude":"10.45N","longitude":"107.18E"}
{"date":"2011-03-01","average_temperature":"25.323","city":"Holguín","latitude":"20.09N","longitude":"76.78W"}
{"date":"2013-04-01","average_temperature":"23.105","city":"Hong Gai","latitude":"21.70N","longitude":"106.44E"}
{"date":"2011-12-01","average_temperature":"23.248","city":"Hortolândia","latitude":"23.31S","longitude":"48.06W"}
{"date":"2011-08-01","average_temperature":"24.869","city":"Hosur","latitude":"12.05N","longitude":"77.26E"}
{"date":"2010-07-01","average_temperature":"28.723000000000006","city":"Hsintien","latitude":"24.92N","longitude":"122.36E"}
{"date":"2011-04-01","average_temperature":"16.219","city":"Huaibei","latitude":"34.56N","longitude":"116.76E"}
{"date":"2013-05-01","average_temperature":"29.714","city":"Hubli","latitude":"15.27N","longitude":"75.83E"}
{"date":"2011-11-01","average_temperature":"24.059","city":"Hue","latitude":"16.87N","longitude":"107.16E"}
{"date":"2010-06-01","average_temperature":"33.455999999999996","city":"Hyderabad","latitude":"24.92N","longitude":"69.16E"}
{"date":"2012-01-01","average_temperature":"-3.4030000000000005","city":"Iasi","latitude":"47.42N","longitude":"27.24E"}
{"date":"2011-11-01","average_temperature":"24.795","city":"Ilebo","latitude":"4.02S","longitude":"20.09E"}
{"date":"2012-10-01","average_temperature":"22.353","city":"Imphal","latitude":"24.92N","longitude":"93.99E"}
{"date":"2013-07-01","average_temperature":"17.104000000000006","city":"Indaiatuba","latitude":"23.31S","longitude":"48.06W"}
{"date":"2010-08-01","average_temperature":"26.354","city":"Iquitos","latitude":"4.02S","longitude":"73.13W"}
{"date":"2010-02-01","average_temperature":"-21.747","city":"Irkutsk","latitude":"52.24N","longitude":"105.11E"}
{"date":"2011-06-01","average_temperature":"21.085","city":"Iruma","latitude":"36.17N","longitude":"139.23E"}
{"date":"2012-07-01","average_temperature":"24.444000000000006","city":"Iruma","latitude":"36.17N","longitude":"139.23E"}
{"date":"2011-04-01","average_temperature":"20.545","city":"Irving","latitude":"32.95N","longitude":"96.70W"}
{"date":"2010-06-01","average_temperature":"26.27","city":"Ise","latitude":"7.23N","longitude":"5.68E"}
{"date":"2010-12-01","average_temperature":"5.7189999999999985","city":"Isehara","latitude":"36.17N","longitude":"139.23E"}
{"date":"2011-11-01","average_temperature":"13.663","city":"Iskenderun","latitude":"36.17N","longitude":"35.80E"}
{"date":"2013-03-01","average_temperature":"15.475","city":"Iskenderun","latitude":"36.17N","longitude":"35.80E"}
{"date":"2011-07-01","average_temperature":"30.038","city":"Islamabad","latitude":"32.95N","longitude":"73.72E"}
{"date":"2012-11-01","average_temperature":"22.127","city":"Itajaí","latitude":"26.52S","longitude":"48.36W"}
{"date":"2011-01-01","average_temperature":"24.358","city":"Itu","latitude":"23.31S","longitude":"48.06W"}
{"date":"2011-07-01","average_temperature":"22.264","city":"Ivanovo","latitude":"57.05N","longitude":"39.84E"}
{"date":"2012-02-01","average_temperature":"4.122","city":"Iwakuni","latitude":"34.56N","longitude":"132.32E"}
{"date":"2011-02-01","average_temperature":"3.734","city":"Iwatsuki","latitude":"36.17N","longitude":"139.23E"}
{"date":"2012-10-01","average_temperature":"16.844","city":"Ixtapaluca","latitude":"20.09N","longitude":"98.96W"}
{"date":"2012-04-01","average_temperature":"13.708","city":"Izumi","latitude":"34.56N","longitude":"136.22E"}
{"date":"2013-01-01","average_temperature":"26.741999999999997","city":"Jakarta","latitude":"5.63S","longitude":"106.55E"}
{"date":"2010-08-01","average_temperature":"24.2","city":"Jalalabad","latitude":"34.56N","longitude":"70.05E"}
{"date":"2013-02-01","average_temperature":"28.967","city":"Jalingo","latitude":"8.84N","longitude":"12.16E"}
{"date":"2012-09-01","average_temperature":"25.921999999999997","city":"Jalna","latitude":"20.09N","longitude":"75.07E"}
{"date":"2012-06-01","average_temperature":"27.549","city":"Jamame","latitude":"0.80N","longitude":"42.59E"}
{"date":"2011-03-01","average_temperature":"27.14","city":"Jamnagar","latitude":"21.70N","longitude":"70.10E"}
{"date":"2010-07-01","average_temperature":"29.169","city":"Jamshedpur","latitude":"23.31N","longitude":"86.50E"}
{"date":"2012-05-01","average_temperature":"33.048","city":"Jamuria","latitude":"23.31N","longitude":"86.50E"}
{"date":"2012-10-01","average_temperature":"25.875","city":"Jaunpur","latitude":"26.52N","longitude":"82.39E"}
{"date":"2013-08-01","average_temperature":"29.346","city":"Jerusalem","latitude":"31.35N","longitude":"35.81E"}
{"date":"2010-08-01","average_temperature":"27.908","city":"Jetpur","latitude":"21.70N","longitude":"70.10E"}
{"date":"2011-12-01","average_temperature":"-16.942","city":"Jiamusi","latitude":"47.42N","longitude":"131.45E"}
{"date":"2010-10-01","average_temperature":"17.320999999999998","city":"Jiangyou","latitude":"31.35N","longitude":"105.55E"}
{"date":"2010-05-01","average_temperature":"21.629","city":"Jieshou","latitude":"32.95N","longitude":"115.85E"}
{"date":"2010-08-01","average_temperature":"20.613000000000003","city":"Jilin","latitude":"44.20N","longitude":"127.45E"}
{"date":"2010-03-01","average_temperature":"-4.691","city":"Jinchang","latitude":"37.78N","longitude":"101.69E"}
{"date":"2011-03-01","average_temperature":"-7.1850000000000005","city":"Jinchang","latitude":"37.78N","longitude":"101.69E"}
{"date":"2010-04-01","average_temperature":"31.899","city":"Jind","latitude":"29.74N","longitude":"75.69E"}
{"date":"2013-07-01","average_temperature":"22.275","city":"Jishu","latitude":"44.20N","longitude":"127.45E"}
{"date":"2010-03-01","average_temperature":"10.895999999999999","city":"Jiujiang","latitude":"29.74N","longitude":"116.31E"}
{"date":"2010-08-01","average_temperature":"27.028","city":"Kaifeng","latitude":"34.56N","longitude":"114.81E"}
{"date":"2012-04-01","average_temperature":"28.456999999999997","city":"Kalmunai","latitude":"7.23N","longitude":"81.89E"}
{"date":"2012-11-01","average_temperature":"28.408","city":"Kalmunai","latitude":"7.23N","longitude":"81.89E"}
{"date":"2013-05-01","average_temperature":"18.952","city":"Kamakura","latitude":"34.56N","longitude":"140.11E"}
{"date":"2012-03-01","average_temperature":"27.878","city":"Kanchrapara","latitude":"23.31N","longitude":"88.25E"}
{"date":"2013-02-01","average_temperature":"27.398000000000003","city":"Kankan","latitude":"10.45N","longitude":"9.00W"}
{"date":"2013-08-01","average_temperature":"29.539","city":"Karachi","latitude":"24.92N","longitude":"67.39E"}
{"date":"2012-01-01","average_temperature":"3.137","city":"Karaj","latitude":"36.17N","longitude":"51.71E"}
{"date":"2012-08-01","average_temperature":"26.156","city":"Karang Tengah","latitude":"7.23S","longitude":"106.22E"}
{"date":"2013-08-01","average_temperature":"26.869","city":"Karawang","latitude":"5.63S","longitude":"106.55E"}
{"date":"2011-10-01","average_temperature":"17.774","city":"Kashihara","latitude":"34.56N","longitude":"136.22E"}
{"date":"2010-10-01","average_temperature":"19.274","city":"Kashipur","latitude":"29.74N","longitude":"79.38E"}
{"date":"2013-02-01","average_temperature":"2.046","city":"Kashiwa","latitude":"36.17N","longitude":"139.23E"}
{"date":"2012-01-01","average_temperature":"26.448","city":"Kebumen","latitude":"7.23S","longitude":"109.46E"}
{"date":"2010-09-01","average_temperature":"27.811999999999998","city":"Kediri","latitude":"7.23S","longitude":"112.70E"}
{"date":"2011-02-01","average_temperature":"-13.995","city":"Kemerovo","latitude":"55.45N","longitude":"85.04E"}
{"date":"2013-05-01","average_temperature":"16.152","city":"Khimki","latitude":"55.45N","longitude":"36.85E"}
{"date":"2011-08-01","average_temperature":"28.156999999999996","city":"Khlong Luang","latitude":"13.66N","longitude":"99.91E"}
{"date":"2013-08-01","average_temperature":"28.144000000000002","city":"Khuzdar","latitude":"28.13N","longitude":"66.36E"}
{"date":"2010-04-01","average_temperature":"24.755","city":"Kindu","latitude":"2.41S","longitude":"26.52E"}
{"date":"2013-01-01","average_temperature":"3.0269999999999997","city":"Kingston Upon Hull","latitude":"53.84N","longitude":"1.36W"}
{"date":"2011-02-01","average_temperature":"-17.697000000000006","city":"Kirov","latitude":"58.66N","longitude":"49.23E"}
{"date":"2012-09-01","average_temperature":"10.917","city":"Kirov","latitude":"58.66N","longitude":"49.23E"}
{"date":"2010-04-01","average_temperature":"30.423000000000002","city":"Kishi","latitude":"8.84N","longitude":"4.05E"}
{"date":"2013-08-01","average_temperature":"18.52","city":"Kitchener","latitude":"44.20N","longitude":"80.50W"}
{"date":"2010-02-01","average_temperature":"22.040000000000006","city":"Kitwe","latitude":"12.05S","longitude":"27.95E"}
{"date":"2013-01-01","average_temperature":"-0.643","city":"Klaipeda","latitude":"55.45N","longitude":"19.84E"}
{"date":"2013-06-01","average_temperature":"26.298000000000002","city":"Kolhapur","latitude":"16.87N","longitude":"73.67E"}
{"date":"2013-08-01","average_temperature":"17.153000000000002","city":"Kolpino","latitude":"60.27N","longitude":"29.19E"}
{"date":"2010-11-01","average_temperature":"8.065","city":"Komatsu","latitude":"36.17N","longitude":"137.24E"}
{"date":"2010-07-01","average_temperature":"25.524","city":"Konan","latitude":"36.17N","longitude":"137.24E"}
{"date":"2010-02-01","average_temperature":"23.506","city":"Korba","latitude":"21.70N","longitude":"82.21E"}
{"date":"2010-02-01","average_temperature":"27.156999999999996","city":"Koronadal","latitude":"5.63N","longitude":"124.30E"}
{"date":"2011-12-01","average_temperature":"-2.041999999999999","city":"Kostroma","latitude":"57.05N","longitude":"39.84E"}
{"date":"2011-06-01","average_temperature":"22.531","city":"Krasnodar","latitude":"45.81N","longitude":"38.08E"}
{"date":"2011-07-01","average_temperature":"23.248","city":"Kremenchuk","latitude":"49.03N","longitude":"34.29E"}
{"date":"2011-06-01","average_temperature":"29.873","city":"Krishnanagar","latitude":"23.31N","longitude":"88.25E"}
{"date":"2010-04-01","average_temperature":"15.794","city":"Krugersdorp","latitude":"26.52S","longitude":"28.66E"}
{"date":"2010-10-01","average_temperature":"18.688","city":"Krugersdorp","latitude":"26.52S","longitude":"28.66E"}
{"date":"2012-03-01","average_temperature":"26.506","city":"Kuantan","latitude":"4.02N","longitude":"103.66E"}
{"date":"2011-04-01","average_temperature":"21.029","city":"Kuhdasht","latitude":"32.95N","longitude":"46.91E"}
{"date":"2012-06-01","average_temperature":"16.412","city":"Kuito","latitude":"12.05S","longitude":"16.44E"}
{"date":"2011-08-01","average_temperature":"27.881999999999998","city":"Kulti","latitude":"23.31N","longitude":"86.50E"}
{"date":"2012-12-01","average_temperature":"26.675","city":"Kumasi","latitude":"7.23N","longitude":"0.81W"}
{"date":"2012-01-01","average_temperature":"26.618000000000002","city":"Kumba","latitude":"4.02N","longitude":"8.84E"}
{"date":"2011-10-01","average_temperature":"17.753","city":"Kurashiki","latitude":"34.56N","longitude":"134.27E"}
{"date":"2012-11-01","average_temperature":"28.548","city":"Kusti","latitude":"13.66N","longitude":"32.20E"}
{"date":"2011-01-01","average_temperature":"7.058999999999998","city":"Lárisa","latitude":"39.38N","longitude":"22.89E"}
{"date":"2010-08-01","average_temperature":"25.621","city":"La Ceiba","latitude":"15.27N","longitude":"87.50W"}
{"date":"2011-11-01","average_temperature":"24.78","city":"La Paz","latitude":"24.92N","longitude":"109.95W"}
{"date":"2012-10-01","average_temperature":"28.86","city":"La Paz","latitude":"24.92N","longitude":"109.95W"}
{"date":"2010-02-01","average_temperature":"26.3","city":"La Rioja","latitude":"29.74S","longitude":"66.46W"}
{"date":"2012-03-01","average_temperature":"16.932000000000002","city":"La Serena","latitude":"29.74S","longitude":"72.00W"}
{"date":"2011-06-01","average_temperature":"27.595","city":"Lagos","latitude":"5.63N","longitude":"3.23E"}
{"date":"2013-02-01","average_temperature":"15.414000000000001","city":"Lahore","latitude":"31.35N","longitude":"73.51E"}
{"date":"2011-06-01","average_temperature":"26.035","city":"Langfang","latitude":"39.38N","longitude":"116.53E"}
{"date":"2012-11-01","average_temperature":"3.411","city":"Langfang","latitude":"39.38N","longitude":"116.53E"}
{"date":"2013-06-01","average_temperature":"18.299","city":"Lanzhou","latitude":"36.17N","longitude":"103.43E"}
{"date":"2011-04-01","average_temperature":"15.853000000000002","city":"Las Vegas","latitude":"36.17N","longitude":"115.36W"}
{"date":"2013-09-01","average_temperature":"25.709","city":"Las Vegas","latitude":"36.17N","longitude":"115.36W"}
{"date":"2011-05-01","average_temperature":"16.256","city":"León","latitude":"42.59N","longitude":"6.55W"}
{"date":"2012-09-01","average_temperature":"16.133","city":"Le Mans","latitude":"47.42N","longitude":"1.18E"}
{"date":"2011-08-01","average_temperature":"27.721","city":"Leiyang","latitude":"26.52N","longitude":"112.84E"}
{"date":"2012-02-01","average_temperature":"25.362","city":"Lembang","latitude":"7.23S","longitude":"107.84E"}
{"date":"2012-11-01","average_temperature":"26.804","city":"Leuwiliang","latitude":"7.23S","longitude":"106.22E"}
{"date":"2011-05-01","average_temperature":"14.637","city":"Leverkusen","latitude":"50.63N","longitude":"6.34E"}
{"date":"2012-12-01","average_temperature":"6.352","city":"Lexington Fayette","latitude":"37.78N","longitude":"85.42W"}
{"date":"2011-07-01","average_temperature":"15.847000000000001","city":"Liège","latitude":"50.63N","longitude":"6.34E"}
{"date":"2013-02-01","average_temperature":"28.194000000000006","city":"Libreville","latitude":"0.80N","longitude":"8.84E"}
{"date":"2010-09-01","average_temperature":"23.630000000000006","city":"Limeira","latitude":"21.70S","longitude":"47.60W"}
{"date":"2013-07-01","average_temperature":"21.522","city":"Limoges","latitude":"45.81N","longitude":"1.15E"}
{"date":"2010-06-01","average_temperature":"21.636999999999997","city":"Lipetsk","latitude":"52.24N","longitude":"39.42E"}
{"date":"2011-01-01","average_temperature":"-9.463","city":"Lipetsk","latitude":"52.24N","longitude":"39.42E"}
{"date":"2011-06-01","average_temperature":"17.164","city":"Livingstone","latitude":"18.48S","longitude":"25.35E"}
{"date":"2013-08-01","average_temperature":"24.787","city":"Lleida","latitude":"40.99N","longitude":"0.00W"}
{"date":"2012-03-01","average_temperature":"-4.427999999999999","city":"Longjiang","latitude":"47.42N","longitude":"124.34E"}
{"date":"2012-12-01","average_temperature":"16.566","city":"Loni","latitude":"28.13N","longitude":"77.27E"}
{"date":"2011-04-01","average_temperature":"25.16","city":"Los Mochis","latitude":"26.52N","longitude":"109.25W"}
{"date":"2013-07-01","average_temperature":"25.497000000000003","city":"Luancheng","latitude":"37.78N","longitude":"113.90E"}
{"date":"2013-06-01","average_temperature":"18.339000000000002","city":"Lublin","latitude":"50.63N","longitude":"21.55E"}
{"date":"2012-04-01","average_temperature":"20.303","city":"Lubumbashi","latitude":"12.05S","longitude":"27.95E"}
{"date":"2011-01-01","average_temperature":"-0.491","city":"Luohe","latitude":"32.95N","longitude":"113.94E"}
{"date":"2011-05-01","average_temperature":"21.002","city":"Luoyang","latitude":"34.56N","longitude":"112.86E"}
{"date":"2012-12-01","average_temperature":"23.485","city":"Lusaka","latitude":"15.27S","longitude":"27.50E"}
{"date":"2011-08-01","average_temperature":"31.930999999999997","city":"Luxor","latitude":"26.52N","longitude":"32.24E"}
{"date":"2010-08-01","average_temperature":"22.694000000000003","city":"Luziânia","latitude":"16.87S","longitude":"48.56W"}
{"date":"2010-08-01","average_temperature":"29.596","city":"Maanshan","latitude":"31.35N","longitude":"118.74E"}
{"date":"2011-03-01","average_temperature":"9.459","city":"Maanshan","latitude":"31.35N","longitude":"118.74E"}
{"date":"2010-11-01","average_temperature":"22.750999999999998","city":"Macaé","latitude":"21.70S","longitude":"42.40W"}
{"date":"2010-10-01","average_temperature":"20.39","city":"Machala","latitude":"4.02S","longitude":"79.55W"}
{"date":"2012-01-01","average_temperature":"-3.6860000000000004","city":"Madison","latitude":"42.59N","longitude":"89.45W"}
{"date":"2011-12-01","average_temperature":"27.756","city":"Magangué","latitude":"8.84N","longitude":"75.41W"}
{"date":"2012-06-01","average_temperature":"28.965999999999998","city":"Magangué","latitude":"8.84N","longitude":"75.41W"}
{"date":"2013-04-01","average_temperature":"32.245000000000005","city":"Mahbubnagar","latitude":"16.87N","longitude":"78.70E"}
{"date":"2011-07-01","average_temperature":"24.856","city":"Majalaya","latitude":"7.23S","longitude":"107.84E"}
{"date":"2012-10-01","average_temperature":"24.967","city":"Malabo","latitude":"4.02N","longitude":"8.84E"}
{"date":"2010-06-01","average_temperature":"29.315","city":"Malegaon","latitude":"20.09N","longitude":"75.07E"}
{"date":"2011-04-01","average_temperature":"27.703000000000003","city":"Maler Kotla","latitude":"29.74N","longitude":"75.69E"}
{"date":"2013-09-01","city":"Maler Kotla","latitude":"29.74N","longitude":"75.69E"}
{"date":"2012-04-01","average_temperature":"28.499000000000002","city":"Managua","latitude":"12.05N","longitude":"85.48W"}
{"date":"2011-08-01","average_temperature":"20.769000000000002","city":"Manchester","latitude":"42.59N","longitude":"72.00W"}
{"date":"2013-09-01","average_temperature":"15.883","city":"Manchester","latitude":"42.59N","longitude":"72.00W"}
{"date":"2010-09-01","average_temperature":"27.36","city":"Manila","latitude":"15.27N","longitude":"120.83E"}
{"date":"2011-12-01","average_temperature":"24.892","city":"Manzanillo","latitude":"20.09N","longitude":"76.78W"}
{"date":"2013-01-01","average_temperature":"26.766","city":"Manzanillo","latitude":"18.48N","longitude":"104.79W"}
{"date":"2010-01-01","average_temperature":"25.057","city":"Marília","latitude":"21.70S","longitude":"49.33W"}
{"date":"2010-10-01","average_temperature":"27.955","city":"Maracaibo","latitude":"10.45N","longitude":"71.18W"}
{"date":"2011-12-01","average_temperature":"26.8","city":"Maracaibo","latitude":"10.45N","longitude":"71.18W"}
{"date":"2010-05-01","average_temperature":"18.193","city":"Marivan","latitude":"36.17N","longitude":"45.75E"}
{"date":"2011-07-01","average_temperature":"28.718000000000004","city":"Marv Dasht","latitude":"29.74N","longitude":"53.54E"}
{"date":"2012-06-01","average_temperature":"36.33900000000001","city":"Mathura","latitude":"28.13N","longitude":"77.27E"}
{"date":"2012-07-01","average_temperature":"26.26","city":"Matsusaka","latitude":"34.56N","longitude":"136.22E"}
{"date":"2011-01-01","average_temperature":"22.98","city":"Mbouda","latitude":"5.63N","longitude":"9.69E"}
{"date":"2010-08-01","average_temperature":"19.864","city":"Medellín","latitude":"5.63N","longitude":"75.87W"}
{"date":"2013-02-01","average_temperature":"26.8","city":"Meiktila","latitude":"20.09N","longitude":"95.55E"}
{"date":"2013-08-01","average_temperature":"28.552","city":"Meilu","latitude":"21.70N","longitude":"109.90E"}
{"date":"2011-01-01","average_temperature":"25.092","city":"Mercedes","latitude":"32.95S","longitude":"66.06W"}
{"date":"2013-03-01","average_temperature":"2.672","city":"Metz","latitude":"49.03N","longitude":"7.35E"}
{"date":"2010-02-01","average_temperature":"12.597000000000001","city":"Mexicali","latitude":"32.95N","longitude":"115.85W"}
{"date":"2010-12-01","average_temperature":"4.92","city":"Miandoab","latitude":"36.17N","longitude":"45.75E"}
{"date":"2010-03-01","average_temperature":"5.792999999999999","city":"Middlesbrough","latitude":"53.84N","longitude":"1.36W"}
{"date":"2012-12-01","average_temperature":"24.206999999999997","city":"Minatitlán","latitude":"18.48N","longitude":"94.65W"}
{"date":"2010-11-01","average_temperature":"27.083000000000002","city":"Minna","latitude":"8.84N","longitude":"7.30E"}
{"date":"2010-05-01","average_temperature":"20.27","city":"Miyakonojo","latitude":"31.35N","longitude":"131.94E"}
{"date":"2013-08-01","average_temperature":"28.467","city":"Miyakonojo","latitude":"31.35N","longitude":"131.94E"}
{"date":"2010-12-01","average_temperature":"27.396","city":"Modakeke","latitude":"7.23N","longitude":"4.05E"}
{"date":"2010-06-01","average_temperature":"17.029","city":"Moers","latitude":"50.63N","longitude":"6.34E"}
{"date":"2010-09-01","average_temperature":"25.448","city":"Monrovia","latitude":"7.23N","longitude":"10.54W"}
{"date":"2010-02-01","average_temperature":"30.058000000000003","city":"Montería","latitude":"8.84N","longitude":"75.41W"}
{"date":"2012-03-01","average_temperature":"21.555999999999997","city":"Monterrey","latitude":"26.52N","longitude":"100.30W"}
{"date":"2011-01-01","average_temperature":"5.25","city":"Montgomery","latitude":"32.95N","longitude":"87.13W"}
{"date":"2012-10-01","average_temperature":"25.747","city":"Moratuwa","latitude":"7.23N","longitude":"80.27E"}
{"date":"2010-12-01","average_temperature":"12.468","city":"Morelia","latitude":"20.09N","longitude":"100.66W"}
{"date":"2012-12-01","average_temperature":"7.8519999999999985","city":"Moreno Valley","latitude":"34.56N","longitude":"116.76W"}
{"date":"2010-11-01","average_temperature":"30.136999999999997","city":"Mossoró","latitude":"5.63S","longitude":"37.13W"}
{"date":"2012-02-01","average_temperature":"-5.1389999999999985","city":"Mulhouse","latitude":"47.42N","longitude":"8.29E"}
{"date":"2010-02-01","average_temperature":"-15.184000000000001","city":"Murmansk","latitude":"68.31N","longitude":"34.70E"}
{"date":"2011-05-01","average_temperature":"17.558","city":"Mutare","latitude":"18.48S","longitude":"32.11E"}
{"date":"2012-06-01","average_temperature":"30.965","city":"Muzaffarpur","latitude":"26.52N","longitude":"85.97E"}
{"date":"2012-11-01","average_temperature":"24.064","city":"Mwanza","latitude":"2.41S","longitude":"32.95E"}
{"date":"2013-06-01","average_temperature":"24.663","city":"Mwene Ditu","latitude":"7.23S","longitude":"23.51E"}
{"date":"2012-08-01","average_temperature":"27.945999999999998","city":"Nador","latitude":"34.56N","longitude":"3.89W"}
{"date":"2012-07-01","average_temperature":"27.627","city":"Naga","latitude":"13.66N","longitude":"123.03E"}
{"date":"2010-09-01","average_temperature":"26.905","city":"Nalgonda","latitude":"16.87N","longitude":"78.70E"}
{"date":"2010-03-01","average_temperature":"6.899","city":"Namur","latitude":"50.63N","longitude":"3.80E"}
{"date":"2013-04-01","average_temperature":"18.374000000000002","city":"Nanchong","latitude":"31.35N","longitude":"105.55E"}
{"date":"2012-12-01","average_temperature":"14.774000000000001","city":"Nanning","latitude":"23.31N","longitude":"107.48E"}
{"date":"2011-12-01","average_temperature":"-6.291","city":"Nanpiao","latitude":"40.99N","longitude":"121.42E"}
{"date":"2013-07-01","average_temperature":"30.623","city":"Nantong","latitude":"31.35N","longitude":"120.63E"}
{"date":"2013-01-01","average_temperature":"1.288","city":"Narashino","latitude":"36.17N","longitude":"139.23E"}
{"date":"2012-01-01","average_temperature":"4.238","city":"Narita","latitude":"36.17N","longitude":"141.22E"}
{"date":"2012-03-01","average_temperature":"24.219","city":"Nassau","latitude":"24.92N","longitude":"78.03W"}
{"date":"2012-12-01","average_temperature":"19.621","city":"Navadwip","latitude":"23.31N","longitude":"88.25E"}
{"date":"2012-02-01","average_temperature":"22.478","city":"Navsari","latitude":"20.09N","longitude":"73.36E"}
{"date":"2013-07-01","average_temperature":"30.159000000000002","city":"Nawabganj","latitude":"24.92N","longitude":"88.67E"}
{"date":"2012-09-01","average_temperature":"26.22","city":"Netanya","latitude":"32.95N","longitude":"35.43E"}
{"date":"2010-12-01","average_temperature":"10.155","city":"New Orleans","latitude":"29.74N","longitude":"90.46W"}
{"date":"2013-05-01","average_temperature":"10.489999999999998","city":"Newport","latitude":"52.24N","longitude":"2.63W"}
{"date":"2012-10-01","average_temperature":"14.523","city":"Neyshabur","latitude":"36.17N","longitude":"59.67E"}
{"date":"2011-01-01","average_temperature":"24.674","city":"Neyveli","latitude":"12.05N","longitude":"78.90E"}
{"date":"2010-11-01","average_temperature":"13.654000000000002","city":"Nezahualcóyotl","latitude":"20.09N","longitude":"98.96W"}
{"date":"2012-01-01","average_temperature":"22.855","city":"Nha Trang","latitude":"12.05N","longitude":"108.49E"}
{"date":"2011-12-01","average_temperature":"4.53","city":"Niigata","latitude":"37.78N","longitude":"138.31E"}
{"date":"2012-03-01","average_temperature":"26.717","city":"Nilópolis","latitude":"23.31S","longitude":"42.82W"}
{"date":"2010-06-01","average_temperature":"22.649","city":"Nishio","latitude":"34.56N","longitude":"136.22E"}
{"date":"2010-06-01","average_temperature":"18.492","city":"Nizhniy Novgorod","latitude":"57.05N","longitude":"42.79E"}
{"date":"2013-02-01","average_temperature":"8.004999999999999","city":"North Las Vegas","latitude":"36.17N","longitude":"115.36W"}
{"date":"2010-09-01","average_temperature":"21.039","city":"Nova Friburgo","latitude":"21.70S","longitude":"42.40W"}
{"date":"2012-11-01","average_temperature":"25.561999999999998","city":"Nueva San Salvador","latitude":"13.66N","longitude":"90.00W"}
{"date":"2010-10-01","average_temperature":"7.307","city":"Nyíregyháza","latitude":"47.42N","longitude":"22.50E"}
{"date":"2012-05-01","average_temperature":"26.027","city":"Nzérékoré","latitude":"7.23N","longitude":"8.92W"}
{"date":"2012-02-01","average_temperature":"-0.728","city":"Odense","latitude":"55.45N","longitude":"11.34E"}
{"date":"2012-01-01","average_temperature":"12.013","city":"Okara","latitude":"31.35N","longitude":"73.51E"}
{"date":"2010-11-01","average_temperature":"26.997","city":"Okrika","latitude":"4.02N","longitude":"7.23E"}
{"date":"2011-03-01","average_temperature":"6.285","city":"Oldham","latitude":"53.84N","longitude":"1.36W"}
{"date":"2011-04-01","average_temperature":"13.577000000000002","city":"Omuta","latitude":"32.95N","longitude":"131.17E"}
{"date":"2010-12-01","average_temperature":"-5.077","city":"Opole","latitude":"50.63N","longitude":"19.01E"}
{"date":"2011-03-01","average_temperature":"6.2810000000000015","city":"Ordu","latitude":"40.99N","longitude":"38.34E"}
{"date":"2010-07-01","average_temperature":"26.256","city":"Oron","latitude":"5.63N","longitude":"8.07E"}
{"date":"2013-03-01","average_temperature":"9.436","city":"Osmaniye","latitude":"37.78N","longitude":"36.61E"}
{"date":"2010-06-01","average_temperature":"16.774","city":"Ottawa","latitude":"45.81N","longitude":"75.00W"}
{"date":"2010-04-01","average_temperature":"31.011999999999997","city":"Otukpo","latitude":"7.23N","longitude":"8.92E"}
{"date":"2010-09-01","average_temperature":"22.48","city":"Pôrto Seguro","latitude":"16.87S","longitude":"38.51W"}
{"date":"2010-09-01","average_temperature":"27.369","city":"Pagadian","latitude":"7.23N","longitude":"124.05E"}
{"date":"2012-02-01","average_temperature":"28.208","city":"Pak Kret","latitude":"13.66N","longitude":"99.91E"}
{"date":"2012-02-01","average_temperature":"26.869","city":"Palembang","latitude":"2.41S","longitude":"105.27E"}
{"date":"2011-02-01","average_temperature":"20.236","city":"Pali","latitude":"26.52N","longitude":"73.43E"}
{"date":"2010-09-01","average_temperature":"29.561","city":"Pallavaram","latitude":"13.66N","longitude":"80.09E"}
{"date":"2012-11-01","average_temperature":"13.902999999999999","city":"Palmdale","latitude":"34.56N","longitude":"118.70W"}
{"date":"2013-06-01","average_temperature":"27.226","city":"Palo Negro","latitude":"10.45N","longitude":"67.91W"}
{"date":"2011-03-01","average_temperature":"26.098000000000006","city":"Palu","latitude":"0.80S","longitude":"119.73E"}
{"date":"2011-07-01","average_temperature":"26.930999999999997","city":"Pamanukan","latitude":"5.63S","longitude":"108.16E"}
{"date":"2010-05-01","average_temperature":"18.696","city":"Paradise","latitude":"36.17N","longitude":"115.36W"}
{"date":"2012-06-01","average_temperature":"28.282000000000004","city":"Paradise","latitude":"36.17N","longitude":"115.36W"}
{"date":"2013-02-01","average_temperature":"26.666999999999998","city":"Paramaribo","latitude":"5.63N","longitude":"54.89W"}
{"date":"2010-04-01","average_temperature":"10.82","city":"Paris","latitude":"49.03N","longitude":"2.45E"}
{"date":"2012-01-01","average_temperature":"26.756","city":"Pasuruan","latitude":"7.23S","longitude":"112.70E"}
{"date":"2011-07-01","average_temperature":"28.156","city":"Pate","latitude":"24.92N","longitude":"120.59E"}
{"date":"2011-08-01","average_temperature":"28.464","city":"Pate","latitude":"24.92N","longitude":"120.59E"}
{"date":"2011-06-01","average_temperature":"23.884","city":"Pathankot","latitude":"32.95N","longitude":"75.64E"}
{"date":"2011-09-01","average_temperature":"27.253","city":"Pati","latitude":"7.23S","longitude":"111.08E"}
{"date":"2012-03-01","average_temperature":"-5.4380000000000015","city":"Penza","latitude":"53.84N","longitude":"45.00E"}
{"date":"2010-12-01","average_temperature":"26.092","city":"Perbaungan","latitude":"4.02N","longitude":"98.84E"}
{"date":"2012-01-01","average_temperature":"3.618","city":"Perugia","latitude":"42.59N","longitude":"13.09E"}
{"date":"2012-01-01","average_temperature":"5.836","city":"Peshawar","latitude":"34.56N","longitude":"72.00E"}
{"date":"2010-03-01","average_temperature":"6.4220000000000015","city":"Peterborough","latitude":"52.24N","longitude":"0.00W"}
{"date":"2013-02-01","average_temperature":"28.621","city":"Phnum Pénh","latitude":"12.05N","longitude":"105.21E"}
{"date":"2013-08-01","average_temperature":"27.585","city":"Phnum Pénh","latitude":"12.05N","longitude":"105.21E"}
{"date":"2012-08-01","average_temperature":"10.895999999999999","city":"Pietermaritzburg","latitude":"29.74S","longitude":"29.54E"}
{"date":"2013-01-01","average_temperature":"18.098","city":"Pietermaritzburg","latitude":"29.74S","longitude":"29.54E"}
{"date":"2011-04-01","average_temperature":"28.758000000000006","city":"Pilibhit","latitude":"28.13N","longitude":"79.09E"}
{"date":"2010-05-01","average_temperature":"18.679000000000002","city":"Pindamonhangaba","latitude":"23.31S","longitude":"46.31W"}
{"date":"2010-11-01","average_temperature":"21.508000000000003","city":"Pindamonhangaba","latitude":"23.31S","longitude":"46.31W"}
{"date":"2010-12-01","average_temperature":"24.218000000000004","city":"Pindiga","latitude":"10.45N","longitude":"10.64E"}
{"date":"2012-05-01","average_temperature":"22.495","city":"Pingdingshan","latitude":"34.56N","longitude":"112.86E"}
{"date":"2011-01-01","average_temperature":"9.439","city":"Pingshan","latitude":"23.31N","longitude":"114.47E"}
{"date":"2010-02-01","average_temperature":"25.281999999999996","city":"Piracicaba","latitude":"23.31S","longitude":"48.06W"}
{"date":"2013-07-01","average_temperature":"17.104000000000006","city":"Piracicaba","latitude":"23.31S","longitude":"48.06W"}
{"date":"2013-07-01","average_temperature":"19.179000000000002","city":"Plymouth","latitude":"50.63N","longitude":"3.80W"}
{"date":"2011-03-01","average_temperature":"5.209","city":"Plzen","latitude":"50.63N","longitude":"13.94E"}
{"date":"2010-03-01","average_temperature":"29.78","city":"Ponnani","latitude":"10.45N","longitude":"76.09E"}
{"date":"2012-01-01","average_temperature":"25.703000000000003","city":"Port Moresby","latitude":"8.84S","longitude":"146.76E"}
{"date":"2011-06-01","average_temperature":"12.86","city":"Porto Alegre","latitude":"29.74S","longitude":"51.69W"}
{"date":"2011-01-01","average_temperature":"5.8740000000000006","city":"Portsmouth","latitude":"50.63N","longitude":"1.27W"}
{"date":"2011-05-01","average_temperature":"12.398","city":"Portsmouth","latitude":"50.63N","longitude":"1.27W"}
{"date":"2013-09-01","city":"Presidente Prudente","latitude":"21.70S","longitude":"51.06W"}
{"date":"2011-12-01","average_temperature":"14.571","city":"Puerto Montt","latitude":"40.99S","longitude":"72.43W"}
{"date":"2011-04-01","average_temperature":"28.986","city":"Pune","latitude":"18.48N","longitude":"74.37E"}
{"date":"2013-03-01","average_temperature":"17.198999999999998","city":"Qabis","latitude":"34.56N","longitude":"9.73E"}
{"date":"2012-11-01","average_temperature":"19.647000000000002","city":"Qingyuan","latitude":"23.31N","longitude":"112.72E"}
{"date":"2010-10-01","average_temperature":"19.117","city":"Qom","latitude":"34.56N","longitude":"50.59E"}
{"date":"2010-12-01","average_temperature":"14.427999999999999","city":"Ramat Gan","latitude":"32.95N","longitude":"35.43E"}
{"date":"2010-11-01","average_temperature":"25.781","city":"Rancaekek","latitude":"7.23S","longitude":"107.84E"}
{"date":"2012-04-01","average_temperature":"7.006","city":"Rancagua","latitude":"34.56S","longitude":"70.05W"}
{"date":"2012-02-01","average_temperature":"21.696","city":"Raniganj","latitude":"23.31N","longitude":"86.50E"}
{"date":"2013-09-01","city":"Rasht","latitude":"37.78N","longitude":"48.81E"}
{"date":"2011-06-01","average_temperature":"17.153","city":"Ratisbon","latitude":"49.03N","longitude":"12.24E"}
{"date":"2012-09-01","average_temperature":"14.001","city":"Ratisbon","latitude":"49.03N","longitude":"12.24E"}
{"date":"2011-01-01","average_temperature":"18.68","city":"Raurkela","latitude":"21.70N","longitude":"85.67E"}
{"date":"2011-08-01","average_temperature":"25.958000000000002","city":"Rawang","latitude":"4.02N","longitude":"102.05E"}
{"date":"2012-08-01","average_temperature":"26.06","city":"Rawang","latitude":"4.02N","longitude":"102.05E"}
{"date":"2011-04-01","average_temperature":"26.45","city":"Recife","latitude":"8.84S","longitude":"34.86W"}
{"date":"2012-03-01","average_temperature":"27.691000000000006","city":"Rengasdengklok","latitude":"5.63S","longitude":"106.55E"}
{"date":"2012-04-01","average_temperature":"9.711","city":"Rennes","latitude":"47.42N","longitude":"1.18W"}
{"date":"2011-09-01","average_temperature":"21.785","city":"Richmond","latitude":"37.78N","longitude":"77.29W"}
{"date":"2012-11-01","average_temperature":"6.9380000000000015","city":"Richmond","latitude":"37.78N","longitude":"77.29W"}
{"date":"2013-09-01","city":"Rivne","latitude":"50.63N","longitude":"26.62E"}
{"date":"2013-04-01","average_temperature":"6.787999999999999","city":"Rotherham","latitude":"53.84N","longitude":"1.36W"}
{"date":"2012-07-01","average_temperature":"22.173000000000002","city":"Rubtsovsk","latitude":"52.24N","longitude":"81.46E"}
{"date":"2012-11-01","average_temperature":"22.197","city":"Rustenburg","latitude":"26.52S","longitude":"26.87E"}
{"date":"2010-04-01","average_temperature":"25.724","city":"São João De Meriti","latitude":"23.31S","longitude":"42.82W"}
{"date":"2012-12-01","average_temperature":"24.229","city":"São José","latitude":"28.13S","longitude":"48.18W"}
{"date":"2013-08-01","average_temperature":"17.695999999999998","city":"São José","latitude":"28.13S","longitude":"48.18W"}
{"date":"2012-07-01","average_temperature":"30.313","city":"Sabzevar","latitude":"36.17N","longitude":"57.68E"}
{"date":"2012-10-01","average_temperature":"24.759","city":"Safaqis","latitude":"34.56N","longitude":"11.68E"}
{"date":"2012-10-01","average_temperature":"25.491999999999997","city":"Sagar","latitude":"23.31N","longitude":"79.51E"}
{"date":"2011-09-01","average_temperature":"30.043000000000003","city":"Saint Louis","latitude":"16.87N","longitude":"16.74W"}
{"date":"2012-03-01","average_temperature":"23.218000000000004","city":"Saint Louis","latitude":"16.87N","longitude":"16.74W"}
{"date":"2013-09-01","city":"Saitama","latitude":"36.17N","longitude":"139.23E"}
{"date":"2010-04-01","average_temperature":"12.306","city":"Sakai","latitude":"34.56N","longitude":"136.22E"}
{"date":"2011-09-01","average_temperature":"14.055","city":"Salta","latitude":"24.92S","longitude":"65.62W"}
{"date":"2010-06-01","average_temperature":"23.281999999999996","city":"Saltillo","latitude":"24.92N","longitude":"101.08W"}
{"date":"2012-08-01","average_temperature":"22.409000000000002","city":"Saltillo","latitude":"24.92N","longitude":"101.08W"}
{"date":"2010-02-01","average_temperature":"28.76","city":"Samut Prakan","latitude":"13.66N","longitude":"99.91E"}
{"date":"2011-07-01","average_temperature":"28.277","city":"Samut Prakan","latitude":"13.66N","longitude":"99.91E"}
{"date":"2011-09-01","average_temperature":"25.499","city":"San Bernardino","latitude":"34.56N","longitude":"116.76W"}
{"date":"2012-05-01","average_temperature":"21.948","city":"San Bernardino","latitude":"34.56N","longitude":"116.76W"}
{"date":"2010-10-01","average_temperature":"27.1","city":"San Juan","latitude":"18.48N","longitude":"65.92W"}
{"date":"2013-03-01","average_temperature":"25.386","city":"San Lorenzo","latitude":"24.92S","longitude":"56.75W"}
{"date":"2011-04-01","average_temperature":"21.959","city":"San Luis Río Colorado","latitude":"32.95N","longitude":"113.94W"}
{"date":"2013-04-01","average_temperature":"15.236","city":"San Rafael","latitude":"34.56S","longitude":"68.11W"}
{"date":"2013-04-01","average_temperature":"27.276999999999997","city":"San Salvador","latitude":"13.66N","longitude":"90.00W"}
{"date":"2010-12-01","average_temperature":"17.2","city":"Sanbu","latitude":"21.70N","longitude":"113.37E"}
{"date":"2012-06-01","average_temperature":"21.687","city":"Sanda","latitude":"34.56N","longitude":"134.27E"}
{"date":"2012-10-01","average_temperature":"12.724","city":"Sanmenxia","latitude":"34.56N","longitude":"110.92E"}
{"date":"2011-04-01","average_temperature":"26.453000000000003","city":"Santa Rita","latitude":"7.23S","longitude":"34.86W"}
{"date":"2011-03-01","average_temperature":"25.924","city":"Santa Rosa","latitude":"13.66N","longitude":"121.38E"}
{"date":"2010-01-01","average_temperature":"23.758000000000003","city":"Santiago De Cuba","latitude":"20.09N","longitude":"75.07W"}
{"date":"2010-07-01","average_temperature":"10.859000000000002","city":"Santiago Del Estero","latitude":"28.13S","longitude":"64.55W"}
{"date":"2012-09-01","average_temperature":"20.34","city":"Santiago Del Estero","latitude":"28.13S","longitude":"64.55W"}
{"date":"2010-10-01","average_temperature":"21.398000000000003","city":"Santo Domingo","latitude":"0.80S","longitude":"79.55W"}
{"date":"2012-05-01","average_temperature":"19.48","city":"Saqqez","latitude":"36.17N","longitude":"45.75E"}
{"date":"2011-11-01","average_temperature":"7.325","city":"Sari","latitude":"36.17N","longitude":"53.70E"}
{"date":"2010-06-01","average_temperature":"22.764","city":"Sasebo","latitude":"32.95N","longitude":"129.26E"}
{"date":"2010-12-01","average_temperature":"-1.501","city":"Satu Mare","latitude":"47.42N","longitude":"22.50E"}
{"date":"2013-01-01","average_temperature":"1.288","city":"Sayama","latitude":"36.17N","longitude":"139.23E"}
{"date":"2012-11-01","average_temperature":"27.007","city":"Sekondi","latitude":"5.63N","longitude":"1.61W"}
{"date":"2010-01-01","average_temperature":"27.064","city":"Sekudai","latitude":"0.80N","longitude":"103.66E"}
{"date":"2013-04-01","average_temperature":"31.914","city":"Selam","latitude":"12.05N","longitude":"78.90E"}
{"date":"2011-10-01","average_temperature":"28.028","city":"Semarang","latitude":"7.23S","longitude":"111.08E"}
{"date":"2010-06-01","average_temperature":"20.489","city":"Semey","latitude":"50.63N","longitude":"79.86E"}
{"date":"2011-02-01","average_temperature":"5.3","city":"Semnan","latitude":"36.17N","longitude":"53.70E"}
{"date":"2010-06-01","average_temperature":"17.794","city":"Sergiyev Posad","latitude":"57.05N","longitude":"36.89E"}
{"date":"2013-08-01","average_temperature":"24.641","city":"Setúbal","latitude":"39.38N","longitude":"8.32W"}
{"date":"2010-03-01","average_temperature":"-8.120999999999999","city":"Seversk","latitude":"57.05N","longitude":"84.10E"}
{"date":"2010-08-01","average_temperature":"29.266","city":"Sevilla","latitude":"37.78N","longitude":"6.10W"}
{"date":"2013-09-01","city":"Shagamu","latitude":"7.23N","longitude":"4.05E"}
{"date":"2010-08-01","average_temperature":"29.494","city":"Shahjahanpur","latitude":"28.13N","longitude":"79.09E"}
{"date":"2013-05-01","average_temperature":"33.933","city":"Shahjahanpur","latitude":"28.13N","longitude":"79.09E"}
{"date":"2011-09-01","average_temperature":"20.114","city":"Shahr E Kord","latitude":"32.95N","longitude":"50.74E"}
{"date":"2010-04-01","average_temperature":"13.706","city":"Shangqiu","latitude":"34.56N","longitude":"114.81E"}
{"date":"2013-05-01","average_temperature":"23.386000000000006","city":"Shaowu","latitude":"28.13N","longitude":"117.27E"}
{"date":"2011-01-01","average_temperature":"0.955","city":"Shaoxing","latitude":"29.74N","longitude":"120.00E"}
{"date":"2010-01-01","average_temperature":"25.234","city":"Shimoga","latitude":"13.66N","longitude":"75.14E"}
{"date":"2010-09-01","average_temperature":"24.729","city":"Shinyanga","latitude":"4.02S","longitude":"32.95E"}
{"date":"2012-04-01","average_temperature":"17.368000000000002","city":"Shiyan","latitude":"32.95N","longitude":"110.11E"}
{"date":"2013-09-01","city":"Shizuishan","latitude":"39.38N","longitude":"106.13E"}
{"date":"2011-08-01","average_temperature":"22.897","city":"Shuangcheng","latitude":"45.81N","longitude":"125.77E"}
{"date":"2013-06-01","average_temperature":"26.908","city":"Shulin","latitude":"24.92N","longitude":"120.59E"}
{"date":"2010-10-01","average_temperature":"27.112","city":"Si Racha","latitude":"13.66N","longitude":"101.56E"}
{"date":"2013-01-01","average_temperature":"0.9109999999999999","city":"Siirt","latitude":"37.78N","longitude":"42.71E"}
{"date":"2013-05-01","average_temperature":"27.416","city":"Singaraja","latitude":"8.84S","longitude":"114.32E"}
{"date":"2012-05-01","average_temperature":"20.326","city":"Siverek","latitude":"37.78N","longitude":"38.64E"}
{"date":"2013-05-01","average_temperature":"27.808000000000003","city":"Sokodé","latitude":"8.84N","longitude":"0.81E"}
{"date":"2010-02-01","average_temperature":"30.375999999999998","city":"Sokoto","latitude":"13.66N","longitude":"5.78E"}
{"date":"2011-12-01","average_temperature":"26.261999999999997","city":"Soubré","latitude":"5.63N","longitude":"6.46W"}
{"date":"2013-01-01","average_temperature":"5.984","city":"Southampton","latitude":"50.63N","longitude":"1.27W"}
{"date":"2012-07-01","average_temperature":"16.487000000000002","city":"Southend On Sea","latitude":"52.24N","longitude":"0.00W"}
{"date":"2012-10-01","average_temperature":"13.186","city":"Springfield","latitude":"37.78N","longitude":"93.56W"}
{"date":"2012-05-01","average_temperature":"30.073","city":"Srikakulam","latitude":"18.48N","longitude":"84.51E"}
{"date":"2011-05-01","average_temperature":"17.645","city":"Srinagar","latitude":"34.56N","longitude":"73.95E"}
{"date":"2011-03-01","average_temperature":"1.337","city":"Stavropol","latitude":"44.20N","longitude":"42.48E"}
{"date":"2013-03-01","average_temperature":"-6.665","city":"Sterlitamak","latitude":"53.84N","longitude":"55.91E"}
{"date":"2011-01-01","average_temperature":"24.927","city":"Subang","latitude":"7.23S","longitude":"107.84E"}
{"date":"2011-06-01","average_temperature":"20.279","city":"Suihua","latitude":"47.42N","longitude":"126.71E"}
{"date":"2012-03-01","average_temperature":"27.258000000000003","city":"Sullana","latitude":"5.63S","longitude":"80.72W"}
{"date":"2011-03-01","average_temperature":"22.505","city":"Sumaré","latitude":"23.31S","longitude":"48.06W"}
{"date":"2011-03-01","average_temperature":"12.622","city":"Sunrise Manor","latitude":"36.17N","longitude":"115.36W"}
{"date":"2011-09-01","average_temperature":"27.583","city":"Surat Thani","latitude":"8.84N","longitude":"99.73E"}
{"date":"2012-05-01","average_temperature":"18.069000000000003","city":"Suzuka","latitude":"34.56N","longitude":"136.22E"}
{"date":"2011-03-01","average_temperature":"12.219000000000001","city":"Syracuse","latitude":"37.78N","longitude":"16.27E"}
{"date":"2011-11-01","average_temperature":"15.991","city":"Syracuse","latitude":"37.78N","longitude":"16.27E"}
{"date":"2010-11-01","average_temperature":"21.508000000000003","city":"Taboão Da Serra","latitude":"23.31S","longitude":"46.31W"}
{"date":"2010-09-01","average_temperature":"24.993000000000002","city":"Tabora","latitude":"5.63S","longitude":"32.29E"}
{"date":"2011-02-01","average_temperature":"22.377","city":"Tacna","latitude":"18.48S","longitude":"70.99W"}
{"date":"2013-06-01","average_temperature":"26.615","city":"Tagum","latitude":"7.23N","longitude":"125.68E"}
{"date":"2011-09-01","average_temperature":"26.997","city":"Taipei","latitude":"24.92N","longitude":"122.36E"}
{"date":"2013-06-01","average_temperature":"21.139000000000006","city":"Taiyuan","latitude":"37.78N","longitude":"111.86E"}
{"date":"2010-12-01","average_temperature":"27.405","city":"Takoradi","latitude":"5.63N","longitude":"1.61W"}
{"date":"2010-12-01","average_temperature":"16.346999999999998","city":"Tali","latitude":"24.92N","longitude":"120.59E"}
{"date":"2011-10-01","average_temperature":"24.108","city":"Talkha","latitude":"31.35N","longitude":"32.04E"}
{"date":"2011-10-01","average_temperature":"7.285","city":"Tallinn","latitude":"58.66N","longitude":"24.62E"}
{"date":"2010-06-01","average_temperature":"26.97","city":"Taman","latitude":"7.23S","longitude":"109.46E"}
{"date":"2011-10-01","average_temperature":"27.331999999999997","city":"Taman","latitude":"7.23S","longitude":"109.46E"}
{"date":"2011-12-01","average_temperature":"19.028","city":"Tampa","latitude":"28.13N","longitude":"82.73W"}
{"date":"2010-12-01","average_temperature":"26.113000000000003","city":"Tanete","latitude":"5.63S","longitude":"119.46E"}
{"date":"2012-08-01","average_temperature":"28.055","city":"Tanjung Morawa","latitude":"4.02N","longitude":"98.84E"}
{"date":"2010-12-01","average_temperature":"16.346999999999998","city":"Taoyüan","latitude":"24.92N","longitude":"120.59E"}
{"date":"2013-01-01","average_temperature":"-7.0390000000000015","city":"Tartu","latitude":"58.66N","longitude":"27.69E"}
{"date":"2012-05-01","average_temperature":"15.788","city":"Tbilisi","latitude":"40.99N","longitude":"44.73E"}
{"date":"2011-11-01","average_temperature":"26.826999999999998","city":"Tebingtinggi","latitude":"4.02N","longitude":"98.84E"}
{"date":"2012-09-01","average_temperature":"27.433000000000003","city":"Teluknaga","latitude":"5.63S","longitude":"106.55E"}
{"date":"2013-02-01","average_temperature":"11.200999999999999","city":"Tempe","latitude":"32.95N","longitude":"112.02W"}
{"date":"2011-08-01","average_temperature":"26.003","city":"Tengzhou","latitude":"34.56N","longitude":"116.76E"}
{"date":"2012-09-01","average_temperature":"21.755","city":"Tengzhou","latitude":"34.56N","longitude":"116.76E"}
{"date":"2013-01-01","average_temperature":"24.336","city":"Teresópolis","latitude":"21.70S","longitude":"42.40W"}
{"date":"2013-09-01","city":"Thana","latitude":"18.48N","longitude":"72.68E"}
{"date":"2010-12-01","average_temperature":"-1.778","city":"Tianjin","latitude":"39.38N","longitude":"116.53E"}
{"date":"2011-02-01","average_temperature":"6.4940000000000015","city":"Tianmen","latitude":"31.35N","longitude":"113.09E"}
{"date":"2013-08-01","average_temperature":"26.464000000000002","city":"Tirana","latitude":"40.99N","longitude":"19.17E"}
{"date":"2010-08-01","average_temperature":"30.081","city":"Tirupati","latitude":"13.66N","longitude":"80.09E"}
{"date":"2010-08-01","average_temperature":"26.193","city":"Tiruppur","latitude":"10.45N","longitude":"77.73E"}
{"date":"2013-05-01","average_temperature":"29.575","city":"Tiruppur","latitude":"10.45N","longitude":"77.73E"}
{"date":"2013-06-01","average_temperature":"30.618000000000002","city":"Titagarh","latitude":"23.31N","longitude":"88.25E"}
{"date":"2011-04-01","average_temperature":"10.017","city":"Toledo","latitude":"40.99N","longitude":"83.08W"}
{"date":"2012-09-01","average_temperature":"11.592","city":"Tomsk","latitude":"57.05N","longitude":"84.10E"}
{"date":"2012-02-01","average_temperature":"4.3420000000000005","city":"Tondabayashi","latitude":"34.56N","longitude":"136.22E"}
{"date":"2010-09-01","average_temperature":"27.906","city":"Tonk","latitude":"26.52N","longitude":"75.22E"}
{"date":"2010-02-01","average_temperature":"10.353","city":"Torrance","latitude":"34.56N","longitude":"118.70W"}
{"date":"2013-03-01","average_temperature":"-0.851","city":"Torun","latitude":"52.24N","longitude":"18.39E"}
{"date":"2010-05-01","average_temperature":"17.572999999999997","city":"Tottori","latitude":"34.56N","longitude":"134.27E"}
{"date":"2013-01-01","average_temperature":"3.553","city":"Toulouse","latitude":"44.20N","longitude":"2.24E"}
{"date":"2012-12-01","average_temperature":"5.8660000000000005","city":"Tours","latitude":"47.42N","longitude":"1.18E"}
{"date":"2010-05-01","average_temperature":"24.293000000000003","city":"Townsville","latitude":"18.48S","longitude":"147.04E"}
{"date":"2010-07-01","average_temperature":"20.837","city":"Trier","latitude":"49.03N","longitude":"7.35E"}
{"date":"2013-04-01","average_temperature":"12.489999999999998","city":"Trieste","latitude":"45.81N","longitude":"12.69E"}
{"date":"2012-09-01","average_temperature":"27.248","city":"Tripoli","latitude":"32.95N","longitude":"12.45E"}
{"date":"2012-11-01","average_temperature":"22.443","city":"Tumbes","latitude":"4.02S","longitude":"81.16W"}
{"date":"2012-03-01","average_temperature":"28.349","city":"Tumkur","latitude":"13.66N","longitude":"76.79E"}
{"date":"2011-01-01","average_temperature":"22.766","city":"Tuxtla Gutiérrez","latitude":"16.87N","longitude":"93.77W"}
{"date":"2010-09-01","average_temperature":"16.687","city":"Uitenhage","latitude":"34.56S","longitude":"25.30E"}
{"date":"2011-04-01","average_temperature":"2.217","city":"Ulaanbaatar","latitude":"47.42N","longitude":"107.76E"}
{"date":"2011-11-01","average_temperature":"-14.061000000000002","city":"Ulaanbaatar","latitude":"47.42N","longitude":"107.76E"}
{"date":"2012-06-01","average_temperature":"31.959","city":"Ulubaria","latitude":"23.31N","longitude":"88.25E"}
{"date":"2011-04-01","average_temperature":"26.254","city":"Ungaran","latitude":"7.23S","longitude":"111.08E"}
{"date":"2013-05-01","average_temperature":"29.552","city":"Urdaneta","latitude":"15.27N","longitude":"120.83E"}
{"date":"2010-01-01","average_temperature":"26.143","city":"Várzea Grande","latitude":"15.27S","longitude":"55.83W"}
{"date":"2011-09-01","average_temperature":"27.354000000000006","city":"Vadodara","latitude":"21.70N","longitude":"73.56E"}
{"date":"2011-12-01","average_temperature":"21.673","city":"Vadodara","latitude":"21.70N","longitude":"73.56E"}
{"date":"2010-01-01","average_temperature":"19.507","city":"Vanderbijlpark","latitude":"26.52S","longitude":"28.66E"}
{"date":"2011-03-01","average_temperature":"7.166","city":"Varamin","latitude":"36.17N","longitude":"51.71E"}
{"date":"2013-05-01","average_temperature":"34.333","city":"Varanasi","latitude":"24.92N","longitude":"83.35E"}
{"date":"2013-08-01","average_temperature":"26.495","city":"Vejalpur","latitude":"23.31N","longitude":"74.27E"}
{"date":"2010-09-01","average_temperature":"15.165999999999999","city":"Verona","latitude":"45.81N","longitude":"10.38E"}
{"date":"2010-08-01","average_temperature":"15.652999999999999","city":"Victoria","latitude":"49.03N","longitude":"122.45W"}
{"date":"2012-03-01","average_temperature":"12.798","city":"Vigo","latitude":"42.59N","longitude":"8.73W"}
{"date":"2010-06-01","average_temperature":"21.572","city":"Villa Canales","latitude":"15.27N","longitude":"90.83W"}
{"date":"2010-07-01","average_temperature":"21.064","city":"Villa Canales","latitude":"15.27N","longitude":"90.83W"}
{"date":"2010-09-01","average_temperature":"18.889000000000006","city":"Virginia","latitude":"28.13S","longitude":"26.36E"}
{"date":"2013-02-01","average_temperature":"27.749000000000002","city":"Vitória De Santo Antão","latitude":"8.84S","longitude":"34.86W"}
{"date":"2013-05-01","average_temperature":"18.245","city":"Voronezh","latitude":"52.24N","longitude":"39.42E"}
{"date":"2011-03-01","average_temperature":"2.8080000000000003","city":"Warsaw","latitude":"52.24N","longitude":"21.02E"}
{"date":"2013-09-01","city":"Warsaw","latitude":"52.24N","longitude":"21.02E"}
{"date":"2010-06-01","average_temperature":"20.724","city":"West Covina","latitude":"34.56N","longitude":"118.70W"}
{"date":"2011-03-01","average_temperature":"21.441","city":"Westonaria","latitude":"26.52S","longitude":"26.87E"}
{"date":"2010-11-01","average_temperature":"-3.622","city":"Winnipeg","latitude":"50.63N","longitude":"97.61W"}
{"date":"2011-05-01","average_temperature":"14.154000000000002","city":"Wolfsburg","latitude":"52.24N","longitude":"10.51E"}
{"date":"2012-02-01","average_temperature":"4.16","city":"Wolverhampton","latitude":"52.24N","longitude":"2.63W"}
{"date":"2011-06-01","average_temperature":"22.96","city":"Wufeng","latitude":"28.13N","longitude":"104.55E"}
{"date":"2010-03-01","average_temperature":"6.9689999999999985","city":"Xian","latitude":"34.56N","longitude":"108.97E"}
{"date":"2010-07-01","average_temperature":"25.721999999999998","city":"Xian","latitude":"34.56N","longitude":"108.97E"}
{"date":"2012-09-01","average_temperature":"26.759","city":"Xiaolan","latitude":"23.31N","longitude":"112.72E"}
{"date":"2011-05-01","average_temperature":"20.339000000000002","city":"Xingyi","latitude":"24.92N","longitude":"104.63E"}
{"date":"2010-10-01","average_temperature":"11.249","city":"Xinxiang","latitude":"36.17N","longitude":"113.37E"}
{"date":"2012-04-01","average_temperature":"15.890999999999998","city":"Yaan","latitude":"29.74N","longitude":"103.38E"}
{"date":"2013-06-01","average_temperature":"20.927","city":"Yachiyo","latitude":"36.17N","longitude":"139.23E"}
{"date":"2012-03-01","average_temperature":"10.079","city":"Yaizu","latitude":"34.56N","longitude":"138.16E"}
{"date":"2012-04-01","average_temperature":"27.185","city":"Yamoussoukro","latitude":"7.23N","longitude":"5.68W"}
{"date":"2012-11-01","average_temperature":"26.357","city":"Yamoussoukro","latitude":"7.23N","longitude":"5.68W"}
{"date":"2010-12-01","average_temperature":"16.346999999999998","city":"Yangmei","latitude":"24.92N","longitude":"120.59E"}
{"date":"2011-12-01","average_temperature":"1.371","city":"Yantai","latitude":"37.78N","longitude":"122.03E"}
{"date":"2010-03-01","average_temperature":"26.676","city":"Yaoundé","latitude":"4.02N","longitude":"12.05E"}
{"date":"2013-08-01","average_temperature":"28.625999999999998","city":"Yatsushiro","latitude":"32.95N","longitude":"131.17E"}
{"date":"2010-05-01","average_temperature":"28.728","city":"Yelahanka","latitude":"13.66N","longitude":"76.79E"}
{"date":"2010-04-01","average_temperature":"14.937","city":"Yingcheng","latitude":"31.35N","longitude":"113.09E"}
{"date":"2011-09-01","average_temperature":"21.873","city":"Yingzhong","latitude":"31.35N","longitude":"113.09E"}
{"date":"2010-02-01","average_temperature":"6.8420000000000005","city":"Yokkaichi","latitude":"34.56N","longitude":"136.22E"}
{"date":"2012-11-01","average_temperature":"5.242000000000001","city":"Yuncheng","latitude":"34.56N","longitude":"110.92E"}
{"date":"2012-03-01","average_temperature":"19.328","city":"Yungho","latitude":"24.92N","longitude":"122.36E"}
{"date":"2013-04-01","average_temperature":"9.016","city":"Zabrze","latitude":"50.63N","longitude":"19.01E"}
{"date":"2011-07-01","average_temperature":"28.056","city":"Zhangzhou","latitude":"24.92N","longitude":"117.04E"}
{"date":"2013-05-01","average_temperature":"17.605999999999998","city":"Zhaodong","latitude":"45.81N","longitude":"125.77E"}
{"date":"2010-06-01","average_temperature":"17.247","city":"Zhaotong","latitude":"26.52N","longitude":"103.88E"}
{"date":"2012-04-01","average_temperature":"16.598","city":"Zhicheng","latitude":"29.74N","longitude":"110.77E"}
{"date":"2010-06-01","average_temperature":"23.131999999999998","city":"Zhucheng","latitude":"36.17N","longitude":"119.34E"}
{"date":"2012-03-01","average_temperature":"18.727999999999998","city":"Zhuhai","latitude":"21.70N","longitude":"113.37E"}
{"date":"2012-09-01","average_temperature":"27.248","city":"Zuwarah","latitude":"32.95N","longitude":"12.45E"}
