{"date":"2010-12-01","average_temperature":"-4.595","city":"Århus","latitude":"57.05N","longitude":"10.33E"}
{"date":"2010-12-01","average_temperature":"21.3","city":"Abu Dhabi","latitude":"24.92N","longitude":"54.98E"}
{"date":"2012-08-01","average_temperature":"28.865","city":"Adana","latitude":"36.17N","longitude":"35.80E"}
{"date":"2010-03-01","average_temperature":"30.715","city":"Adilabad","latitude":"20.09N","longitude":"78.48E"}
{"date":"2011-05-01","average_temperature":"26.914","city":"Adiwerna","latitude":"7.23S","longitude":"109.46E"}
{"date":"2011-10-01","average_temperature":"18.715999999999998","city":"Aguascalientes","latitude":"21.70N","longitude":"102.98W"}
{"date":"2011-09-01","average_temperature":"25.092","city":"Ahmadnagar","latitude":"18.48N","longitude":"74.37E"}
{"date":"2011-10-01","average_temperature":"25.4","city":"Ahmadnagar","latitude":"18.48N","longitude":"74.37E"}
{"date":"2010-04-01","average_temperature":"26.774","city":"Aizawl","latitude":"23.31N","longitude":"93.50E"}
{"date":"2011-01-01","average_temperature":"-4.976","city":"Akron","latitude":"40.99N","longitude":"80.95W"}
{"date":"2012-03-01","average_temperature":"29.545","city":"Akure","latitude":"7.23N","longitude":"5.68E"}
{"date":"2010-12-01","average_temperature":"9.496","city":"Aleppo","latitude":"36.17N","longitude":"37.79E"}
{"date":"2011-06-01","average_temperature":"31.699","city":"Allahabad","latitude":"24.92N","longitude":"81.58E"}
{"date":"2011-12-01","average_temperature":"2.987","city":"Allentown","latitude":"40.99N","longitude":"74.56W"}
{"date":"2012-12-01","average_temperature":"27.135","city":"Amaigbo","latitude":"5.63N","longitude":"8.07E"}
{"date":"2012-08-01","average_temperature":"27.307","city":"Amarillo","latitude":"34.56N","longitude":"101.19W"}
{"date":"2010-07-01","average_temperature":"19.775","city":"Amersfoort","latitude":"52.24N","longitude":"5.26E"}
{"date":"2011-03-01","average_temperature":"5.917000000000001","city":"Amersfoort","latitude":"52.24N","longitude":"5.26E"}
{"date":"2010-04-01","average_temperature":"32.438","city":"Amroha","latitude":"28.13N","longitude":"79.09E"}
{"date":"2010-09-01","average_temperature":"28.36","city":"Amroha","latitude":"28.13N","longitude":"79.09E"}
{"date":"2010-05-01","average_temperature":"28.048000000000002","city":"Ananindeua","latitude":"0.80S","longitude":"49.02W"}
{"date":"2013-09-01","city":"Anantapur","latitude":"15.27N","longitude":"77.50E"}
{"date":"2011-07-01","average_temperature":"15.187999999999999","city":"Angarsk","latitude":"52.24N","longitude":"105.11E"}
{"date":"2010-10-01","average_temperature":"12.145","city":"Angers","latitude":"47.42N","longitude":"1.18W"}
{"date":"2012-06-01","average_temperature":"21.989","city":"Angra Dos Reis","latitude":"23.31S","longitude":"44.56W"}
{"date":"2012-01-01","average_temperature":"-4.42","city":"Angren","latitude":"40.99N","longitude":"70.30E"}
{"date":"2011-05-01","average_temperature":"13.696","city":"Ankara","latitude":"39.38N","longitude":"33.29E"}
{"date":"2013-03-01","average_temperature":"0.29200000000000004","city":"Ann Arbor","latitude":"42.59N","longitude":"82.91W"}
{"date":"2012-01-01","average_temperature":"-2.392","city":"Anqiu","latitude":"36.17N","longitude":"119.34E"}
{"date":"2013-09-01","city":"Anqiu","latitude":"36.17N","longitude":"119.34E"}
{"date":"2013-01-01","average_temperature":"-12.224","city":"Anshan","latitude":"40.99N","longitude":"123.55E"}
{"date":"2013-03-01","average_temperature":"8.203","city":"Antalya","latitude":"37.78N","longitude":"30.51E"}
{"date":"2011-05-01","average_temperature":"19.61","city":"Antananarivo","latitude":"18.48S","longitude":"47.32E"}
{"date":"2013-02-01","average_temperature":"-0.8520000000000001","city":"Anyang","latitude":"36.17N","longitude":"113.37E"}
{"date":"2010-04-01","average_temperature":"9.164","city":"Apeldoorn","latitude":"52.24N","longitude":"5.26E"}
{"date":"2013-08-01","average_temperature":"20.09","city":"Arequipa","latitude":"16.87S","longitude":"72.00W"}
{"date":"2012-05-01","average_temperature":"7.7810000000000015","city":"Arkhangelsk","latitude":"65.09N","longitude":"40.21E"}
{"date":"2012-07-01","average_temperature":"15.057","city":"Arkhangelsk","latitude":"65.09N","longitude":"40.21E"}
{"date":"2013-04-01","average_temperature":"-0.591","city":"Arvada","latitude":"39.38N","longitude":"106.13W"}
{"date":"2012-11-01","average_temperature":"8.718","city":"Asaka","latitude":"36.17N","longitude":"139.23E"}
{"date":"2010-09-01","average_temperature":"23.642000000000003","city":"Asfi","latitude":"32.95N","longitude":"8.62W"}
{"date":"2011-08-01","average_temperature":"25.71","city":"Asmara","latitude":"15.27N","longitude":"39.17E"}
{"date":"2012-02-01","average_temperature":"23.895000000000003","city":"Asmara","latitude":"15.27N","longitude":"39.17E"}
{"date":"2012-07-01","average_temperature":"35.339","city":"Aswan","latitude":"23.31N","longitude":"32.33E"}
{"date":"2012-06-01","average_temperature":"35.038000000000004","city":"Azamgarh","latitude":"26.52N","longitude":"82.39E"}
{"date":"2011-05-01","average_temperature":"28.82","city":"Bac Lieu","latitude":"8.84N","longitude":"106.22E"}
{"date":"2013-01-01","average_temperature":"25.497","city":"Bacoor","latitude":"15.27N","longitude":"120.83E"}
{"date":"2011-05-01","average_temperature":"30.903000000000002","city":"Bagaha","latitude":"26.52N","longitude":"84.18E"}
{"date":"2012-04-01","average_temperature":"13.123","city":"Baglan","latitude":"36.17N","longitude":"69.61E"}
{"date":"2013-09-01","city":"Balakovo","latitude":"52.24N","longitude":"47.30E"}
{"date":"2013-07-01","average_temperature":"27.266","city":"Baliuag","latitude":"15.27N","longitude":"120.83E"}
{"date":"2011-07-01","average_temperature":"29.635","city":"Ballia","latitude":"26.52N","longitude":"84.18E"}
{"date":"2010-09-01","average_temperature":"27.201999999999998","city":"Bandar Maharani","latitude":"2.41N","longitude":"102.05E"}
{"date":"2011-09-01","average_temperature":"25.772","city":"Bandung","latitude":"7.23S","longitude":"107.84E"}
{"date":"2012-05-01","average_temperature":"28.447000000000006","city":"Bangalore","latitude":"12.05N","longitude":"77.26E"}
{"date":"2011-03-01","average_temperature":"27.394","city":"Bangaon","latitude":"23.31N","longitude":"88.25E"}
{"date":"2011-08-01","average_temperature":"28.976","city":"Barddhaman","latitude":"23.31N","longitude":"88.25E"}
{"date":"2012-02-01","average_temperature":"22.408","city":"Barddhaman","latitude":"23.31N","longitude":"88.25E"}
{"date":"2010-02-01","average_temperature":"19.005","city":"Bareli","latitude":"28.13N","longitude":"79.09E"}
{"date":"2010-10-01","average_temperature":"16.066","city":"Bari","latitude":"40.99N","longitude":"17.04E"}
{"date":"2010-02-01","average_temperature":"24.47","city":"Baripada","latitude":"21.70N","longitude":"87.40E"}
{"date":"2012-03-01","average_temperature":"27.298","city":"Barisal","latitude":"23.31N","longitude":"90.00E"}
{"date":"2012-04-01","average_temperature":"26.82","city":"Barreiras","latitude":"12.05S","longitude":"44.38W"}
{"date":"2011-04-01","average_temperature":"18.326","city":"Bat Yam","latitude":"31.35N","longitude":"33.93E"}
{"date":"2011-11-01","average_temperature":"-0.09499999999999977","city":"Bataysk","latitude":"47.42N","longitude":"39.08E"}
{"date":"2012-04-01","average_temperature":"14.111999999999998","city":"Bataysk","latitude":"47.42N","longitude":"39.08E"}
{"date":"2011-10-01","average_temperature":"16.660999999999998","city":"Batman","latitude":"37.78N","longitude":"40.68E"}
{"date":"2013-04-01","average_temperature":"15.175999999999998","city":"Batman","latitude":"37.78N","longitude":"40.68E"}
{"date":"2012-08-01","average_temperature":"27.049","city":"Bekasi","latitude":"5.63S","longitude":"106.55E"}
{"date":"2011-08-01","average_temperature":"19.767","city":"Belgorod","latitude":"50.63N","longitude":"36.76E"}
{"date":"2010-07-01","average_temperature":"19.789","city":"Belo Horizonte","latitude":"20.09S","longitude":"44.36W"}
{"date":"2011-09-01","average_temperature":"25.547","city":"Bene Beraq","latitude":"32.95N","longitude":"35.43E"}
{"date":"2012-02-01","average_temperature":"10.434","city":"Bene Beraq","latitude":"32.95N","longitude":"35.43E"}
{"date":"2010-09-01","average_temperature":"25.28","city":"Benghazi","latitude":"32.95N","longitude":"20.11E"}
{"date":"2010-01-01","average_temperature":"25.343000000000004","city":"Benguela","latitude":"12.05S","longitude":"13.15E"}
{"date":"2012-06-01","average_temperature":"9.224","city":"Benoni","latitude":"26.52S","longitude":"28.66E"}
{"date":"2013-04-01","average_temperature":"15.075","city":"Benoni","latitude":"26.52S","longitude":"28.66E"}
{"date":"2010-10-01","average_temperature":"2.353","city":"Bergen","latitude":"60.27N","longitude":"6.49E"}
{"date":"2013-06-01","average_temperature":"19.759","city":"Berkeley","latitude":"37.78N","longitude":"122.03W"}
{"date":"2013-01-01","average_temperature":"25.755000000000006","city":"Bhadravati","latitude":"13.66N","longitude":"75.14E"}
{"date":"2010-03-01","average_temperature":"26.506","city":"Bhairab Bazar","latitude":"24.92N","longitude":"90.44E"}
{"date":"2011-07-01","average_temperature":"30.166999999999998","city":"Bharatpur","latitude":"26.52N","longitude":"77.01E"}
{"date":"2012-05-01","average_temperature":"32.232","city":"Bhatpara","latitude":"23.31N","longitude":"88.25E"}
{"date":"2011-10-01","average_temperature":"28.76","city":"Bhavnagar","latitude":"21.70N","longitude":"71.83E"}
{"date":"2011-12-01","average_temperature":"20.938000000000002","city":"Bhusawal","latitude":"21.70N","longitude":"75.29E"}
{"date":"2011-01-01","average_temperature":"25.985","city":"Biên Hòa","latitude":"10.45N","longitude":"107.18E"}
{"date":"2013-09-01","city":"Biên Hòa","latitude":"10.45N","longitude":"107.18E"}
{"date":"2011-05-01","average_temperature":"32.623000000000005","city":"Bid","latitude":"18.48N","longitude":"76.06E"}
{"date":"2013-09-01","city":"Bida","latitude":"8.84N","longitude":"5.68E"}
{"date":"2012-06-01","average_temperature":"31.933000000000003","city":"Bidar","latitude":"18.48N","longitude":"77.75E"}
{"date":"2012-10-01","average_temperature":"27.551","city":"Bissau","latitude":"12.05N","longitude":"14.79W"}
{"date":"2010-12-01","average_temperature":"26.213","city":"Bitung","latitude":"0.80N","longitude":"124.55E"}
{"date":"2011-12-01","average_temperature":"25.978","city":"Blantyre","latitude":"15.27S","longitude":"35.83E"}
{"date":"2010-11-01","average_temperature":"28.188000000000002","city":"Boa Vista","latitude":"2.41N","longitude":"60.27W"}
{"date":"2012-10-01","average_temperature":"27.06","city":"Bohicon","latitude":"7.23N","longitude":"2.43E"}
{"date":"2013-08-01","average_temperature":"28.515","city":"Bokaro","latitude":"23.31N","longitude":"86.50E"}
{"date":"2013-05-01","average_temperature":"14.957","city":"Bologna","latitude":"44.20N","longitude":"11.18E"}
{"date":"2011-08-01","average_temperature":"21.335","city":"Bordeaux","latitude":"44.20N","longitude":"0.00W"}
{"date":"2011-08-01","average_temperature":"20.769000000000002","city":"Boston","latitude":"42.59N","longitude":"72.00W"}
{"date":"2012-08-01","average_temperature":"19.807000000000002","city":"Botucatu","latitude":"23.31S","longitude":"48.06W"}
{"date":"2013-09-01","city":"Botucatu","latitude":"23.31S","longitude":"48.06W"}
{"date":"2013-09-01","city":"Boulogne Billancourt","latitude":"49.03N","longitude":"2.45E"}
{"date":"2013-07-01","average_temperature":"17.749000000000002","city":"Bradford","latitude":"53.84N","longitude":"1.36W"}
{"date":"2012-01-01","average_temperature":"-2.853","city":"Brest","latitude":"52.24N","longitude":"23.65E"}
{"date":"2011-08-01","average_temperature":"22.476999999999997","city":"Bridgeport","latitude":"40.99N","longitude":"72.43W"}
{"date":"2012-12-01","average_temperature":"4.785","city":"Bristol","latitude":"52.24N","longitude":"2.63W"}
{"date":"2010-09-01","average_temperature":"14.623","city":"Brugge","latitude":"50.63N","longitude":"3.80E"}
{"date":"2012-04-01","average_temperature":"8.462","city":"Bryansk","latitude":"53.84N","longitude":"34.09E"}
{"date":"2012-05-01","average_temperature":"15.422","city":"Bryansk","latitude":"53.84N","longitude":"34.09E"}
{"date":"2010-03-01","average_temperature":"27.509","city":"Bucaramanga","latitude":"7.23N","longitude":"73.78W"}
{"date":"2012-11-01","average_temperature":"25.724","city":"Bucaramanga","latitude":"7.23N","longitude":"73.78W"}
{"date":"2010-11-01","average_temperature":"9.797","city":"Bukan","latitude":"36.17N","longitude":"45.75E"}
{"date":"2011-03-01","average_temperature":"7.105","city":"Bukan","latitude":"36.17N","longitude":"45.75E"}
{"date":"2012-09-01","average_temperature":"21.695","city":"Bukavu","latitude":"2.41S","longitude":"28.13E"}
{"date":"2013-07-01","average_temperature":"28.695","city":"Bukit Mertajam","latitude":"5.63N","longitude":"100.09E"}
{"date":"2012-01-01","average_temperature":"13.439","city":"Buraydah","latitude":"26.52N","longitude":"44.78E"}
{"date":"2011-07-01","average_temperature":"23.569000000000003","city":"Bursa","latitude":"39.38N","longitude":"29.13E"}
{"date":"2010-10-01","average_temperature":"11.357999999999999","city":"Caen","latitude":"49.03N","longitude":"0.00W"}
{"date":"2011-07-01","average_temperature":"27.976999999999997","city":"Cagayan De Oro","latitude":"8.84N","longitude":"124.05E"}
{"date":"2010-04-01","average_temperature":"27.1","city":"Cagua","latitude":"10.45N","longitude":"67.91W"}
{"date":"2012-06-01","average_temperature":"17.923000000000005","city":"Cajamarca","latitude":"7.23S","longitude":"78.65W"}
{"date":"2011-01-01","average_temperature":"28.807","city":"Calabozo","latitude":"8.84N","longitude":"67.30W"}
{"date":"2011-03-01","average_temperature":"29.636","city":"Calabozo","latitude":"8.84N","longitude":"67.30W"}
{"date":"2012-08-01","average_temperature":"27.714","city":"Calamba","latitude":"13.66N","longitude":"121.38E"}
{"date":"2012-11-01","average_temperature":"23.487","city":"Calcutta","latitude":"23.31N","longitude":"88.25E"}
{"date":"2012-03-01","average_temperature":"24.868000000000002","city":"Camagüey","latitude":"21.70N","longitude":"78.75W"}
{"date":"2010-02-01","average_temperature":"28.090999999999998","city":"Camaragibe","latitude":"7.23S","longitude":"34.86W"}
{"date":"2012-06-01","average_temperature":"25.531999999999996","city":"Camaragibe","latitude":"7.23S","longitude":"34.86W"}
{"date":"2012-08-01","average_temperature":"28.334000000000003","city":"Campeche","latitude":"20.09N","longitude":"90.43W"}
{"date":"2011-08-01","average_temperature":"18.687","city":"Campinas","latitude":"23.31S","longitude":"46.31W"}
{"date":"2013-07-01","average_temperature":"28.005","city":"Can Tho","latitude":"10.45N","longitude":"105.55E"}
{"date":"2013-02-01","average_temperature":"24.399","city":"Cap Haïtien","latitude":"20.09N","longitude":"71.66W"}
{"date":"2010-02-01","average_temperature":"29.078000000000003","city":"Cape Coast","latitude":"5.63N","longitude":"1.61W"}
{"date":"2011-04-01","average_temperature":"25.631999999999998","city":"Caracas","latitude":"10.45N","longitude":"66.27W"}
{"date":"2012-11-01","average_temperature":"26.382","city":"Caracas","latitude":"10.45N","longitude":"66.27W"}
{"date":"2011-07-01","average_temperature":"28.428","city":"Carrefour","latitude":"18.48N","longitude":"72.68W"}
{"date":"2013-03-01","average_temperature":"15.239","city":"Cartagena","latitude":"37.78N","longitude":"0.00W"}
{"date":"2013-02-01","average_temperature":"22.315","city":"Cartago","latitude":"4.02N","longitude":"76.34W"}
{"date":"2010-04-01","average_temperature":"25.197","city":"Caruaru","latitude":"8.84S","longitude":"36.49W"}
{"date":"2011-09-01","average_temperature":"27.144000000000002","city":"Castanhal","latitude":"0.80S","longitude":"47.41W"}
{"date":"2013-03-01","average_temperature":"27.701999999999998","city":"Chandannagar","latitude":"23.31N","longitude":"88.25E"}
{"date":"2013-07-01","average_temperature":"29.805999999999997","city":"Chandausi","latitude":"28.13N","longitude":"79.09E"}
{"date":"2012-07-01","average_temperature":"29.351","city":"Changde","latitude":"28.13N","longitude":"111.82E"}
{"date":"2012-08-01","average_temperature":"28.566999999999997","city":"Changzhou","latitude":"31.35N","longitude":"120.63E"}
{"date":"2012-03-01","average_temperature":"29.524","city":"Chavakachcheri","latitude":"8.84N","longitude":"80.27E"}
{"date":"2012-09-01","average_temperature":"16.95","city":"Cherkessk","latitude":"44.20N","longitude":"42.48E"}
{"date":"2013-06-01","average_temperature":"24.325","city":"Chesapeake","latitude":"36.17N","longitude":"75.58W"}
{"date":"2012-04-01","average_temperature":"30.784000000000002","city":"Chhatarpur","latitude":"24.92N","longitude":"79.80E"}
{"date":"2011-02-01","average_temperature":"0.276","city":"Chicago","latitude":"42.59N","longitude":"87.27W"}
{"date":"2010-01-01","average_temperature":"2.608","city":"Chigasaki","latitude":"36.17N","longitude":"139.23E"}
{"date":"2011-03-01","average_temperature":"16.922","city":"Chimalhuacán","latitude":"20.09N","longitude":"98.96W"}
{"date":"2010-11-01","average_temperature":"26.86","city":"Chinandega","latitude":"12.05N","longitude":"87.12W"}
{"date":"2010-04-01","average_temperature":"29.579","city":"Chitradurga","latitude":"13.66N","longitude":"76.79E"}
{"date":"2010-10-01","average_temperature":"27.195","city":"Chittaurgarh","latitude":"24.92N","longitude":"74.48E"}
{"date":"2011-05-01","average_temperature":"27.371","city":"Choloma","latitude":"15.27N","longitude":"87.50W"}
{"date":"2011-08-01","average_temperature":"6.922000000000001","city":"Christchurch","latitude":"44.20S","longitude":"172.17E"}
{"date":"2012-09-01","average_temperature":"27.433000000000003","city":"Cibinong","latitude":"5.63S","longitude":"106.55E"}
{"date":"2012-10-01","average_temperature":"27.316999999999997","city":"Cibinong","latitude":"5.63S","longitude":"106.55E"}
{"date":"2012-02-01","average_temperature":"24.221999999999998","city":"Ciego De Ávila","latitude":"21.70N","longitude":"78.75W"}
{"date":"2012-09-01","average_temperature":"26.09","city":"Cikampek","latitude":"7.23S","longitude":"107.84E"}
{"date":"2010-03-01","average_temperature":"27.899","city":"Ciputat","latitude":"5.63S","longitude":"106.55E"}
{"date":"2013-04-01","average_temperature":"27.642","city":"Ciputat","latitude":"5.63S","longitude":"106.55E"}
{"date":"2012-03-01","average_temperature":"25.339000000000002","city":"Cirebon","latitude":"7.23S","longitude":"107.84E"}
{"date":"2011-10-01","average_temperature":"27.035999999999998","city":"Cisarua","latitude":"5.63S","longitude":"106.55E"}
{"date":"2011-05-01","average_temperature":"27.318","city":"Ciudad Bolívar","latitude":"8.84N","longitude":"64.05W"}
{"date":"2010-11-01","average_temperature":"5.422999999999999","city":"Clermont Ferrand","latitude":"45.81N","longitude":"3.46E"}
{"date":"2011-06-01","average_temperature":"21.135","city":"Cleveland","latitude":"40.99N","longitude":"80.95W"}
{"date":"2010-06-01","average_temperature":"19.111","city":"Colatina","latitude":"20.09S","longitude":"40.95W"}
{"date":"2012-05-01","average_temperature":"14.829","city":"Colorado Springs","latitude":"39.38N","longitude":"104.05W"}
{"date":"2013-04-01","average_temperature":"5.0950000000000015","city":"Colorado Springs","latitude":"39.38N","longitude":"104.05W"}
{"date":"2011-03-01","average_temperature":"11.886","city":"Concord","latitude":"37.78N","longitude":"122.03W"}
{"date":"2011-02-01","average_temperature":"24.676","city":"Conselheiro Lafaiete","latitude":"20.09S","longitude":"44.36W"}
{"date":"2010-03-01","average_temperature":"16.965999999999998","city":"Coquimbo","latitude":"29.74S","longitude":"72.00W"}
{"date":"2011-03-01","average_temperature":"24.545","city":"Corrientes","latitude":"28.13S","longitude":"59.09W"}
{"date":"2011-01-01","average_temperature":"19.098000000000006","city":"Cuautla","latitude":"18.48N","longitude":"99.72W"}
{"date":"2011-03-01","average_temperature":"29.483","city":"Cuddapah","latitude":"15.27N","longitude":"79.17E"}
{"date":"2012-04-01","average_temperature":"26.733","city":"Cumaná","latitude":"10.45N","longitude":"64.64W"}
{"date":"2011-06-01","average_temperature":"10.305","city":"Curico","latitude":"34.56S","longitude":"72.00W"}
{"date":"2010-04-01","average_temperature":"9.074","city":"Czestochowa","latitude":"50.63N","longitude":"19.01E"}
{"date":"2010-03-01","average_temperature":"14.335999999999999","city":"Daan","latitude":"29.74N","longitude":"105.23E"}
{"date":"2012-01-01","average_temperature":"6.441","city":"Daan","latitude":"29.74N","longitude":"105.23E"}
{"date":"2011-02-01","average_temperature":"24.2","city":"Dagupan","latitude":"16.87N","longitude":"120.56E"}
{"date":"2011-08-01","average_temperature":"25.95","city":"Dagupan","latitude":"16.87N","longitude":"120.56E"}
{"date":"2010-02-01","average_temperature":"-2.122","city":"Dandong","latitude":"39.38N","longitude":"124.86E"}
{"date":"2012-07-01","average_temperature":"27.592","city":"Daxian","latitude":"31.35N","longitude":"107.43E"}
{"date":"2012-02-01","average_temperature":"4.886","city":"Denizli","latitude":"37.78N","longitude":"28.47E"}
{"date":"2012-01-01","average_temperature":"9.359","city":"Denton","latitude":"32.95N","longitude":"96.70W"}
{"date":"2012-09-01","average_temperature":"26.875999999999998","city":"Depok","latitude":"7.23S","longitude":"109.46E"}
{"date":"2010-07-01","average_temperature":"16.89","city":"Derby","latitude":"53.84N","longitude":"1.36W"}
{"date":"2011-02-01","average_temperature":"5.774","city":"Derby","latitude":"53.84N","longitude":"1.36W"}
{"date":"2012-09-01","average_temperature":"25.416","city":"Dese","latitude":"10.45N","longitude":"40.09E"}
{"date":"2012-05-01","average_temperature":"17.207","city":"Detroit","latitude":"42.59N","longitude":"82.91W"}
{"date":"2012-11-01","average_temperature":"3.8","city":"Detroit","latitude":"42.59N","longitude":"82.91W"}
{"date":"2013-04-01","average_temperature":"12.279000000000002","city":"Deyang","latitude":"31.35N","longitude":"103.66E"}
{"date":"2012-10-01","average_temperature":"25.449","city":"Dhule","latitude":"20.09N","longitude":"75.07E"}
{"date":"2010-05-01","average_temperature":"27.541999999999998","city":"Digos","latitude":"7.23N","longitude":"125.68E"}
{"date":"2010-06-01","average_temperature":"30.04","city":"Dinajpur","latitude":"24.92N","longitude":"88.67E"}
{"date":"2012-10-01","average_temperature":"26.868000000000002","city":"Dinajpur","latitude":"24.92N","longitude":"88.67E"}
{"date":"2012-08-01","average_temperature":"21.189","city":"Dingzhou","latitude":"39.38N","longitude":"114.45E"}
{"date":"2010-05-01","average_temperature":"22.815","city":"Dodoma","latitude":"5.63S","longitude":"35.52E"}
{"date":"2010-11-01","average_temperature":"23.046","city":"Dongli","latitude":"20.09N","longitude":"110.90E"}
{"date":"2010-02-01","average_temperature":"4.919","city":"Dongtai","latitude":"32.95N","longitude":"119.68E"}
{"date":"2011-08-01","average_temperature":"16.975","city":"Dordrecht","latitude":"52.24N","longitude":"5.26E"}
{"date":"2012-01-01","average_temperature":"-0.9790000000000001","city":"Drobeta Turnu Severin","latitude":"44.20N","longitude":"22.36E"}
{"date":"2013-05-01","average_temperature":"30.626","city":"Dubai","latitude":"24.92N","longitude":"54.98E"}
{"date":"2010-07-01","average_temperature":"17.072","city":"Dudley","latitude":"52.24N","longitude":"2.63W"}
{"date":"2010-03-01","average_temperature":"5.355","city":"Duisburg","latitude":"50.63N","longitude":"6.34E"}
{"date":"2010-09-01","average_temperature":"29.536","city":"Dum Dum","latitude":"23.31N","longitude":"88.25E"}
{"date":"2010-09-01","average_temperature":"27.434","city":"Duma","latitude":"32.95N","longitude":"37.34E"}
{"date":"2010-11-01","average_temperature":"23.529","city":"Duque De Caxias","latitude":"23.31S","longitude":"42.82W"}
{"date":"2012-03-01","average_temperature":"11.576","city":"East Los Angeles","latitude":"34.56N","longitude":"118.70W"}
{"date":"2010-10-01","average_temperature":"15.228","city":"Ecatepec","latitude":"20.09N","longitude":"98.96W"}
{"date":"2011-06-01","average_temperature":"16.273","city":"Ede","latitude":"52.24N","longitude":"5.26E"}
{"date":"2010-08-01","average_temperature":"23.947","city":"Ejido","latitude":"8.84N","longitude":"70.54W"}
{"date":"2010-02-01","average_temperature":"-22.218000000000004","city":"Ekibastuz","latitude":"52.24N","longitude":"76.20E"}
{"date":"2013-05-01","average_temperature":"27.17","city":"El Limón","latitude":"10.45N","longitude":"67.91W"}
{"date":"2010-11-01","average_temperature":"22.848000000000003","city":"El Mahalla El Kubra","latitude":"31.35N","longitude":"32.04E"}
{"date":"2010-11-01","average_temperature":"12.114","city":"El Monte","latitude":"34.56N","longitude":"118.70W"}
{"date":"2012-04-01","average_temperature":"14.751","city":"El Monte","latitude":"34.56N","longitude":"118.70W"}
{"date":"2011-08-01","average_temperature":"28.616999999999997","city":"Eluru","latitude":"16.87N","longitude":"80.37E"}
{"date":"2012-02-01","average_temperature":"-3.823","city":"Erfurt","latitude":"50.63N","longitude":"11.41E"}
{"date":"2012-10-01","average_temperature":"8.940000000000003","city":"Erlangen","latitude":"49.03N","longitude":"9.80E"}
{"date":"2012-01-01","average_temperature":"23.408","city":"Erode","latitude":"12.05N","longitude":"77.26E"}
{"date":"2011-01-01","average_temperature":"13.458","city":"Etawah","latitude":"26.52N","longitude":"78.81E"}
{"date":"2012-11-01","average_temperature":"20.599","city":"Faizabad","latitude":"26.52N","longitude":"82.39E"}
{"date":"2011-08-01","average_temperature":"24.305","city":"Ferrara","latitude":"44.20N","longitude":"11.18E"}
{"date":"2013-07-01","average_temperature":"19.168","city":"Florencia","latitude":"2.41N","longitude":"76.34W"}
{"date":"2012-05-01","average_temperature":"21.256999999999998","city":"Florianópolis","latitude":"28.13S","longitude":"48.18W"}
{"date":"2011-11-01","average_temperature":"1.164","city":"Focsani","latitude":"45.81N","longitude":"26.54E"}
{"date":"2010-08-01","average_temperature":"24.908","city":"Fresno","latitude":"36.17N","longitude":"119.34W"}
{"date":"2011-05-01","average_temperature":"18.337","city":"Fuji","latitude":"34.56N","longitude":"138.16E"}
{"date":"2010-11-01","average_temperature":"14.043","city":"Fujieda","latitude":"34.56N","longitude":"138.16E"}
{"date":"2010-01-01","average_temperature":"7.197","city":"Fujinomiya","latitude":"34.56N","longitude":"138.16E"}
{"date":"2012-08-01","average_temperature":"26.680999999999997","city":"Fukaya","latitude":"36.17N","longitude":"139.23E"}
{"date":"2013-08-01","average_temperature":"24.98","city":"Gómez Palacio","latitude":"24.92N","longitude":"102.86W"}
{"date":"2011-01-01","average_temperature":"14.342","city":"Gangapur","latitude":"26.52N","longitude":"77.01E"}
{"date":"2010-05-01","average_temperature":"24.023000000000003","city":"Garland","latitude":"32.95N","longitude":"96.70W"}
{"date":"2010-02-01","average_temperature":"29.885","city":"Garoua","latitude":"8.84N","longitude":"13.78E"}
{"date":"2013-01-01","average_temperature":"27.734","city":"Gboko","latitude":"7.23N","longitude":"8.92E"}
{"date":"2011-11-01","average_temperature":"27.399","city":"Gbongan","latitude":"7.23N","longitude":"4.05E"}
{"date":"2010-04-01","average_temperature":"8.145","city":"Gdynia","latitude":"53.84N","longitude":"17.73E"}
{"date":"2012-08-01","average_temperature":"24.764000000000006","city":"Gemena","latitude":"4.02N","longitude":"20.09E"}
{"date":"2010-02-01","average_temperature":"5.76","city":"Genoa","latitude":"44.20N","longitude":"8.94E"}
{"date":"2010-04-01","average_temperature":"10.088","city":"Gent","latitude":"50.63N","longitude":"3.80E"}
{"date":"2011-05-01","average_temperature":"34.298","city":"Ghaziabad","latitude":"28.13N","longitude":"77.27E"}
{"date":"2010-07-01","average_temperature":"33.683","city":"Gilbert","latitude":"32.95N","longitude":"112.02W"}
{"date":"2012-03-01","average_temperature":"26.601999999999997","city":"Girón","latitude":"7.23N","longitude":"73.78W"}
{"date":"2013-02-01","average_temperature":"5.875","city":"Giugliano In Campania","latitude":"40.99N","longitude":"14.91E"}
{"date":"2012-06-01","average_temperature":"11.52","city":"Glasgow","latitude":"55.45N","longitude":"2.83W"}
{"date":"2010-08-01","average_temperature":"20.678","city":"Goma","latitude":"2.41S","longitude":"29.73E"}
{"date":"2011-04-01","average_temperature":"7.824","city":"Gongzhuling","latitude":"44.20N","longitude":"125.22E"}
{"date":"2011-01-01","average_temperature":"14.562999999999999","city":"Gorakhpur","latitude":"26.52N","longitude":"84.18E"}
{"date":"2013-07-01","average_temperature":"20.929000000000002","city":"Gorzow Wielkopolski","latitude":"52.24N","longitude":"15.77E"}
{"date":"2010-05-01","average_temperature":"24.023000000000003","city":"Grand Prairie","latitude":"32.95N","longitude":"96.70W"}
{"date":"2012-12-01","average_temperature":"9.887","city":"Grand Prairie","latitude":"32.95N","longitude":"96.70W"}
{"date":"2011-09-01","average_temperature":"16.276999999999994","city":"Grand Rapids","latitude":"42.59N","longitude":"85.09W"}
{"date":"2010-09-01","average_temperature":"12.056","city":"Graz","latitude":"47.42N","longitude":"15.39E"}
{"date":"2012-10-01","average_temperature":"9.459","city":"Green Bay","latitude":"44.20N","longitude":"87.20W"}
{"date":"2013-07-01","average_temperature":"20.531","city":"Grenoble","latitude":"45.81N","longitude":"5.77E"}
{"date":"2012-11-01","average_temperature":"26.382","city":"Guatire","latitude":"10.45N","longitude":"66.27W"}
{"date":"2010-04-01","average_temperature":"9.037","city":"Guelph","latitude":"44.20N","longitude":"80.50W"}
{"date":"2011-03-01","average_temperature":"-2.6639999999999997","city":"Guelph","latitude":"44.20N","longitude":"80.50W"}
{"date":"2013-03-01","average_temperature":"14.365","city":"Guiyang","latitude":"26.52N","longitude":"107.46E"}
{"date":"2012-02-01","average_temperature":"19.039","city":"Guna","latitude":"24.92N","longitude":"78.03E"}
{"date":"2013-09-01","city":"Hachioji","latitude":"36.17N","longitude":"139.23E"}
{"date":"2012-01-01","average_temperature":"0.7150000000000001","city":"Hadano","latitude":"36.17N","longitude":"139.23E"}
{"date":"2013-08-01","average_temperature":"23.643","city":"Haibowan","latitude":"39.38N","longitude":"106.13E"}
{"date":"2010-01-01","average_temperature":"13.993","city":"Haicheng","latitude":"23.31N","longitude":"114.47E"}
{"date":"2010-08-01","average_temperature":"23.23","city":"Haicheng","latitude":"40.99N","longitude":"123.55E"}
{"date":"2010-12-01","average_temperature":"-8.517000000000001","city":"Haicheng","latitude":"40.99N","longitude":"123.55E"}
{"date":"2012-12-01","average_temperature":"21.194000000000006","city":"Haikou","latitude":"20.09N","longitude":"110.90E"}
{"date":"2011-12-01","average_temperature":"-25.142","city":"Hailar","latitude":"49.03N","longitude":"120.00E"}
{"date":"2012-03-01","average_temperature":"-12.674000000000001","city":"Hailar","latitude":"49.03N","longitude":"120.00E"}
{"date":"2011-08-01","average_temperature":"23.57","city":"Hakodate","latitude":"40.99N","longitude":"140.59E"}
{"date":"2013-06-01","average_temperature":"29.969","city":"Haldia","latitude":"21.70N","longitude":"87.40E"}
{"date":"2010-10-01","average_temperature":"11.377","city":"Halifax","latitude":"44.20N","longitude":"62.61W"}
{"date":"2010-07-01","average_temperature":"26.26","city":"Hamamatsu","latitude":"34.56N","longitude":"138.16E"}
{"date":"2013-08-01","average_temperature":"28.180999999999997","city":"Handa","latitude":"34.56N","longitude":"136.22E"}
{"date":"2013-03-01","average_temperature":"12.955","city":"Hanzhong","latitude":"32.95N","longitude":"106.28E"}
{"date":"2012-10-01","average_temperature":"24.041999999999998","city":"Haridwar","latitude":"29.74N","longitude":"77.54E"}
{"date":"2012-04-01","average_temperature":"2.6100000000000003","city":"Helsinki","latitude":"60.27N","longitude":"25.95E"}
{"date":"2013-09-01","average_temperature":"25.709","city":"Henderson","latitude":"36.17N","longitude":"115.36W"}
{"date":"2010-06-01","average_temperature":"28.709","city":"Henzada","latitude":"16.87N","longitude":"95.44E"}
{"date":"2011-06-01","average_temperature":"21.085","city":"Hino","latitude":"36.17N","longitude":"139.23E"}
{"date":"2011-12-01","average_temperature":"3.25","city":"Hino","latitude":"36.17N","longitude":"139.23E"}
{"date":"2010-02-01","average_temperature":"6.8420000000000005","city":"Hirakata","latitude":"34.56N","longitude":"136.22E"}
{"date":"2013-06-01","average_temperature":"28.939","city":"Ho Chi Minh City","latitude":"10.45N","longitude":"107.18E"}
{"date":"2010-09-01","average_temperature":"25.27","city":"Hofu","latitude":"34.56N","longitude":"132.32E"}
{"date":"2011-03-01","average_temperature":"15.046","city":"Hong Gai","latitude":"21.70N","longitude":"106.44E"}
{"date":"2011-06-01","average_temperature":"29.706","city":"Hoshangabad","latitude":"23.31N","longitude":"77.77E"}
{"date":"2010-08-01","average_temperature":"24.683000000000003","city":"Hospet","latitude":"15.27N","longitude":"75.83E"}
{"date":"2010-03-01","average_temperature":"15.022","city":"Houston","latitude":"29.74N","longitude":"96.00W"}
{"date":"2010-05-01","average_temperature":"13.575999999999999","city":"Hrodna","latitude":"53.84N","longitude":"23.18E"}
{"date":"2011-08-01","average_temperature":"28.711","city":"Hsichih","latitude":"24.92N","longitude":"122.36E"}
{"date":"2011-01-01","average_temperature":"14.872999999999998","city":"Hsintien","latitude":"24.92N","longitude":"122.36E"}
{"date":"2011-09-01","average_temperature":"13.783","city":"Huadian","latitude":"42.59N","longitude":"126.55E"}
{"date":"2012-07-01","average_temperature":"29.053","city":"Huaibei","latitude":"34.56N","longitude":"116.76E"}
{"date":"2012-05-01","average_temperature":"22.785","city":"Huainan","latitude":"32.95N","longitude":"117.77E"}
{"date":"2013-05-01","average_temperature":"22.101999999999997","city":"Huangcun","latitude":"39.38N","longitude":"116.53E"}
{"date":"2011-02-01","average_temperature":"14.559","city":"Huizhou","latitude":"23.31N","longitude":"114.47E"}
{"date":"2010-10-01","average_temperature":"18.032","city":"Huzhou","latitude":"31.35N","longitude":"120.63E"}
{"date":"2013-09-01","city":"Hyderabad","latitude":"16.87N","longitude":"78.70E"}
{"date":"2012-09-01","average_temperature":"30.017000000000003","city":"Hyderabad","latitude":"24.92N","longitude":"69.16E"}
{"date":"2011-09-01","average_temperature":"23.851000000000006","city":"Ichinomiya","latitude":"34.56N","longitude":"136.22E"}
{"date":"2010-08-01","average_temperature":"30.345","city":"Idlib","latitude":"36.17N","longitude":"35.80E"}
{"date":"2011-09-01","average_temperature":"25.77","city":"Ikirun","latitude":"7.23N","longitude":"4.05E"}
{"date":"2012-09-01","average_temperature":"25.14","city":"Ikirun","latitude":"7.23N","longitude":"4.05E"}
{"date":"2012-08-01","average_temperature":"24.944000000000006","city":"Ikole","latitude":"7.23N","longitude":"5.68E"}
{"date":"2011-05-01","average_temperature":"28.171","city":"Ikot Ekpene","latitude":"5.63N","longitude":"8.07E"}
{"date":"2011-03-01","average_temperature":"27.016","city":"Iloilo","latitude":"10.45N","longitude":"121.91E"}
{"date":"2012-08-01","average_temperature":"28.705","city":"Iloilo","latitude":"10.45N","longitude":"121.91E"}
{"date":"2010-04-01","average_temperature":"23.081999999999997","city":"Imphal","latitude":"24.92N","longitude":"93.99E"}
{"date":"2010-11-01","average_temperature":"18.587","city":"Iquique","latitude":"20.09S","longitude":"69.95W"}
{"date":"2011-12-01","average_temperature":"14.755","city":"Iráklion","latitude":"34.56N","longitude":"25.30E"}
{"date":"2013-01-01","average_temperature":"13.767999999999999","city":"Iráklion","latitude":"34.56N","longitude":"25.30E"}
{"date":"2012-09-01","average_temperature":"18.713","city":"Irapuato","latitude":"20.09N","longitude":"100.66W"}
{"date":"2013-03-01","average_temperature":"-10.203","city":"Irkutsk","latitude":"52.24N","longitude":"105.11E"}
{"date":"2010-01-01","average_temperature":"14.445","city":"Irvine","latitude":"32.95N","longitude":"117.77W"}
{"date":"2011-04-01","average_temperature":"11.175","city":"Isesaki","latitude":"36.17N","longitude":"139.23E"}
{"date":"2010-12-01","average_temperature":"26.269000000000002","city":"Itabuna","latitude":"15.27S","longitude":"39.17W"}
{"date":"2012-09-01","average_temperature":"23.831","city":"Itabuna","latitude":"15.27S","longitude":"39.17W"}
{"date":"2013-06-01","average_temperature":"25.65","city":"Jaboatão","latitude":"8.84S","longitude":"34.86W"}
{"date":"2011-07-01","average_temperature":"28.941000000000006","city":"Jaffna","latitude":"8.84N","longitude":"80.27E"}
{"date":"2013-02-01","average_temperature":"27.799","city":"Jaffna","latitude":"8.84N","longitude":"80.27E"}
{"date":"2011-05-01","average_temperature":"30.066","city":"Jahrom","latitude":"28.13N","longitude":"53.64E"}
{"date":"2011-09-01","average_temperature":"27.209","city":"Jakarta","latitude":"5.63S","longitude":"106.55E"}
{"date":"2010-09-01","average_temperature":"28.349","city":"Jamshedpur","latitude":"23.31N","longitude":"86.50E"}
{"date":"2010-10-01","average_temperature":"26.723000000000003","city":"Jaunpur","latitude":"26.52N","longitude":"82.39E"}
{"date":"2010-11-01","average_temperature":"5.876","city":"Jersey City","latitude":"40.99N","longitude":"74.56W"}
{"date":"2012-12-01","average_temperature":"16.384","city":"Jhunjhunun","latitude":"28.13N","longitude":"75.45E"}
{"date":"2010-10-01","average_temperature":"5.164","city":"Jiamusi","latitude":"47.42N","longitude":"131.45E"}
{"date":"2010-09-01","average_temperature":"27.418000000000003","city":"Jiazi","latitude":"23.31N","longitude":"116.21E"}
{"date":"2011-06-01","average_temperature":"31.502","city":"Jiddah","latitude":"21.70N","longitude":"38.94E"}
{"date":"2010-09-01","average_temperature":"25.874000000000002","city":"Jimeta","latitude":"8.84N","longitude":"12.16E"}
{"date":"2010-07-01","average_temperature":"27.965","city":"Jinhua","latitude":"29.74N","longitude":"120.00E"}
{"date":"2011-03-01","average_temperature":"9.511000000000001","city":"Jinhua","latitude":"29.74N","longitude":"120.00E"}
{"date":"2013-07-01","average_temperature":"20.099","city":"Jining","latitude":"40.99N","longitude":"112.90E"}
{"date":"2012-05-01","average_temperature":"19.029","city":"Jinzhou","latitude":"40.99N","longitude":"121.42E"}
{"date":"2012-02-01","average_temperature":"13.546","city":"Jiroft","latitude":"28.13N","longitude":"57.27E"}
{"date":"2013-01-01","average_temperature":"4.84","city":"Jishou","latitude":"28.13N","longitude":"110.00E"}
{"date":"2010-06-01","average_temperature":"22.376","city":"Jishu","latitude":"44.20N","longitude":"127.45E"}
{"date":"2012-05-01","average_temperature":"17.554000000000002","city":"Jiupu","latitude":"40.99N","longitude":"123.55E"}
{"date":"2010-02-01","average_temperature":"27.423","city":"Jos","latitude":"10.45N","longitude":"9.00E"}
{"date":"2012-05-01","average_temperature":"18.853","city":"Kadoma","latitude":"18.48S","longitude":"30.42E"}
{"date":"2011-10-01","average_temperature":"16.252000000000002","city":"Kaifeng","latitude":"34.56N","longitude":"114.81E"}
{"date":"2011-11-01","average_temperature":"21.406999999999996","city":"Kaithal","latitude":"29.74N","longitude":"75.69E"}
{"date":"2012-06-01","average_temperature":"17.217000000000002","city":"Kaluga","latitude":"53.84N","longitude":"36.82E"}
{"date":"2011-07-01","average_temperature":"31.358","city":"Kanchipuram","latitude":"13.66N","longitude":"80.09E"}
{"date":"2013-02-01","average_temperature":"29.340999999999998","city":"Kandi","latitude":"10.45N","longitude":"2.45E"}
{"date":"2011-10-01","average_temperature":"26.491","city":"Kankan","latitude":"10.45N","longitude":"9.00W"}
{"date":"2011-01-01","average_temperature":"21.269","city":"Kano","latitude":"12.05N","longitude":"8.22E"}
{"date":"2011-06-01","average_temperature":"17.461","city":"Karlsruhe","latitude":"49.03N","longitude":"7.35E"}
{"date":"2013-03-01","average_temperature":"2.672","city":"Karlsruhe","latitude":"49.03N","longitude":"7.35E"}
{"date":"2010-04-01","average_temperature":"16.677","city":"Kashan","latitude":"34.56N","longitude":"50.59E"}
{"date":"2010-03-01","average_temperature":"8.941","city":"Kashi","latitude":"39.38N","longitude":"76.99E"}
{"date":"2010-10-01","average_temperature":"31.397","city":"Kassala","latitude":"15.27N","longitude":"35.83E"}
{"date":"2010-11-01","average_temperature":"4.814","city":"Kassel","latitude":"50.63N","longitude":"8.87E"}
{"date":"2010-08-01","average_temperature":"27.295","city":"Kawagoe","latitude":"36.17N","longitude":"139.23E"}
{"date":"2010-02-01","average_temperature":"26.914","city":"Kebumen","latitude":"7.23S","longitude":"109.46E"}
{"date":"2010-02-01","average_temperature":"0.637","city":"Kecskemét","latitude":"47.42N","longitude":"20.13E"}
{"date":"2010-12-01","average_temperature":"26.254","city":"Kedungwuni","latitude":"7.23S","longitude":"109.46E"}
{"date":"2013-04-01","average_temperature":"20.64","city":"Keelung","latitude":"24.92N","longitude":"122.36E"}
{"date":"2013-01-01","average_temperature":"27.796999999999997","city":"Kendari","latitude":"4.02S","longitude":"122.95E"}
{"date":"2012-04-01","average_temperature":"16.032","city":"Kerman","latitude":"29.74N","longitude":"57.23E"}
{"date":"2010-10-01","average_temperature":"26.706999999999997","city":"Khandwa","latitude":"21.70N","longitude":"77.02E"}
{"date":"2011-07-01","average_temperature":"29.473000000000003","city":"Khardaha","latitude":"23.31N","longitude":"88.25E"}
{"date":"2010-07-01","average_temperature":"24.514","city":"Kherson","latitude":"47.42N","longitude":"31.97E"}
{"date":"2011-07-01","average_temperature":"27.628","city":"Khon Kaen","latitude":"16.87N","longitude":"102.14E"}
{"date":"2013-06-01","average_temperature":"30.133000000000003","city":"Khulna","latitude":"23.31N","longitude":"90.00E"}
{"date":"2011-01-01","average_temperature":"1.0390000000000001","city":"Kiel","latitude":"53.84N","longitude":"9.55E"}
{"date":"2011-04-01","average_temperature":"6.6979999999999995","city":"Kingston","latitude":"44.20N","longitude":"76.02W"}
{"date":"2011-04-01","average_temperature":"17.91","city":"Kirkuk","latitude":"36.17N","longitude":"43.76E"}
{"date":"2010-08-01","average_temperature":"25.197","city":"Kisangani","latitude":"0.80N","longitude":"24.91E"}
{"date":"2013-07-01","average_temperature":"21.263","city":"Kisumu","latitude":"0.80S","longitude":"34.55E"}
{"date":"2010-09-01","average_temperature":"18.903","city":"Klerksdorp","latitude":"26.52S","longitude":"26.87E"}
{"date":"2012-04-01","average_temperature":"24.840999999999998","city":"Kohat","latitude":"32.95N","longitude":"71.81E"}
{"date":"2011-12-01","average_temperature":"23.956","city":"Koidu","latitude":"8.84N","longitude":"10.54W"}
{"date":"2011-02-01","average_temperature":"1.975","city":"Konan","latitude":"36.17N","longitude":"137.24E"}
{"date":"2010-05-01","average_temperature":"28.592","city":"Koronadal","latitude":"5.63N","longitude":"124.30E"}
{"date":"2010-07-01","average_temperature":"25.656","city":"Kpalimé","latitude":"7.23N","longitude":"0.81E"}
{"date":"2011-07-01","average_temperature":"25.47","city":"Kpalimé","latitude":"7.23N","longitude":"0.81E"}
{"date":"2010-04-01","average_temperature":"11.273","city":"Kragujevac","latitude":"44.20N","longitude":"20.12E"}
{"date":"2013-01-01","average_temperature":"-18.816000000000006","city":"Krasnoyarsk","latitude":"55.45N","longitude":"93.54E"}
{"date":"2012-09-01","average_temperature":"16.886","city":"Kremenchuk","latitude":"49.03N","longitude":"34.29E"}
{"date":"2013-01-01","average_temperature":"-3.3060000000000005","city":"Kremenchuk","latitude":"49.03N","longitude":"34.29E"}
{"date":"2010-07-01","average_temperature":"27.925","city":"Kuala Terengganu","latitude":"5.63N","longitude":"103.32E"}
{"date":"2013-06-01","average_temperature":"30.156999999999996","city":"Kulti","latitude":"23.31N","longitude":"86.50E"}
{"date":"2010-02-01","average_temperature":"-20.526","city":"Kurgan","latitude":"55.45N","longitude":"65.20E"}
{"date":"2010-01-01","average_temperature":"23.459","city":"Kwekwe","latitude":"18.48S","longitude":"30.42E"}
{"date":"2011-11-01","average_temperature":"9.39","city":"Lárisa","latitude":"39.38N","longitude":"22.89E"}
{"date":"2011-05-01","average_temperature":"27.371","city":"La Ceiba","latitude":"15.27N","longitude":"87.50W"}
{"date":"2012-06-01","average_temperature":"27.789","city":"La Paz","latitude":"24.92N","longitude":"109.95W"}
{"date":"2012-06-01","average_temperature":"27.337","city":"Lafayette","latitude":"29.74N","longitude":"92.31W"}
{"date":"2010-08-01","average_temperature":"25.068","city":"Lafia","latitude":"8.84N","longitude":"8.92E"}
{"date":"2012-06-01","average_temperature":"25.132","city":"Laiwu","latitude":"36.17N","longitude":"117.35E"}
{"date":"2012-07-01","average_temperature":"24.301","city":"Lakewood","latitude":"39.38N","longitude":"104.05W"}
{"date":"2012-11-01","average_temperature":"5.72","city":"Lakewood","latitude":"39.38N","longitude":"104.05W"}
{"date":"2012-11-01","average_temperature":"20.074","city":"Lakhnau","latitude":"26.52N","longitude":"80.60E"}
{"date":"2012-02-01","average_temperature":"-0.4649999999999994","city":"Lansing","latitude":"42.59N","longitude":"85.09W"}
{"date":"2011-12-01","average_temperature":"-7.191","city":"Lanzhou","latitude":"36.17N","longitude":"103.43E"}
{"date":"2011-03-01","average_temperature":"9.693","city":"Laohekou","latitude":"32.95N","longitude":"112.02E"}
{"date":"2011-08-01","average_temperature":"25.337","city":"Laohekou","latitude":"32.95N","longitude":"112.02E"}
{"date":"2011-01-01","average_temperature":"4.332","city":"Le Havre","latitude":"49.03N","longitude":"0.00W"}
{"date":"2010-02-01","average_temperature":"1.87","city":"Leeds","latitude":"53.84N","longitude":"1.36W"}
{"date":"2012-02-01","average_temperature":"3.855","city":"Leeds","latitude":"53.84N","longitude":"1.36W"}
{"date":"2013-04-01","average_temperature":"9.482999999999999","city":"Leganés","latitude":"40.99N","longitude":"4.26W"}
{"date":"2011-06-01","average_temperature":"27.853","city":"Legaspi","latitude":"13.66N","longitude":"123.03E"}
{"date":"2012-01-01","average_temperature":"26.083","city":"Legaspi","latitude":"13.66N","longitude":"123.03E"}
{"date":"2010-10-01","average_temperature":"25.313","city":"Lembang","latitude":"7.23S","longitude":"107.84E"}
{"date":"2010-01-01","average_temperature":"15.316","city":"Liancheng","latitude":"21.70N","longitude":"109.90E"}
{"date":"2011-08-01","average_temperature":"28.893","city":"Liancheng","latitude":"21.70N","longitude":"109.90E"}
{"date":"2010-07-01","average_temperature":"28.743","city":"Liaocheng","latitude":"36.17N","longitude":"115.36E"}
{"date":"2013-05-01","average_temperature":"19.69","city":"Linfen","latitude":"36.17N","longitude":"111.38E"}
{"date":"2013-07-01","average_temperature":"24.495","city":"Linfen","latitude":"36.17N","longitude":"111.38E"}
{"date":"2010-04-01","average_temperature":"14.104000000000001","city":"Linhai","latitude":"28.13N","longitude":"120.91E"}
{"date":"2011-11-01","average_temperature":"17.369","city":"Linhai","latitude":"28.13N","longitude":"120.91E"}
{"date":"2013-07-01","average_temperature":"28.305999999999997","city":"Linqing","latitude":"36.17N","longitude":"115.36E"}
{"date":"2011-11-01","average_temperature":"6.1850000000000005","city":"Linxi","latitude":"39.38N","longitude":"118.61E"}
{"date":"2010-08-01","average_temperature":"16.988","city":"Linz","latitude":"49.03N","longitude":"14.69E"}
{"date":"2012-06-01","average_temperature":"16.514","city":"Linz","latitude":"49.03N","longitude":"14.69E"}
{"date":"2011-09-01","average_temperature":"18.924","city":"Ljubljana","latitude":"45.81N","longitude":"15.00E"}
{"date":"2012-11-01","average_temperature":"21.063","city":"Loja","latitude":"4.02S","longitude":"79.55W"}
{"date":"2011-12-01","average_temperature":"2.278","city":"London","latitude":"42.59N","longitude":"80.73W"}
{"date":"2011-11-01","average_temperature":"28.283","city":"Long Xuyên","latitude":"10.45N","longitude":"105.55E"}
{"date":"2010-05-01","average_temperature":"23.701","city":"Longyan","latitude":"24.92N","longitude":"117.04E"}
{"date":"2012-03-01","average_temperature":"17.192","city":"Los Angeles","latitude":"37.78S","longitude":"73.22W"}
{"date":"2013-06-01","average_temperature":"26.908","city":"Luchou","latitude":"24.92N","longitude":"120.59E"}
{"date":"2010-07-01","average_temperature":"31.158","city":"Ludhiana","latitude":"31.35N","longitude":"75.39E"}
{"date":"2012-09-01","average_temperature":"21.296","city":"Luohe","latitude":"32.95N","longitude":"113.94E"}
{"date":"2012-08-01","average_temperature":"22.116","city":"Luque","latitude":"24.92S","longitude":"56.75W"}
{"date":"2012-02-01","average_temperature":"22.151999999999997","city":"Lusaka","latitude":"15.27S","longitude":"27.50E"}
{"date":"2010-03-01","average_temperature":"6.4220000000000015","city":"Luton","latitude":"52.24N","longitude":"0.00W"}
{"date":"2011-10-01","average_temperature":"14.487","city":"Móstoles","latitude":"40.99N","longitude":"4.26W"}
{"date":"2010-07-01","average_temperature":"21.162","city":"Münster","latitude":"52.24N","longitude":"7.88E"}
{"date":"2012-04-01","average_temperature":"8.527000000000001","city":"Münster","latitude":"52.24N","longitude":"7.88E"}
{"date":"2011-08-01","average_temperature":"27.146","city":"Mahabad","latitude":"36.17N","longitude":"45.75E"}
{"date":"2013-01-01","average_temperature":"24.168000000000006","city":"Maisuru","latitude":"12.05N","longitude":"77.26E"}
{"date":"2012-05-01","average_temperature":"27.239","city":"Makasar","latitude":"5.63S","longitude":"119.46E"}
{"date":"2013-03-01","average_temperature":"31.285","city":"Makurdi","latitude":"7.23N","longitude":"8.92E"}
{"date":"2010-04-01","average_temperature":"15.066","city":"Malatya","latitude":"37.78N","longitude":"38.64E"}
{"date":"2012-05-01","average_temperature":"25.884","city":"Man","latitude":"7.23N","longitude":"7.30W"}
{"date":"2011-04-01","average_temperature":"27.910999999999998","city":"Mandaue","latitude":"10.45N","longitude":"123.55E"}
{"date":"2013-05-01","average_temperature":"29.189","city":"Mandya","latitude":"12.05N","longitude":"77.26E"}
{"date":"2010-04-01","average_temperature":"29.412","city":"Manila","latitude":"15.27N","longitude":"120.83E"}
{"date":"2012-07-01","average_temperature":"26.959","city":"Manila","latitude":"15.27N","longitude":"120.83E"}
{"date":"2012-03-01","average_temperature":"8.555","city":"Mannheim","latitude":"49.03N","longitude":"7.35E"}
{"date":"2011-01-01","average_temperature":"11.796","city":"Maoming","latitude":"21.70N","longitude":"111.63E"}
{"date":"2013-08-01","average_temperature":"10.78","city":"Mar Del Plata","latitude":"37.78S","longitude":"56.95W"}
{"date":"2013-02-01","average_temperature":"27.203000000000003","city":"Marabá","latitude":"5.63S","longitude":"48.43W"}
{"date":"2012-02-01","average_temperature":"27.281","city":"Maradi","latitude":"13.66N","longitude":"7.43E"}
{"date":"2012-08-01","average_temperature":"26.696","city":"Maradi","latitude":"13.66N","longitude":"7.43E"}
{"date":"2012-12-01","average_temperature":"24.081999999999997","city":"Maradi","latitude":"13.66N","longitude":"7.43E"}
{"date":"2010-06-01","average_temperature":"27.172","city":"Mariara","latitude":"10.45N","longitude":"67.91W"}
{"date":"2011-04-01","average_temperature":"28.651999999999997","city":"Masaya","latitude":"12.05N","longitude":"85.48W"}
{"date":"2010-11-01","average_temperature":"13.656","city":"Mataró","latitude":"40.99N","longitude":"2.13E"}
{"date":"2012-08-01","average_temperature":"26.954","city":"Mawlamyine","latitude":"16.87N","longitude":"97.12E"}
{"date":"2011-02-01","average_temperature":"-1.6469999999999998","city":"Maykop","latitude":"44.20N","longitude":"40.25E"}
{"date":"2011-03-01","average_temperature":"18.998","city":"Mazatlán","latitude":"23.31N","longitude":"105.73W"}
{"date":"2013-06-01","average_temperature":"26.029","city":"Mazatlán","latitude":"23.31N","longitude":"105.73W"}
{"date":"2011-09-01","average_temperature":"16.52","city":"Midrand","latitude":"26.52S","longitude":"28.66E"}
{"date":"2011-11-01","average_temperature":"15.518","city":"Mingaora","latitude":"34.56N","longitude":"72.00E"}
{"date":"2011-10-01","average_temperature":"6.034","city":"Minsk","latitude":"53.84N","longitude":"28.64E"}
{"date":"2010-12-01","average_temperature":"13.45","city":"Miramar","latitude":"26.52N","longitude":"80.60W"}
{"date":"2011-10-01","average_temperature":"24.298000000000002","city":"Miramar","latitude":"26.52N","longitude":"80.60W"}
{"date":"2010-01-01","average_temperature":"2.608","city":"Misato","latitude":"36.17N","longitude":"139.23E"}
{"date":"2012-06-01","average_temperature":"19.359","city":"Misato","latitude":"36.17N","longitude":"139.23E"}
{"date":"2012-01-01","average_temperature":"13.513","city":"Misratah","latitude":"32.95N","longitude":"14.36E"}
{"date":"2013-01-01","average_temperature":"14.696","city":"Misratah","latitude":"32.95N","longitude":"14.36E"}
{"date":"2010-05-01","average_temperature":"16.337","city":"Mitaka","latitude":"36.17N","longitude":"139.23E"}
{"date":"2013-07-01","average_temperature":"25.206","city":"Modakeke","latitude":"7.23N","longitude":"4.05E"}
{"date":"2011-01-01","average_temperature":"4.956","city":"Modesto","latitude":"37.78N","longitude":"120.00W"}
{"date":"2011-01-01","average_temperature":"2.262","city":"Moers","latitude":"50.63N","longitude":"6.34E"}
{"date":"2013-03-01","average_temperature":"1.8340000000000003","city":"Moers","latitude":"50.63N","longitude":"6.34E"}
{"date":"2011-07-01","average_temperature":"27.544","city":"Mogadishu","latitude":"2.41N","longitude":"45.80E"}
{"date":"2010-09-01","average_temperature":"20.063","city":"Moji Das Cruzes","latitude":"23.31S","longitude":"46.31W"}
{"date":"2013-01-01","average_temperature":"22.503","city":"Moji Das Cruzes","latitude":"23.31S","longitude":"46.31W"}
{"date":"2010-07-01","average_temperature":"27.541","city":"Mojokerto","latitude":"7.23S","longitude":"112.70E"}
{"date":"2010-02-01","average_temperature":"11.735","city":"Monclova","latitude":"26.52N","longitude":"102.09W"}
{"date":"2013-03-01","average_temperature":"18.272000000000002","city":"Monclova","latitude":"26.52N","longitude":"102.09W"}
{"date":"2012-03-01","average_temperature":"29.537","city":"Montería","latitude":"8.84N","longitude":"75.41W"}
{"date":"2010-09-01","average_temperature":"16.637999999999998","city":"Montpellier","latitude":"44.20N","longitude":"4.47E"}
{"date":"2011-09-01","average_temperature":"16.08","city":"Montreal","latitude":"45.81N","longitude":"72.69W"}
{"date":"2013-05-01","average_temperature":"13.17","city":"Monza","latitude":"45.81N","longitude":"10.38E"}
{"date":"2011-08-01","average_temperature":"22.494","city":"Moshi","latitude":"4.02S","longitude":"37.77E"}
{"date":"2011-09-01","average_temperature":"25.296999999999997","city":"Moundou","latitude":"8.84N","longitude":"15.41E"}
{"date":"2013-02-01","average_temperature":"15.414000000000001","city":"Muridke","latitude":"31.35N","longitude":"73.51E"}
{"date":"2013-09-01","city":"Musoma","latitude":"0.80S","longitude":"34.55E"}
{"date":"2013-03-01","average_temperature":"21.709","city":"Muzaffargarh","latitude":"29.74N","longitude":"72.00E"}
{"date":"2012-09-01","average_temperature":"28.302","city":"Muzaffarpur","latitude":"26.52N","longitude":"85.97E"}
{"date":"2012-08-01","average_temperature":"23.925","city":"Nacala","latitude":"15.27S","longitude":"40.83E"}
{"date":"2012-11-01","average_temperature":"17.045","city":"Nairobi","latitude":"0.80S","longitude":"36.16E"}
{"date":"2010-08-01","average_temperature":"28.144","city":"Nakhon Pathom","latitude":"13.66N","longitude":"99.91E"}
{"date":"2012-09-01","average_temperature":"27.59","city":"Nakhon Si Thammarat","latitude":"8.84N","longitude":"99.73E"}
{"date":"2013-08-01","average_temperature":"27.932","city":"Nakhon Si Thammarat","latitude":"8.84N","longitude":"99.73E"}
{"date":"2011-10-01","average_temperature":"27.191999999999997","city":"Nalgonda","latitude":"16.87N","longitude":"78.70E"}
{"date":"2013-06-01","average_temperature":"15.918","city":"Namur","latitude":"50.63N","longitude":"3.80E"}
{"date":"2011-01-01","average_temperature":"3.6489999999999996","city":"Nanchong","latitude":"31.35N","longitude":"105.55E"}
{"date":"2012-06-01","average_temperature":"36.33900000000001","city":"Nangloi Jat","latitude":"28.13N","longitude":"77.27E"}
{"date":"2011-12-01","average_temperature":"4.510000000000002","city":"Nanjing","latitude":"31.35N","longitude":"118.74E"}
{"date":"2013-04-01","average_temperature":"22.665","city":"Nanning","latitude":"23.31N","longitude":"107.48E"}
{"date":"2012-03-01","average_temperature":"16.292","city":"Nashville","latitude":"36.17N","longitude":"87.51W"}
{"date":"2012-07-01","average_temperature":"28.732000000000006","city":"Nassau","latitude":"24.92N","longitude":"78.03W"}
{"date":"2012-04-01","average_temperature":"15.077","city":"Nazilli","latitude":"37.78N","longitude":"28.47E"}
{"date":"2010-10-01","average_temperature":"17.837999999999994","city":"Neijiang","latitude":"29.74N","longitude":"105.23E"}
{"date":"2010-09-01","average_temperature":"26.215999999999998","city":"Neiva","latitude":"2.41N","longitude":"74.73W"}
{"date":"2010-09-01","average_temperature":"26.924","city":"Netanya","latitude":"32.95N","longitude":"35.43E"}
{"date":"2011-01-01","average_temperature":"-2.862","city":"Nevinnomyssk","latitude":"44.20N","longitude":"42.48E"}
{"date":"2013-01-01","average_temperature":"13.755999999999998","city":"New Delhi","latitude":"28.13N","longitude":"77.27E"}
{"date":"2010-04-01","average_temperature":"21.005","city":"New Orleans","latitude":"29.74N","longitude":"90.46W"}
{"date":"2012-09-01","average_temperature":"26.591","city":"New Orleans","latitude":"29.74N","longitude":"90.46W"}
{"date":"2011-09-01","average_temperature":"28.351","city":"Neyveli","latitude":"12.05N","longitude":"78.90E"}
{"date":"2012-06-01","average_temperature":"31.341","city":"Neyveli","latitude":"12.05N","longitude":"78.90E"}
{"date":"2010-07-01","average_temperature":"29.456","city":"Nguru","latitude":"13.66N","longitude":"10.73E"}
{"date":"2013-04-01","average_temperature":"26.555","city":"Nha Trang","latitude":"12.05N","longitude":"108.49E"}
{"date":"2010-12-01","average_temperature":"25.848000000000003","city":"Nilópolis","latitude":"23.31S","longitude":"42.82W"}
{"date":"2011-05-01","average_temperature":"23.752","city":"Niterói","latitude":"23.31S","longitude":"42.82W"}
{"date":"2011-04-01","average_temperature":"28.915","city":"Nonthaburi","latitude":"13.66N","longitude":"99.91E"}
{"date":"2011-12-01","average_temperature":"4.819","city":"Nottingham","latitude":"53.84N","longitude":"1.36W"}
{"date":"2011-01-01","average_temperature":"-0.11900000000000001","city":"Novi Sad","latitude":"45.81N","longitude":"19.62E"}
{"date":"2013-05-01","average_temperature":"15.273","city":"Novocheboksarsk","latitude":"55.45N","longitude":"48.19E"}
{"date":"2013-09-01","city":"Nsukka","latitude":"7.23N","longitude":"7.30E"}
{"date":"2013-05-01","average_temperature":"27.127","city":"Nueva San Salvador","latitude":"13.66N","longitude":"90.00W"}
{"date":"2011-11-01","average_temperature":"1.2400000000000002","city":"Nyíregyháza","latitude":"47.42N","longitude":"22.50E"}
{"date":"2011-05-01","average_temperature":"14.79","city":"Odesa","latitude":"45.81N","longitude":"31.15E"}
{"date":"2010-10-01","average_temperature":"26.883000000000006","city":"Olongapo","latitude":"15.27N","longitude":"120.83E"}
{"date":"2011-06-01","average_temperature":"27.416","city":"Olongapo","latitude":"15.27N","longitude":"120.83E"}
{"date":"2010-08-01","average_temperature":"19.831","city":"Olsztyn","latitude":"53.84N","longitude":"20.45E"}
{"date":"2013-07-01","average_temperature":"19.099","city":"Olsztyn","latitude":"53.84N","longitude":"20.45E"}
{"date":"2012-05-01","average_temperature":"11.54","city":"Omsk","latitude":"55.45N","longitude":"73.70E"}
{"date":"2010-12-01","average_temperature":"27.026","city":"Opobo","latitude":"4.02N","longitude":"7.23E"}
{"date":"2011-11-01","average_temperature":"20.383","city":"Osasco","latitude":"23.31S","longitude":"46.31W"}
{"date":"2010-12-01","average_temperature":"5.7189999999999985","city":"Ota","latitude":"36.17N","longitude":"139.23E"}
{"date":"2011-01-01","average_temperature":"26.486","city":"Otukpo","latitude":"7.23N","longitude":"8.92E"}
{"date":"2010-01-01","average_temperature":"26.015","city":"Pôrto Velho","latitude":"8.84S","longitude":"64.05W"}
{"date":"2011-02-01","average_temperature":"22.144000000000002","city":"Pabna","latitude":"23.31N","longitude":"90.00E"}
{"date":"2010-11-01","average_temperature":"13.654000000000002","city":"Pachuca","latitude":"20.09N","longitude":"98.96W"}
{"date":"2011-04-01","average_temperature":"12.511","city":"Paderborn","latitude":"52.24N","longitude":"7.88E"}
{"date":"2011-02-01","average_temperature":"4.479","city":"Padova","latitude":"45.81N","longitude":"12.69E"}
{"date":"2012-02-01","average_temperature":"26.578000000000003","city":"Pagadian","latitude":"7.23N","longitude":"124.05E"}
{"date":"2010-10-01","average_temperature":"27.286","city":"Palembang","latitude":"2.41S","longitude":"105.27E"}
{"date":"2011-11-01","average_temperature":"27.313000000000002","city":"Palembang","latitude":"2.41S","longitude":"105.27E"}
{"date":"2011-11-01","average_temperature":"13.761","city":"Palermo","latitude":"37.78N","longitude":"14.24E"}
{"date":"2011-05-01","average_temperature":"20.215","city":"Palma","latitude":"39.38N","longitude":"2.08E"}
{"date":"2013-09-01","city":"Palmas","latitude":"10.45S","longitude":"48.27W"}
{"date":"2012-07-01","average_temperature":"32.448","city":"Palwal","latitude":"28.13N","longitude":"77.27E"}
{"date":"2012-10-01","average_temperature":"26.354","city":"Palwal","latitude":"28.13N","longitude":"77.27E"}
{"date":"2012-06-01","average_temperature":"27.523000000000003","city":"Pamanukan","latitude":"5.63S","longitude":"108.16E"}
{"date":"2010-07-01","average_temperature":"28.723000000000006","city":"Panchiao","latitude":"24.92N","longitude":"122.36E"}
{"date":"2012-06-01","average_temperature":"28.846999999999998","city":"Panvel","latitude":"18.48N","longitude":"72.68E"}
{"date":"2011-09-01","average_temperature":"25.415","city":"Parakou","latitude":"8.84N","longitude":"2.43E"}
{"date":"2012-06-01","average_temperature":"26.945","city":"Paramaribo","latitude":"5.63N","longitude":"54.89W"}
{"date":"2012-02-01","average_temperature":"26.188000000000002","city":"Parana","latitude":"31.35S","longitude":"60.31W"}
{"date":"2012-06-01","average_temperature":"12.936","city":"Parana","latitude":"31.35S","longitude":"60.31W"}
{"date":"2012-12-01","average_temperature":"25.77","city":"Paranaguá","latitude":"24.92S","longitude":"47.88W"}
{"date":"2013-01-01","average_temperature":"23.96","city":"Paranaguá","latitude":"24.92S","longitude":"47.88W"}
{"date":"2013-09-01","city":"Paranaguá","latitude":"24.92S","longitude":"47.88W"}
{"date":"2012-01-01","average_temperature":"28.345","city":"Parnaíba","latitude":"2.41S","longitude":"40.98W"}
{"date":"2012-10-01","average_temperature":"15.865","city":"Pathankot","latitude":"32.95N","longitude":"75.64E"}
{"date":"2010-02-01","average_temperature":"18.012999999999998","city":"Patiala","latitude":"29.74N","longitude":"75.69E"}
{"date":"2012-08-01","average_temperature":"25.468000000000004","city":"Paulista","latitude":"7.23S","longitude":"34.86W"}
{"date":"2011-07-01","average_temperature":"25.956","city":"Pekalongan","latitude":"7.23S","longitude":"109.46E"}
{"date":"2012-10-01","average_temperature":"20.147","city":"Pelotas","latitude":"31.35S","longitude":"52.77W"}
{"date":"2010-06-01","average_temperature":"29.336","city":"Pembroke Pines","latitude":"26.52N","longitude":"80.60W"}
{"date":"2011-03-01","average_temperature":"26.494","city":"Perbaungan","latitude":"4.02N","longitude":"98.84E"}
{"date":"2010-10-01","average_temperature":"18.764","city":"Peristérion","latitude":"37.78N","longitude":"24.41E"}
{"date":"2012-02-01","average_temperature":"27.333","city":"Petaling Jaya","latitude":"2.41N","longitude":"102.05E"}
{"date":"2010-01-01","average_temperature":"17.265","city":"Petapa","latitude":"15.27N","longitude":"90.83W"}
{"date":"2010-05-01","average_temperature":"22.016","city":"Petapa","latitude":"15.27N","longitude":"90.83W"}
{"date":"2011-02-01","average_temperature":"27.368000000000002","city":"Petrolina","latitude":"8.84S","longitude":"39.73W"}
{"date":"2011-03-01","average_temperature":"-4.257","city":"Petrozavodsk","latitude":"61.88N","longitude":"35.66E"}
{"date":"2011-03-01","average_temperature":"6.6530000000000005","city":"Pforzheim","latitude":"49.03N","longitude":"9.80E"}
{"date":"2010-02-01","average_temperature":"16.980999999999998","city":"Phagwara","latitude":"31.35N","longitude":"75.39E"}
{"date":"2011-04-01","average_temperature":"27.888","city":"Phan Thiet","latitude":"10.45N","longitude":"107.18E"}
{"date":"2010-04-01","average_temperature":"30.455","city":"Phnum Pénh","latitude":"12.05N","longitude":"105.21E"}
{"date":"2010-04-01","average_temperature":"10.255999999999998","city":"Piatra Neamt","latitude":"47.42N","longitude":"27.24E"}
{"date":"2010-12-01","average_temperature":"-5.979","city":"Pinsk","latitude":"52.24N","longitude":"26.28E"}
{"date":"2011-11-01","average_temperature":"8.334","city":"Pittsburgh","latitude":"40.99N","longitude":"80.95W"}
{"date":"2010-06-01","average_temperature":"17.885","city":"Plock","latitude":"52.24N","longitude":"18.39E"}
{"date":"2011-02-01","average_temperature":"25.013","city":"Plumbon","latitude":"7.23S","longitude":"107.84E"}
{"date":"2012-09-01","average_temperature":"14.229000000000001","city":"Plymouth","latitude":"50.63N","longitude":"3.80W"}
{"date":"2010-10-01","average_temperature":"7.383000000000001","city":"Plzen","latitude":"50.63N","longitude":"13.94E"}
{"date":"2010-07-01","average_temperature":"15.259","city":"Ponta Grossa","latitude":"24.92S","longitude":"49.66W"}
{"date":"2013-04-01","average_temperature":"29.165","city":"Porbandar","latitude":"21.70N","longitude":"70.10E"}
{"date":"2011-04-01","average_temperature":"26.683000000000003","city":"Port Au Prince","latitude":"18.48N","longitude":"72.68W"}
{"date":"2011-06-01","average_temperature":"15.583000000000002","city":"Port Elizabeth","latitude":"34.56S","longitude":"25.30E"}
{"date":"2011-01-01","average_temperature":"12.241","city":"Potosí","latitude":"20.09S","longitude":"66.54W"}
{"date":"2010-04-01","average_temperature":"21.843000000000004","city":"Pouso Alegre","latitude":"21.70S","longitude":"45.87W"}
{"date":"2010-08-01","average_temperature":"21.769","city":"Provo","latitude":"39.38N","longitude":"112.37W"}
{"date":"2011-03-01","average_temperature":"25.603","city":"Pucallpa","latitude":"8.84S","longitude":"73.78W"}
{"date":"2013-09-01","city":"Pudukkottai","latitude":"10.45N","longitude":"79.36E"}
{"date":"2011-02-01","average_temperature":"24.84","city":"Puerto Plata","latitude":"20.09N","longitude":"69.95W"}
{"date":"2011-09-01","average_temperature":"25.092","city":"Pune","latitude":"18.48N","longitude":"74.37E"}
{"date":"2010-03-01","average_temperature":"29.03","city":"Puruliya","latitude":"23.31N","longitude":"86.50E"}
{"date":"2010-06-01","average_temperature":"28.305","city":"Pyay","latitude":"18.48N","longitude":"94.65E"}
{"date":"2010-11-01","average_temperature":"26.715999999999998","city":"Pyay","latitude":"18.48N","longitude":"94.65E"}
{"date":"2012-09-01","average_temperature":"27.395","city":"Qabis","latitude":"34.56N","longitude":"9.73E"}
{"date":"2012-08-01","average_temperature":"29.445","city":"Qom","latitude":"34.56N","longitude":"50.59E"}
{"date":"2012-11-01","average_temperature":"18.035","city":"Quanzhou","latitude":"24.92N","longitude":"118.82E"}
{"date":"2012-02-01","average_temperature":"27.449","city":"Queimados","latitude":"23.31S","longitude":"42.82W"}
{"date":"2010-12-01","average_temperature":"16.205000000000002","city":"Quetzaltenango","latitude":"15.27N","longitude":"90.83W"}
{"date":"2012-10-01","average_temperature":"25.451","city":"Rae Bareli","latitude":"26.52N","longitude":"80.60E"}
{"date":"2011-09-01","average_temperature":"23.301","city":"Rafsanjan","latitude":"29.74N","longitude":"55.38E"}
{"date":"2010-02-01","average_temperature":"20.936","city":"Ranchi","latitude":"23.31N","longitude":"84.76E"}
{"date":"2011-12-01","average_temperature":"20.312","city":"Ratlam","latitude":"23.31N","longitude":"74.27E"}
{"date":"2010-11-01","average_temperature":"7.865000000000001","city":"Reading","latitude":"50.63N","longitude":"1.27W"}
{"date":"2011-11-01","average_temperature":"7.624","city":"Reims","latitude":"49.03N","longitude":"4.90E"}
{"date":"2011-11-01","average_temperature":"27.179","city":"Rengasdengklok","latitude":"5.63S","longitude":"106.55E"}
{"date":"2010-06-01","average_temperature":"16.482","city":"Resende","latitude":"21.70S","longitude":"44.13W"}
{"date":"2012-06-01","average_temperature":"18.113","city":"Ribeirão Pires","latitude":"23.31S","longitude":"46.31W"}
{"date":"2010-08-01","average_temperature":"27.363000000000003","city":"Riverside","latitude":"34.56N","longitude":"116.76W"}
{"date":"2013-06-01","average_temperature":"19.471","city":"Rivne","latitude":"50.63N","longitude":"26.62E"}
{"date":"2010-04-01","average_temperature":"8.55","city":"Rostock","latitude":"53.84N","longitude":"12.27E"}
{"date":"2010-11-01","average_temperature":"6.29","city":"Ruda Slaska","latitude":"50.63N","longitude":"19.01E"}
{"date":"2010-12-01","average_temperature":"22.124000000000002","city":"Ruiru","latitude":"0.80S","longitude":"37.77E"}
{"date":"2012-12-01","average_temperature":"-2.334","city":"Rybnik","latitude":"50.63N","longitude":"19.01E"}
{"date":"2011-07-01","average_temperature":"17.597","city":"São Paulo","latitude":"23.31S","longitude":"46.31W"}
{"date":"2010-02-01","average_temperature":"10.273","city":"Sabadell","latitude":"40.99N","longitude":"2.13E"}
{"date":"2010-12-01","average_temperature":"6.6530000000000005","city":"Sabzevar","latitude":"36.17N","longitude":"57.68E"}
{"date":"2013-06-01","average_temperature":"19.759","city":"Sacramento","latitude":"37.78N","longitude":"122.03W"}
{"date":"2013-01-01","average_temperature":"14.372","city":"Safaqis","latitude":"34.56N","longitude":"11.68E"}
{"date":"2013-02-01","average_temperature":"2.046","city":"Sagamihara","latitude":"36.17N","longitude":"139.23E"}
{"date":"2012-04-01","average_temperature":"27.1","city":"Saharsa","latitude":"26.52N","longitude":"85.97E"}
{"date":"2011-04-01","average_temperature":"12.548","city":"Sakai","latitude":"34.56N","longitude":"136.22E"}
{"date":"2012-02-01","average_temperature":"4.3420000000000005","city":"Sakai","latitude":"34.56N","longitude":"136.22E"}
{"date":"2010-09-01","average_temperature":"18.805","city":"Salamanca","latitude":"20.09N","longitude":"100.66W"}
{"date":"2012-05-01","average_temperature":"15.836","city":"Salamanca","latitude":"40.99N","longitude":"6.39W"}
{"date":"2010-10-01","average_temperature":"15.017000000000001","city":"Salerno","latitude":"40.99N","longitude":"14.91E"}
{"date":"2012-06-01","average_temperature":"21.165","city":"Salt Lake City","latitude":"40.99N","longitude":"112.90W"}
{"date":"2010-07-01","average_temperature":"12.04","city":"Salto","latitude":"31.35S","longitude":"58.43W"}
{"date":"2011-08-01","average_temperature":"16.09","city":"Salzburg","latitude":"47.42N","longitude":"13.03E"}
{"date":"2011-02-01","average_temperature":"1.1760000000000002","city":"Salzgitter","latitude":"52.24N","longitude":"10.51E"}
{"date":"2012-07-01","average_temperature":"23.703000000000003","city":"Samsun","latitude":"40.99N","longitude":"36.21E"}
{"date":"2011-01-01","average_temperature":"21.276","city":"San Cristóbal","latitude":"7.23N","longitude":"72.16W"}
{"date":"2011-03-01","average_temperature":"11.886","city":"San Jose","latitude":"37.78N","longitude":"122.03W"}
{"date":"2011-11-01","average_temperature":"24.793000000000003","city":"San Juan","latitude":"31.35S","longitude":"67.85W"}
{"date":"2010-01-01","average_temperature":"28.226","city":"San Lorenzo","latitude":"24.92S","longitude":"56.75W"}
{"date":"2011-10-01","average_temperature":"16.575","city":"San Luis Potosí","latitude":"21.70N","longitude":"101.25W"}
{"date":"2011-08-01","average_temperature":"35.43799999999999","city":"San Luis Río Colorado","latitude":"32.95N","longitude":"113.94W"}
{"date":"2013-03-01","average_temperature":"28.105","city":"San Pédro","latitude":"5.63N","longitude":"6.46W"}
{"date":"2013-04-01","average_temperature":"28.781999999999996","city":"San Pablo","latitude":"13.66N","longitude":"121.38E"}
{"date":"2010-02-01","average_temperature":"26.138","city":"San Pedro","latitude":"13.66N","longitude":"121.38E"}
{"date":"2010-11-01","average_temperature":"22.386","city":"San Pedro Sula","latitude":"15.27N","longitude":"87.50W"}
{"date":"2011-11-01","average_temperature":"25.066999999999997","city":"Sancti Spíritus","latitude":"21.70N","longitude":"78.75W"}
{"date":"2012-01-01","average_temperature":"22.995","city":"Sancti Spíritus","latitude":"21.70N","longitude":"78.75W"}
{"date":"2011-07-01","average_temperature":"29.947","city":"Santa Catarina","latitude":"26.52N","longitude":"100.30W"}
{"date":"2011-02-01","average_temperature":"9.817","city":"Santa Clara","latitude":"37.78N","longitude":"122.03W"}
{"date":"2010-06-01","average_temperature":"18.117","city":"Sarapul","latitude":"57.05N","longitude":"54.59E"}
{"date":"2011-03-01","average_temperature":"9.163","city":"Sasebo","latitude":"32.95N","longitude":"129.26E"}
{"date":"2011-01-01","average_temperature":"1.27","city":"Saveh","latitude":"34.56N","longitude":"50.59E"}
{"date":"2010-05-01","average_temperature":"28.49","city":"Sawangan","latitude":"5.63S","longitude":"106.55E"}
{"date":"2011-03-01","average_temperature":"4.674","city":"Sayama","latitude":"36.17N","longitude":"139.23E"}
{"date":"2011-01-01","average_temperature":"25.956999999999997","city":"Sekudai","latitude":"0.80N","longitude":"103.66E"}
{"date":"2010-07-01","average_temperature":"19.445999999999998","city":"Semey","latitude":"50.63N","longitude":"79.86E"}
{"date":"2012-03-01","average_temperature":"26.754","city":"Seoni","latitude":"21.70N","longitude":"78.75E"}
{"date":"2012-08-01","average_temperature":"26.016","city":"Seoni","latitude":"21.70N","longitude":"78.75E"}
{"date":"2012-11-01","average_temperature":"21.964","city":"Seoni","latitude":"21.70N","longitude":"78.75E"}
{"date":"2011-10-01","average_temperature":"19.500999999999998","city":"Setúbal","latitude":"39.38N","longitude":"8.32W"}
{"date":"2010-04-01","average_temperature":"29.387","city":"Shagamu","latitude":"7.23N","longitude":"4.05E"}
{"date":"2010-05-01","average_temperature":"34.13999999999999","city":"Shahjahanpur","latitude":"28.13N","longitude":"79.09E"}
{"date":"2011-07-01","average_temperature":"25.936999999999998","city":"Shaki","latitude":"8.84N","longitude":"4.05E"}
{"date":"2010-11-01","average_temperature":"10.816","city":"Shangqiu","latitude":"34.56N","longitude":"114.81E"}
{"date":"2012-01-01","average_temperature":"5.22","city":"Shangrao","latitude":"28.13N","longitude":"117.27E"}
{"date":"2013-06-01","average_temperature":"24.722","city":"Shaoxing","latitude":"29.74N","longitude":"120.00E"}
{"date":"2010-03-01","average_temperature":"11.883","city":"Shaoyang","latitude":"26.52N","longitude":"111.04E"}
{"date":"2011-05-01","average_temperature":"12.154000000000002","city":"Sheffield","latitude":"53.84N","longitude":"1.36W"}
{"date":"2013-04-01","average_temperature":"6.2940000000000005","city":"Shenyang","latitude":"40.99N","longitude":"123.55E"}
{"date":"2011-12-01","average_temperature":"19.281","city":"Sherpur","latitude":"24.92N","longitude":"90.44E"}
{"date":"2013-03-01","average_temperature":"23.712","city":"Shinyanga","latitude":"4.02S","longitude":"32.95E"}
{"date":"2010-12-01","average_temperature":"16.346999999999998","city":"Shulin","latitude":"24.92N","longitude":"120.59E"}
{"date":"2012-12-01","average_temperature":"16.13","city":"Shulin","latitude":"24.92N","longitude":"120.59E"}
{"date":"2010-01-01","average_temperature":"-10.605","city":"Siauliai","latitude":"55.45N","longitude":"22.68E"}
{"date":"2011-07-01","average_temperature":"31.531","city":"Sikar","latitude":"28.13N","longitude":"75.45E"}
{"date":"2011-12-01","average_temperature":"27.215","city":"Singaraja","latitude":"8.84S","longitude":"114.32E"}
{"date":"2011-09-01","average_temperature":"28.921999999999997","city":"Sinnar","latitude":"13.66N","longitude":"33.85E"}
{"date":"2010-01-01","average_temperature":"-0.4079999999999999","city":"Skopje","latitude":"42.59N","longitude":"21.82E"}
{"date":"2011-01-01","average_temperature":"20.199","city":"Sogamoso","latitude":"5.63N","longitude":"72.65W"}
{"date":"2012-05-01","average_temperature":"16.669999999999998","city":"Soka","latitude":"36.17N","longitude":"139.23E"}
{"date":"2010-05-01","average_temperature":"10.625","city":"Solingen","latitude":"50.63N","longitude":"6.34E"}
{"date":"2010-09-01","average_temperature":"17.958000000000006","city":"Split","latitude":"44.20N","longitude":"15.65E"}
{"date":"2011-03-01","average_temperature":"8.503","city":"Split","latitude":"44.20N","longitude":"15.65E"}
{"date":"2010-10-01","average_temperature":"15.419","city":"Springfield","latitude":"37.78N","longitude":"93.56W"}
{"date":"2013-07-01","average_temperature":"9.755","city":"Springs","latitude":"26.52S","longitude":"28.66E"}
{"date":"2010-03-01","average_temperature":"27.875","city":"Srikakulam","latitude":"18.48N","longitude":"84.51E"}
{"date":"2012-07-01","average_temperature":"20.812","city":"Srinagar","latitude":"34.56N","longitude":"73.95E"}
{"date":"2010-04-01","average_temperature":"9.302999999999999","city":"Staryy Oskol","latitude":"50.63N","longitude":"36.76E"}
{"date":"2010-06-01","average_temperature":"17.706","city":"Strasbourg","latitude":"49.03N","longitude":"7.35E"}
{"date":"2010-08-01","average_temperature":"9.982999999999999","city":"Sucre","latitude":"18.48S","longitude":"65.92W"}
{"date":"2010-02-01","average_temperature":"11.467","city":"Sunnyvale","latitude":"37.78N","longitude":"122.03W"}
{"date":"2011-06-01","average_temperature":"31.776","city":"Suriapet","latitude":"16.87N","longitude":"80.37E"}
{"date":"2012-02-01","average_temperature":"3.928","city":"Suzhou","latitude":"31.35N","longitude":"120.63E"}
{"date":"2012-07-01","average_temperature":"17.427000000000003","city":"Syktyvkar","latitude":"61.88N","longitude":"49.25E"}
{"date":"2012-03-01","average_temperature":"12.793","city":"Syracuse","latitude":"37.78N","longitude":"16.27E"}
{"date":"2010-09-01","average_temperature":"29.868000000000002","city":"Tabuk","latitude":"28.13N","longitude":"37.27E"}
{"date":"2012-06-01","average_temperature":"26.605999999999998","city":"Tagum","latitude":"7.23N","longitude":"125.68E"}
{"date":"2011-02-01","average_temperature":"1.938","city":"Taian","latitude":"36.17N","longitude":"117.35E"}
{"date":"2013-01-01","average_temperature":"-1.821","city":"Taian","latitude":"36.17N","longitude":"117.35E"}
{"date":"2011-12-01","average_temperature":"18.238","city":"Tainan","latitude":"23.31N","longitude":"119.71E"}
{"date":"2011-01-01","average_temperature":"26.322","city":"Taiping","latitude":"4.02N","longitude":"100.45E"}
{"date":"2010-06-01","average_temperature":"22.649","city":"Takatsuki","latitude":"34.56N","longitude":"136.22E"}
{"date":"2012-10-01","average_temperature":"26.236","city":"Takoradi","latitude":"5.63N","longitude":"1.61W"}
{"date":"2013-07-01","average_temperature":"26.967","city":"Talkha","latitude":"31.35N","longitude":"32.04E"}
{"date":"2013-02-01","average_temperature":"2.046","city":"Tama","latitude":"36.17N","longitude":"139.23E"}
{"date":"2011-08-01","average_temperature":"27.091","city":"Tambun","latitude":"5.63S","longitude":"106.55E"}
{"date":"2013-08-01","average_temperature":"26.869","city":"Tangerang","latitude":"5.63S","longitude":"106.55E"}
{"date":"2011-08-01","average_temperature":"28.464","city":"Tanshui","latitude":"24.92N","longitude":"120.59E"}
{"date":"2012-05-01","average_temperature":"19.113","city":"Tarragona","latitude":"40.99N","longitude":"2.13E"}
{"date":"2013-02-01","average_temperature":"27.34","city":"Teluknaga","latitude":"5.63S","longitude":"106.55E"}
{"date":"2013-03-01","average_temperature":"19.033","city":"Tembisa","latitude":"26.52S","longitude":"28.66E"}
{"date":"2012-07-01","average_temperature":"22.646","city":"Temirtau","latitude":"50.63N","longitude":"72.25E"}
{"date":"2012-06-01","average_temperature":"31.494","city":"Tempe","latitude":"32.95N","longitude":"112.02W"}
{"date":"2013-09-01","city":"Thái Nguyên","latitude":"21.70N","longitude":"106.44E"}
{"date":"2010-04-01","average_temperature":"31.145","city":"Thaton","latitude":"16.87N","longitude":"97.12E"}
{"date":"2013-05-01","average_temperature":"29.164","city":"Thaton","latitude":"16.87N","longitude":"97.12E"}
{"date":"2010-12-01","average_temperature":"10.237","city":"Thousand Oaks","latitude":"34.56N","longitude":"118.70W"}
{"date":"2012-12-01","average_temperature":"27.68","city":"Thrissur","latitude":"10.45N","longitude":"76.09E"}
{"date":"2010-11-01","average_temperature":"9.515","city":"Tokorozawa","latitude":"36.17N","longitude":"139.23E"}
{"date":"2011-08-01","average_temperature":"27.79","city":"Tokuyama","latitude":"34.56N","longitude":"132.32E"}
{"date":"2011-04-01","average_temperature":"27.910999999999998","city":"Toledo","latitude":"10.45N","longitude":"123.55E"}
{"date":"2013-01-01","average_temperature":"18.463","city":"Tonalá","latitude":"20.09N","longitude":"104.08W"}
{"date":"2013-03-01","average_temperature":"-1.8619999999999999","city":"Toronto","latitude":"44.20N","longitude":"80.50W"}
{"date":"2011-05-01","average_temperature":"16.235","city":"Toulouse","latitude":"44.20N","longitude":"2.24E"}
{"date":"2010-06-01","average_temperature":"17.706","city":"Trier","latitude":"49.03N","longitude":"7.35E"}
{"date":"2011-07-01","average_temperature":"16.689","city":"Trier","latitude":"49.03N","longitude":"7.35E"}
{"date":"2010-11-01","average_temperature":"8.780000000000001","city":"Trieste","latitude":"45.81N","longitude":"12.69E"}
{"date":"2011-01-01","average_temperature":"2.714","city":"Trieste","latitude":"45.81N","longitude":"12.69E"}
{"date":"2013-08-01","average_temperature":"27.778000000000002","city":"Tripoli","latitude":"32.95N","longitude":"12.45E"}
{"date":"2011-07-01","average_temperature":"31.885","city":"Tulsa","latitude":"36.17N","longitude":"95.47W"}
{"date":"2010-11-01","average_temperature":"23.65","city":"Tumkur","latitude":"13.66N","longitude":"76.79E"}
{"date":"2010-07-01","average_temperature":"19.246","city":"Tunja","latitude":"5.63N","longitude":"72.65W"}
{"date":"2013-07-01","average_temperature":"26.326","city":"Tuxtla Gutiérrez","latitude":"16.87N","longitude":"93.77W"}
{"date":"2012-03-01","average_temperature":"9.184","city":"Ube","latitude":"34.56N","longitude":"130.38E"}
{"date":"2010-08-01","average_temperature":"16.817","city":"Uitenhage","latitude":"34.56S","longitude":"25.30E"}
{"date":"2012-05-01","average_temperature":"17.212999999999994","city":"Uitenhage","latitude":"34.56S","longitude":"25.30E"}
{"date":"2011-11-01","average_temperature":"-11.792000000000002","city":"Ulan Ude","latitude":"52.24N","longitude":"107.74E"}
{"date":"2011-08-01","average_temperature":"27.122","city":"Ulhasnagar","latitude":"18.48N","longitude":"72.68E"}
{"date":"2010-03-01","average_temperature":"28.677","city":"Vejalpur","latitude":"23.31N","longitude":"74.27E"}
{"date":"2011-04-01","average_temperature":"14.067","city":"Venice","latitude":"45.81N","longitude":"12.69E"}
{"date":"2010-02-01","average_temperature":"25.511999999999997","city":"Viamão","latitude":"29.74S","longitude":"51.69W"}
{"date":"2011-03-01","average_temperature":"21.361","city":"Vientiane","latitude":"18.48N","longitude":"103.10E"}
{"date":"2013-07-01","average_temperature":"27.83","city":"Vientiane","latitude":"18.48N","longitude":"103.10E"}
{"date":"2010-09-01","average_temperature":"22.614","city":"Vila Velha","latitude":"20.09S","longitude":"40.95W"}
{"date":"2013-08-01","average_temperature":"18.633000000000006","city":"Villeurbanne","latitude":"45.81N","longitude":"5.77E"}
{"date":"2013-02-01","average_temperature":"-0.4820000000000002","city":"Vinnitsa","latitude":"49.03N","longitude":"29.39E"}
{"date":"2011-12-01","average_temperature":"3.238","city":"Viransehir","latitude":"37.78N","longitude":"40.68E"}
{"date":"2012-02-01","average_temperature":"24.004","city":"Visakhapatnam","latitude":"18.48N","longitude":"82.82E"}
{"date":"2010-04-01","average_temperature":"12.005","city":"Visalia","latitude":"36.17N","longitude":"119.34W"}
{"date":"2013-06-01","average_temperature":"20.848000000000003","city":"Vitória","latitude":"20.09S","longitude":"40.95W"}
{"date":"2010-02-01","average_temperature":"25.644","city":"Vitória Da Conquista","latitude":"15.27S","longitude":"40.83W"}
{"date":"2011-11-01","average_temperature":"1.882","city":"Vladivostok","latitude":"42.59N","longitude":"130.91E"}
{"date":"2013-07-01","average_temperature":"11.799","city":"Vryheid","latitude":"28.13S","longitude":"30.00E"}
{"date":"2010-03-01","average_temperature":"19.054","city":"Waitakere","latitude":"36.17S","longitude":"175.03E"}
{"date":"2012-01-01","average_temperature":"-0.06499999999999995","city":"Walbrzych","latitude":"50.63N","longitude":"16.48E"}
{"date":"2012-08-01","average_temperature":"26.643","city":"Waru","latitude":"7.23S","longitude":"112.70E"}
{"date":"2010-03-01","average_temperature":"2.455","city":"Weihai","latitude":"37.78N","longitude":"122.03E"}
{"date":"2012-02-01","average_temperature":"6.930999999999999","city":"Wenzhou","latitude":"28.13N","longitude":"120.91E"}
{"date":"2012-09-01","average_temperature":"24.745","city":"West Covina","latitude":"34.56N","longitude":"118.70W"}
{"date":"2013-09-01","city":"Wiesbaden","latitude":"50.63N","longitude":"8.87E"}
{"date":"2010-05-01","average_temperature":"21.307","city":"Winston Salem","latitude":"36.17N","longitude":"79.56W"}
{"date":"2010-11-01","average_temperature":"9.58","city":"Winston Salem","latitude":"36.17N","longitude":"79.56W"}
{"date":"2011-12-01","average_temperature":"19.751","city":"Witbank","latitude":"26.52S","longitude":"28.66E"}
{"date":"2011-05-01","average_temperature":"14.767000000000001","city":"Wloclawek","latitude":"52.24N","longitude":"18.39E"}
{"date":"2013-02-01","average_temperature":"-4.031000000000001","city":"Wuda","latitude":"39.38N","longitude":"106.13E"}
{"date":"2013-04-01","average_temperature":"16.343","city":"Wufeng","latitude":"28.13N","longitude":"104.55E"}
{"date":"2013-08-01","average_temperature":"31.05","city":"Wuhan","latitude":"29.74N","longitude":"114.46E"}
{"date":"2011-08-01","average_temperature":"27.805999999999997","city":"Wuxi","latitude":"31.35N","longitude":"120.63E"}
{"date":"2013-03-01","average_temperature":"25.231","city":"Xai Xai","latitude":"24.92S","longitude":"33.69E"}
{"date":"2010-06-01","average_temperature":"19.589","city":"Xico","latitude":"20.09N","longitude":"98.96W"}
{"date":"2011-12-01","average_temperature":"-9.499","city":"Xining","latitude":"36.17N","longitude":"101.44E"}
{"date":"2011-06-01","average_temperature":"20.823","city":"Xuanhua","latitude":"40.99N","longitude":"115.03E"}
{"date":"2011-10-01","average_temperature":"15.488","city":"Yachiyo","latitude":"36.17N","longitude":"139.23E"}
{"date":"2013-04-01","average_temperature":"14.461","city":"Yaizu","latitude":"34.56N","longitude":"138.16E"}
{"date":"2011-07-01","average_temperature":"27.603","city":"Yancheng","latitude":"32.95N","longitude":"119.68E"}
{"date":"2012-10-01","average_temperature":"17.692","city":"Yancheng","latitude":"32.95N","longitude":"119.68E"}
{"date":"2010-01-01","average_temperature":"-2.053","city":"Yantai","latitude":"37.78N","longitude":"122.03E"}
{"date":"2013-01-01","average_temperature":"3.227","city":"Yatsushiro","latitude":"32.95N","longitude":"131.17E"}
{"date":"2012-06-01","average_temperature":"29.08","city":"Yenangyaung","latitude":"20.09N","longitude":"95.55E"}
{"date":"2010-11-01","average_temperature":"11.447","city":"Yibin","latitude":"28.13N","longitude":"104.55E"}
{"date":"2012-05-01","average_temperature":"24.498","city":"Yingcheng","latitude":"24.92N","longitude":"113.50E"}
{"date":"2013-04-01","average_temperature":"18.607000000000006","city":"Yingcheng","latitude":"24.92N","longitude":"113.50E"}
{"date":"2013-06-01","average_temperature":"26.51","city":"Yiyang","latitude":"28.13N","longitude":"111.82E"}
{"date":"2012-05-01","average_temperature":"19.28","city":"Yokosuka","latitude":"34.56N","longitude":"140.11E"}
{"date":"2012-06-01","average_temperature":"24.565","city":"Yushan","latitude":"31.35N","longitude":"120.63E"}
{"date":"2011-08-01","average_temperature":"16.975","city":"Zaanstad","latitude":"52.24N","longitude":"5.26E"}
{"date":"2013-05-01","average_temperature":"11.464","city":"Zaanstad","latitude":"52.24N","longitude":"5.26E"}
{"date":"2010-11-01","average_temperature":"16.630000000000006","city":"Zamora","latitude":"20.09N","longitude":"102.37W"}
{"date":"2012-12-01","average_temperature":"16.262999999999998","city":"Zamora","latitude":"20.09N","longitude":"102.37W"}
{"date":"2012-06-01","average_temperature":"20.647","city":"Zenica","latitude":"44.20N","longitude":"17.89E"}
{"date":"2011-01-01","average_temperature":"-14.259","city":"Zhangjiakou","latitude":"40.99N","longitude":"115.03E"}
{"date":"2013-01-01","average_temperature":"-2.345","city":"Zhaocheng","latitude":"37.78N","longitude":"120.00E"}
{"date":"2011-03-01","average_temperature":"16.783","city":"Zhongshan","latitude":"21.70N","longitude":"113.37E"}
{"date":"2012-11-01","average_temperature":"8.655","city":"Zhoukou","latitude":"32.95N","longitude":"113.94E"}
{"date":"2011-05-01","average_temperature":"22.105","city":"Zhuzhou","latitude":"28.13N","longitude":"113.64E"}
{"date":"2010-10-01","average_temperature":"10.279000000000002","city":"Zoetermeer","latitude":"52.24N","longitude":"5.26E"}
