{"date":"2012-03-01","average_temperature":"12.798","city":"A Coruña","latitude":"42.59N","longitude":"8.73W"}
{"date":"2010-02-01","average_temperature":"1.158","city":"Aachen","latitude":"50.63N","longitude":"6.34E"}
{"date":"2011-12-01","average_temperature":"3.843","city":"Aalborg","latitude":"57.05N","longitude":"10.33E"}
{"date":"2010-06-01","average_temperature":"37.103","city":"Abadan","latitude":"29.74N","longitude":"48.00E"}
{"date":"2011-12-01","average_temperature":"26.978","city":"Abakaliki","latitude":"5.63N","longitude":"8.07E"}
{"date":"2011-12-01","average_temperature":"14.482","city":"Abohar","latitude":"29.74N","longitude":"73.85E"}
{"date":"2011-05-01","average_temperature":"27.706999999999997","city":"Acarigua","latitude":"8.84N","longitude":"68.92W"}
{"date":"2010-12-01","average_temperature":"27.89","city":"Accra","latitude":"5.63N","longitude":"0.00W"}
{"date":"2011-12-01","average_temperature":"20.380000000000006","city":"Achalpur","latitude":"21.70N","longitude":"77.02E"}
{"date":"2013-01-01","average_temperature":"12.675999999999998","city":"Agadir","latitude":"29.74N","longitude":"9.23W"}
{"date":"2013-01-01","average_temperature":"17.009","city":"Agartala","latitude":"23.31N","longitude":"91.75E"}
{"date":"2013-02-01","average_temperature":"21.961","city":"Agartala","latitude":"23.31N","longitude":"91.75E"}
{"date":"2011-12-01","average_temperature":"3.25","city":"Akishima","latitude":"36.17N","longitude":"139.23E"}
{"date":"2012-07-01","average_temperature":"9.036","city":"Alberton","latitude":"26.52S","longitude":"28.66E"}
{"date":"2012-06-01","average_temperature":"28.917","city":"Aleppo","latitude":"36.17N","longitude":"37.79E"}
{"date":"2010-02-01","average_temperature":"10.894","city":"Algiers","latitude":"36.17N","longitude":"3.98E"}
{"date":"2011-09-01","average_temperature":"23.851000000000006","city":"Amagasaki","latitude":"34.56N","longitude":"136.22E"}
{"date":"2012-09-01","average_temperature":"22.671999999999997","city":"Amarillo","latitude":"34.56N","longitude":"101.19W"}
{"date":"2011-03-01","average_temperature":"21.821","city":"Ambala","latitude":"29.74N","longitude":"77.54E"}
{"date":"2013-09-01","city":"Ambur","latitude":"12.05N","longitude":"78.90E"}
{"date":"2012-02-01","average_temperature":"21.224","city":"Anand","latitude":"23.31N","longitude":"72.52E"}
{"date":"2013-02-01","average_temperature":"27.426","city":"Anantapur","latitude":"15.27N","longitude":"77.50E"}
{"date":"2012-10-01","average_temperature":"23.471","city":"Anbu","latitude":"23.31N","longitude":"116.21E"}
{"date":"2011-03-01","average_temperature":"9.384","city":"Ancona","latitude":"44.20N","longitude":"13.42E"}
{"date":"2011-09-01","average_temperature":"23.285","city":"Ancona","latitude":"44.20N","longitude":"13.42E"}
{"date":"2010-12-01","average_temperature":"0.6819999999999999","city":"Anqiu","latitude":"36.17N","longitude":"119.34E"}
{"date":"2010-11-01","average_temperature":"10.475999999999999","city":"Anshun","latitude":"26.52N","longitude":"105.67E"}
{"date":"2013-03-01","average_temperature":"22.214000000000002","city":"Antananarivo","latitude":"18.48S","longitude":"47.32E"}
{"date":"2010-01-01","average_temperature":"24.885","city":"Apucarana","latitude":"23.31S","longitude":"51.55W"}
{"date":"2012-03-01","average_temperature":"24.462","city":"Araraquara","latitude":"21.70S","longitude":"47.60W"}
{"date":"2013-09-01","city":"Araucária","latitude":"24.92S","longitude":"49.66W"}
{"date":"2011-08-01","average_temperature":"22.918000000000003","city":"Ardabil","latitude":"37.78N","longitude":"48.81E"}
{"date":"2010-11-01","average_temperature":"21.048","city":"Armenia","latitude":"4.02N","longitude":"76.34W"}
{"date":"2012-12-01","average_temperature":"4.303","city":"Arnhem","latitude":"52.24N","longitude":"5.26E"}
{"date":"2010-04-01","average_temperature":"1.069","city":"Arvada","latitude":"39.38N","longitude":"106.13W"}
{"date":"2012-03-01","average_temperature":"1.078","city":"Astrakhan","latitude":"45.81N","longitude":"47.31E"}
{"date":"2013-02-01","average_temperature":"27.533","city":"Asunción","latitude":"24.92S","longitude":"58.52W"}
{"date":"2013-02-01","average_temperature":"20.072","city":"Aswan","latitude":"23.31N","longitude":"32.33E"}
{"date":"2011-06-01","average_temperature":"24.234","city":"Atyrau","latitude":"47.42N","longitude":"50.92E"}
{"date":"2011-12-01","average_temperature":"20.744","city":"Aurangabad","latitude":"20.09N","longitude":"75.07E"}
{"date":"2013-06-01","average_temperature":"32.996","city":"Avadi","latitude":"13.66N","longitude":"80.09E"}
{"date":"2011-04-01","average_temperature":"11.129000000000001","city":"Ayacucho","latitude":"13.66S","longitude":"73.49W"}
{"date":"2013-01-01","average_temperature":"13.755999999999998","city":"Bahadurgarh","latitude":"28.13N","longitude":"77.27E"}
{"date":"2010-06-01","average_temperature":"34.664","city":"Bahawalnagar","latitude":"29.74N","longitude":"73.85E"}
{"date":"2012-03-01","average_temperature":"11.264","city":"Bakersfield","latitude":"36.17N","longitude":"119.34W"}
{"date":"2010-01-01","average_temperature":"2.417","city":"Baku","latitude":"40.99N","longitude":"48.99E"}
{"date":"2010-07-01","average_temperature":"27.0","city":"Baku","latitude":"40.99N","longitude":"48.99E"}
{"date":"2010-09-01","average_temperature":"11.602","city":"Balashikha","latitude":"55.45N","longitude":"36.85E"}
{"date":"2011-09-01","average_temperature":"28.543000000000003","city":"Baleshwar","latitude":"21.70N","longitude":"87.40E"}
{"date":"2010-06-01","average_temperature":"28.514","city":"Baliuag","latitude":"15.27N","longitude":"120.83E"}
{"date":"2012-10-01","average_temperature":"27.427","city":"Bally","latitude":"23.31N","longitude":"88.25E"}
{"date":"2012-08-01","average_temperature":"27.338","city":"Bandar Maharani","latitude":"2.41N","longitude":"102.05E"}
{"date":"2013-05-01","average_temperature":"30.921","city":"Bansbaria","latitude":"23.31N","longitude":"88.25E"}
{"date":"2011-10-01","average_temperature":"28.097","city":"Barddhaman","latitude":"23.31N","longitude":"88.25E"}
{"date":"2010-04-01","average_temperature":"14.353","city":"Bari","latitude":"40.99N","longitude":"17.04E"}
{"date":"2011-12-01","average_temperature":"19.654","city":"Barisal","latitude":"23.31N","longitude":"90.00E"}
{"date":"2012-02-01","average_temperature":"22.051","city":"Barisal","latitude":"23.31N","longitude":"90.00E"}
{"date":"2012-07-01","average_temperature":"29.217","city":"Barisal","latitude":"23.31N","longitude":"90.00E"}
{"date":"2010-03-01","average_temperature":"27.163","city":"Bata","latitude":"2.41N","longitude":"10.45E"}
{"date":"2011-07-01","average_temperature":"24.193","city":"Bata","latitude":"2.41N","longitude":"10.45E"}
{"date":"2013-08-01","average_temperature":"29.915","city":"Batman","latitude":"37.78N","longitude":"40.68E"}
{"date":"2011-06-01","average_temperature":"26.144000000000002","city":"Baturaja","latitude":"4.02S","longitude":"103.66E"}
{"date":"2010-01-01","average_temperature":"25.057","city":"Bauru","latitude":"21.70S","longitude":"49.33W"}
{"date":"2012-02-01","average_temperature":"25.47","city":"Bayamo","latitude":"20.09N","longitude":"76.78W"}
{"date":"2010-04-01","average_temperature":"21.984","city":"Beihai","latitude":"21.70N","longitude":"109.90E"}
{"date":"2013-01-01","average_temperature":"27.200000000000006","city":"Beira","latitude":"20.09S","longitude":"34.12E"}
{"date":"2010-08-01","average_temperature":"19.864","city":"Bello","latitude":"5.63N","longitude":"75.87W"}
{"date":"2011-07-01","average_temperature":"24.864","city":"Benghazi","latitude":"32.95N","longitude":"20.11E"}
{"date":"2012-02-01","average_temperature":"-8.049000000000001","city":"Benxi","latitude":"40.99N","longitude":"123.55E"}
{"date":"2013-09-01","city":"Berezniki","latitude":"58.66N","longitude":"55.38E"}
{"date":"2013-02-01","average_temperature":"-0.27","city":"Bergamo","latitude":"45.81N","longitude":"10.38E"}
{"date":"2013-05-01","average_temperature":"13.17","city":"Bergamo","latitude":"45.81N","longitude":"10.38E"}
{"date":"2010-12-01","average_temperature":"-2.423","city":"Bergisch Gladbach","latitude":"50.63N","longitude":"6.34E"}
{"date":"2011-03-01","average_temperature":"4.699999999999998","city":"Bern","latitude":"47.42N","longitude":"8.29E"}
{"date":"2012-07-01","average_temperature":"16.395","city":"Bern","latitude":"47.42N","longitude":"8.29E"}
{"date":"2010-10-01","average_temperature":"26.164","city":"Bhilai","latitude":"21.70N","longitude":"82.21E"}
{"date":"2011-06-01","average_temperature":"18.005","city":"Bialystok","latitude":"53.84N","longitude":"23.18E"}
{"date":"2013-04-01","average_temperature":"30.069000000000003","city":"Bikaner","latitude":"28.13N","longitude":"73.64E"}
{"date":"2012-10-01","average_temperature":"10.095","city":"Bila Tserkva","latitude":"49.03N","longitude":"29.39E"}
{"date":"2013-03-01","average_temperature":"26.818","city":"Binangonan","latitude":"13.66N","longitude":"121.38E"}
{"date":"2010-02-01","average_temperature":"27.809","city":"Binjai","latitude":"4.02N","longitude":"98.84E"}
{"date":"2013-06-01","average_temperature":"21.37","city":"Birigui","latitude":"21.70S","longitude":"51.06W"}
{"date":"2013-02-01","average_temperature":"9.448","city":"Birjand","latitude":"32.95N","longitude":"58.40E"}
{"date":"2013-07-01","average_temperature":"26.171","city":"Birmingham","latitude":"32.95N","longitude":"87.13W"}
{"date":"2010-11-01","average_temperature":"27.476","city":"Bissau","latitude":"12.05N","longitude":"14.79W"}
{"date":"2010-10-01","average_temperature":"26.732","city":"Bitung","latitude":"0.80N","longitude":"124.55E"}
{"date":"2011-02-01","average_temperature":"7.167999999999999","city":"Blackpool","latitude":"53.84N","longitude":"4.09W"}
{"date":"2010-05-01","average_temperature":"12.892","city":"Bloemfontein","latitude":"29.74S","longitude":"25.85E"}
{"date":"2012-03-01","average_temperature":"24.444000000000006","city":"Blumenau","latitude":"26.52S","longitude":"48.36W"}
{"date":"2010-08-01","average_temperature":"26.051","city":"Bohicon","latitude":"7.23N","longitude":"2.43E"}
{"date":"2010-04-01","average_temperature":"32.738","city":"Bokaro","latitude":"23.31N","longitude":"86.50E"}
{"date":"2011-11-01","average_temperature":"8.651","city":"Bolton","latitude":"53.84N","longitude":"1.36W"}
{"date":"2013-01-01","average_temperature":"0.904","city":"Bonn","latitude":"50.63N","longitude":"6.34E"}
{"date":"2012-08-01","average_temperature":"25.441000000000006","city":"Borujerd","latitude":"34.56N","longitude":"48.65E"}
{"date":"2013-07-01","average_temperature":"23.629","city":"Boston","latitude":"42.59N","longitude":"72.00W"}
{"date":"2012-06-01","average_temperature":"21.791","city":"Botosani","latitude":"47.42N","longitude":"27.24E"}
{"date":"2010-01-01","average_temperature":"-2.3070000000000004","city":"Bottrop","latitude":"52.24N","longitude":"7.88E"}
{"date":"2013-09-01","city":"Bozhou","latitude":"32.95N","longitude":"115.85E"}
{"date":"2012-02-01","average_temperature":"3.855","city":"Bradford","latitude":"53.84N","longitude":"1.36W"}
{"date":"2010-11-01","average_temperature":"21.508000000000003","city":"Bragança Paulista","latitude":"23.31S","longitude":"46.31W"}
{"date":"2013-08-01","average_temperature":"12.214","city":"Brakpan","latitude":"26.52S","longitude":"28.66E"}
{"date":"2010-04-01","average_temperature":"22.982","city":"Brasília","latitude":"15.27S","longitude":"47.50W"}
{"date":"2012-08-01","average_temperature":"14.057","city":"Bratsk","latitude":"55.45N","longitude":"102.05E"}
{"date":"2010-06-01","average_temperature":"23.72","city":"Brazzaville","latitude":"4.02S","longitude":"15.27E"}
{"date":"2011-10-01","average_temperature":"9.993","city":"Bremen","latitude":"53.84N","longitude":"9.55E"}
{"date":"2012-06-01","average_temperature":"19.392","city":"Brescia","latitude":"45.81N","longitude":"10.38E"}
{"date":"2011-05-01","average_temperature":"15.056","city":"Brugge","latitude":"50.63N","longitude":"3.80E"}
{"date":"2010-06-01","average_temperature":"16.609","city":"Brunswick","latitude":"52.24N","longitude":"10.51E"}
{"date":"2012-09-01","average_temperature":"29.246","city":"Budaun","latitude":"28.13N","longitude":"79.09E"}
{"date":"2012-11-01","average_temperature":"22.083000000000002","city":"Buenaventura","latitude":"4.02N","longitude":"76.34W"}
{"date":"2011-08-01","average_temperature":"26.422","city":"Bugama","latitude":"4.02N","longitude":"7.23E"}
{"date":"2012-04-01","average_temperature":"27.78","city":"Bugama","latitude":"4.02N","longitude":"7.23E"}
{"date":"2011-11-01","average_temperature":"14.734000000000002","city":"Buhe","latitude":"29.74N","longitude":"112.62E"}
{"date":"2011-09-01","average_temperature":"22.03","city":"Bujumbura","latitude":"4.02S","longitude":"29.73E"}
{"date":"2013-07-01","average_temperature":"27.266","city":"Bulaon","latitude":"15.27N","longitude":"120.83E"}
{"date":"2013-05-01","average_temperature":"19.028","city":"Burbank","latitude":"34.56N","longitude":"118.70W"}
{"date":"2010-06-01","average_temperature":"18.182","city":"Buzau","latitude":"45.81N","longitude":"26.54E"}
{"date":"2011-10-01","average_temperature":"9.055","city":"Bydgoszcz","latitude":"53.84N","longitude":"17.73E"}
{"date":"2010-11-01","average_temperature":"20.79","city":"Cúcuta","latitude":"7.23N","longitude":"72.16W"}
{"date":"2013-04-01","average_temperature":"25.357","city":"Cabo Frio","latitude":"23.31S","longitude":"42.82W"}
{"date":"2011-09-01","average_temperature":"26.008000000000003","city":"Cabudare","latitude":"10.45N","longitude":"69.55W"}
{"date":"2012-06-01","average_temperature":"27.22","city":"Cagua","latitude":"10.45N","longitude":"67.91W"}
{"date":"2011-02-01","average_temperature":"16.242","city":"Cairo","latitude":"29.74N","longitude":"31.38E"}
{"date":"2011-08-01","average_temperature":"27.222","city":"Calabozo","latitude":"8.84N","longitude":"67.30W"}
{"date":"2012-05-01","average_temperature":"26.185","city":"Camaçari","latitude":"12.05S","longitude":"37.81W"}
{"date":"2012-09-01","average_temperature":"25.37","city":"Camaçari","latitude":"12.05S","longitude":"37.81W"}
{"date":"2011-09-01","average_temperature":"25.368","city":"Camaragibe","latitude":"7.23S","longitude":"34.86W"}
{"date":"2013-02-01","average_temperature":"3.087","city":"Cambridge","latitude":"52.24N","longitude":"0.00W"}
{"date":"2011-07-01","average_temperature":"22.479000000000006","city":"Campo Grande","latitude":"20.09S","longitude":"54.60W"}
{"date":"2012-02-01","average_temperature":"23.445","city":"Cancún","latitude":"21.70N","longitude":"87.40W"}
{"date":"2013-06-01","average_temperature":"13.77","city":"Canoas","latitude":"29.74S","longitude":"51.69W"}
{"date":"2012-07-01","average_temperature":"26.355","city":"Carúpano","latitude":"10.45N","longitude":"63.00W"}
{"date":"2011-01-01","average_temperature":"3.263","city":"Cardiff","latitude":"52.24N","longitude":"2.63W"}
{"date":"2012-09-01","average_temperature":"23.982","city":"Cartagena","latitude":"37.78N","longitude":"0.00W"}
{"date":"2010-06-01","average_temperature":"22.296999999999997","city":"Cartago","latitude":"4.02N","longitude":"76.34W"}
{"date":"2012-08-01","average_temperature":"21.844","city":"Cedar Rapids","latitude":"42.59N","longitude":"91.64W"}
{"date":"2011-04-01","average_temperature":"24.298","city":"Chakwal","latitude":"32.95N","longitude":"73.72E"}
{"date":"2011-06-01","average_temperature":"28.813000000000002","city":"Chandpur","latitude":"23.31N","longitude":"90.00E"}
{"date":"2011-03-01","average_temperature":"2.551","city":"Chaoyang","latitude":"40.99N","longitude":"121.42E"}
{"date":"2011-06-01","average_temperature":"29.585","city":"Chas","latitude":"23.31N","longitude":"86.50E"}
{"date":"2010-04-01","average_temperature":"15.248","city":"Chenzhou","latitude":"26.52N","longitude":"112.84E"}
{"date":"2010-09-01","average_temperature":"24.534000000000002","city":"Chenzhou","latitude":"26.52N","longitude":"112.84E"}
{"date":"2010-01-01","average_temperature":"14.282","city":"Chhapra","latitude":"26.52N","longitude":"84.18E"}
{"date":"2010-09-01","average_temperature":"29.305","city":"Chhapra","latitude":"26.52N","longitude":"84.18E"}
{"date":"2010-12-01","average_temperature":"17.039","city":"Chhapra","latitude":"26.52N","longitude":"84.18E"}
{"date":"2010-10-01","average_temperature":"26.252","city":"Chhindwara","latitude":"21.70N","longitude":"78.75E"}
{"date":"2011-01-01","average_temperature":"-12.978000000000002","city":"Chifeng","latitude":"42.59N","longitude":"120.00E"}
{"date":"2012-10-01","average_temperature":"8.375","city":"Chifeng","latitude":"42.59N","longitude":"120.00E"}
{"date":"2013-07-01","average_temperature":"18.090999999999998","city":"Chimalhuacán","latitude":"20.09N","longitude":"98.96W"}
{"date":"2013-02-01","average_temperature":"20.816","city":"Chimbote","latitude":"8.84S","longitude":"78.65W"}
{"date":"2013-01-01","average_temperature":"22.201","city":"Chingola","latitude":"12.05S","longitude":"27.95E"}
{"date":"2011-10-01","average_temperature":"26.483","city":"Chiniot","latitude":"31.35N","longitude":"73.51E"}
{"date":"2010-12-01","average_temperature":"22.305999999999997","city":"Chitungwiza","latitude":"18.48S","longitude":"30.42E"}
{"date":"2010-01-01","average_temperature":"3.993","city":"Chizhou","latitude":"31.35N","longitude":"116.86E"}
{"date":"2011-01-01","average_temperature":"19.064","city":"Chosica","latitude":"12.05S","longitude":"77.26W"}
{"date":"2011-04-01","average_temperature":"28.79","city":"Churu","latitude":"28.13N","longitude":"75.45E"}
{"date":"2010-08-01","average_temperature":"25.756999999999998","city":"Ciamis","latitude":"7.23S","longitude":"107.84E"}
{"date":"2013-01-01","average_temperature":"26.244","city":"Cibadak","latitude":"7.23S","longitude":"106.22E"}
{"date":"2013-09-01","city":"Cibadak","latitude":"7.23S","longitude":"106.22E"}
{"date":"2013-09-01","city":"Cikampek","latitude":"7.23S","longitude":"107.84E"}
{"date":"2012-10-01","average_temperature":"22.311999999999998","city":"Ciudad Valles","latitude":"21.70N","longitude":"99.52W"}
{"date":"2011-10-01","average_temperature":"12.774","city":"Colchester","latitude":"52.24N","longitude":"0.00W"}
{"date":"2010-05-01","average_temperature":"10.625","city":"Cologne","latitude":"50.63N","longitude":"6.34E"}
{"date":"2011-01-01","average_temperature":"24.595","city":"Colombo","latitude":"7.23N","longitude":"80.27E"}
{"date":"2013-04-01","average_temperature":"28.377","city":"Colombo","latitude":"7.23N","longitude":"80.27E"}
{"date":"2012-06-01","average_temperature":"3.64","city":"Comodoro Rivadavia","latitude":"45.81S","longitude":"68.08W"}
{"date":"2011-01-01","average_temperature":"1.8230000000000002","city":"Constanta","latitude":"44.20N","longitude":"29.07E"}
{"date":"2013-05-01","average_temperature":"16.836","city":"Constantine","latitude":"36.17N","longitude":"5.97E"}
{"date":"2012-08-01","average_temperature":"19.983","city":"Contagem","latitude":"20.09S","longitude":"44.36W"}
{"date":"2010-04-01","average_temperature":"9.961","city":"Copiapo","latitude":"28.13S","longitude":"70.00W"}
{"date":"2011-06-01","average_temperature":"15.22","city":"Coquimbo","latitude":"29.74S","longitude":"72.00W"}
{"date":"2010-02-01","average_temperature":"13.774000000000001","city":"Corona","latitude":"32.95N","longitude":"117.77W"}
{"date":"2011-07-01","average_temperature":"12.764","city":"Criciúma","latitude":"28.13S","longitude":"50.00W"}
{"date":"2010-12-01","average_temperature":"11.375","city":"Cuautitlán Izcalli","latitude":"20.09N","longitude":"98.96W"}
{"date":"2012-06-01","average_temperature":"23.656999999999996","city":"Cuiabá","latitude":"15.27S","longitude":"55.83W"}
{"date":"2012-03-01","average_temperature":"25.965","city":"Cumaná","latitude":"10.45N","longitude":"64.64W"}
{"date":"2013-05-01","average_temperature":"12.069","city":"Curico","latitude":"34.56S","longitude":"72.00W"}
{"date":"2011-05-01","average_temperature":"15.449000000000002","city":"Curitiba","latitude":"24.92S","longitude":"49.66W"}
{"date":"2011-11-01","average_temperature":"3.315","city":"Czestochowa","latitude":"50.63N","longitude":"19.01E"}
{"date":"2010-11-01","average_temperature":"23.131999999999998","city":"Da Lat","latitude":"12.05N","longitude":"108.49E"}
{"date":"2011-02-01","average_temperature":"18.725","city":"Dadu","latitude":"26.52N","longitude":"68.06E"}
{"date":"2011-08-01","average_temperature":"29.5","city":"Daliang","latitude":"23.31N","longitude":"112.72E"}
{"date":"2010-07-01","average_temperature":"28.225","city":"Damaturu","latitude":"12.05N","longitude":"11.51E"}
{"date":"2012-10-01","average_temperature":"25.491999999999997","city":"Damoh","latitude":"23.31N","longitude":"79.51E"}
{"date":"2013-03-01","average_temperature":"27.189","city":"Davao","latitude":"7.23N","longitude":"125.68E"}
{"date":"2012-03-01","average_temperature":"7.917999999999998","city":"Denver","latitude":"39.38N","longitude":"104.05W"}
{"date":"2010-12-01","average_temperature":"12.889000000000001","city":"Dera Ghazi Khan","latitude":"29.74N","longitude":"70.15E"}
{"date":"2011-09-01","average_temperature":"18.617","city":"Derbent","latitude":"42.59N","longitude":"48.00E"}
{"date":"2011-11-01","average_temperature":"8.128","city":"Deyang","latitude":"31.35N","longitude":"103.66E"}
{"date":"2012-01-01","average_temperature":"-2.7910000000000004","city":"Dezhou","latitude":"37.78N","longitude":"115.93E"}
{"date":"2013-09-01","city":"Dharan","latitude":"26.52N","longitude":"87.76E"}
{"date":"2013-04-01","average_temperature":"30.452","city":"Dhule","latitude":"20.09N","longitude":"75.07E"}
{"date":"2013-09-01","city":"Dhule","latitude":"20.09N","longitude":"75.07E"}
{"date":"2011-08-01","average_temperature":"21.697","city":"Didao","latitude":"45.81N","longitude":"130.38E"}
{"date":"2012-01-01","average_temperature":"-19.998","city":"Didao","latitude":"45.81N","longitude":"130.38E"}
{"date":"2011-10-01","average_temperature":"26.453000000000007","city":"Digos","latitude":"7.23N","longitude":"125.68E"}
{"date":"2012-07-01","average_temperature":"27.839","city":"Dimapur","latitude":"26.52N","longitude":"93.13E"}
{"date":"2012-11-01","average_temperature":"26.399","city":"Dire Dawa","latitude":"10.45N","longitude":"41.73E"}
{"date":"2011-05-01","average_temperature":"14.065999999999999","city":"Dordrecht","latitude":"52.24N","longitude":"5.26E"}
{"date":"2011-04-01","average_temperature":"19.223000000000006","city":"Dos Quebradas","latitude":"5.63N","longitude":"75.87W"}
{"date":"2011-12-01","average_temperature":"25.873","city":"Douala","latitude":"4.02N","longitude":"10.45E"}
{"date":"2012-11-01","average_temperature":"5.337999999999999","city":"Dresden","latitude":"50.63N","longitude":"13.94E"}
{"date":"2011-01-01","average_temperature":"25.287000000000006","city":"Dumaguete","latitude":"8.84N","longitude":"124.05E"}
{"date":"2012-03-01","average_temperature":"6.787999999999999","city":"Dundee","latitude":"57.05N","longitude":"4.43W"}
{"date":"2010-10-01","average_temperature":"20.207","city":"Durban","latitude":"29.74S","longitude":"31.38E"}
{"date":"2011-02-01","average_temperature":"7.138999999999999","city":"Durham","latitude":"36.17N","longitude":"79.56W"}
{"date":"2010-08-01","average_temperature":"25.831999999999997","city":"Durrës","latitude":"40.99N","longitude":"19.17E"}
{"date":"2013-04-01","average_temperature":"4.573","city":"Dzerzhinsk","latitude":"57.05N","longitude":"42.79E"}
{"date":"2010-03-01","average_temperature":"6.706","city":"Eastbourne","latitude":"50.63N","longitude":"1.27E"}
{"date":"2010-11-01","average_temperature":"25.3","city":"Edéa","latitude":"4.02N","longitude":"10.45E"}
{"date":"2010-06-01","average_temperature":"20.936999999999998","city":"Edirne","latitude":"42.59N","longitude":"26.18E"}
{"date":"2011-06-01","average_temperature":"23.988000000000003","city":"Ejido","latitude":"8.84N","longitude":"70.54W"}
{"date":"2010-10-01","average_temperature":"26.311999999999998","city":"Ejigbo","latitude":"7.23N","longitude":"4.05E"}
{"date":"2013-06-01","average_temperature":"25.809","city":"Ejigbo","latitude":"7.23N","longitude":"4.05E"}
{"date":"2011-10-01","average_temperature":"24.108","city":"El Mahalla El Kubra","latitude":"31.35N","longitude":"32.04E"}
{"date":"2012-05-01","average_temperature":"14.359000000000002","city":"Elblag","latitude":"53.84N","longitude":"20.45E"}
{"date":"2011-08-01","average_temperature":"20.713","city":"Ensenada","latitude":"31.35N","longitude":"116.86W"}
{"date":"2012-09-01","average_temperature":"22.19","city":"Ensenada","latitude":"31.35N","longitude":"116.86W"}
{"date":"2013-04-01","average_temperature":"15.280999999999999","city":"Ensenada","latitude":"31.35N","longitude":"116.86W"}
{"date":"2013-07-01","average_temperature":"19.928","city":"Ensenada","latitude":"31.35N","longitude":"116.86W"}
{"date":"2010-01-01","average_temperature":"-4.221","city":"Erzurum","latitude":"39.38N","longitude":"41.62E"}
{"date":"2012-08-01","average_temperature":"22.75","city":"Eskisehir","latitude":"39.38N","longitude":"31.21E"}
{"date":"2010-08-01","average_temperature":"16.863999999999994","city":"Essen","latitude":"50.63N","longitude":"6.34E"}
{"date":"2012-08-01","average_temperature":"20.531","city":"Fairfield","latitude":"37.78N","longitude":"122.03W"}
{"date":"2012-02-01","average_temperature":"18.833","city":"Faizabad","latitude":"26.52N","longitude":"82.39E"}
{"date":"2010-01-01","average_temperature":"26.9","city":"Feira De Santana","latitude":"12.05S","longitude":"39.45W"}
{"date":"2010-10-01","average_temperature":"25.379","city":"Fengshan","latitude":"23.31N","longitude":"119.71E"}
{"date":"2010-06-01","average_temperature":"19.660999999999998","city":"Fernando De La Mora","latitude":"24.92S","longitude":"56.75W"}
{"date":"2011-09-01","average_temperature":"22.344","city":"Fernando De La Mora","latitude":"24.92S","longitude":"56.75W"}
{"date":"2012-04-01","average_temperature":"22.203000000000003","city":"Fianarantsoa","latitude":"21.70S","longitude":"47.60E"}
{"date":"2013-04-01","average_temperature":"22.259","city":"Fianarantsoa","latitude":"21.70S","longitude":"47.60E"}
{"date":"2012-08-01","average_temperature":"24.446","city":"Forlì","latitude":"44.20N","longitude":"11.18E"}
{"date":"2013-07-01","average_temperature":"27.997","city":"Fort Lauderdale","latitude":"26.52N","longitude":"80.60W"}
{"date":"2010-10-01","average_temperature":"7.004","city":"Freiburg","latitude":"47.42N","longitude":"8.29E"}
{"date":"2011-05-01","average_temperature":"16.147000000000002","city":"Fuchu","latitude":"36.17N","longitude":"139.23E"}
{"date":"2013-09-01","city":"Fuchu","latitude":"36.17N","longitude":"139.23E"}
{"date":"2012-01-01","average_temperature":"0.7150000000000001","city":"Fukaya","latitude":"36.17N","longitude":"139.23E"}
{"date":"2012-05-01","average_temperature":"16.41","city":"Fuyu","latitude":"45.81N","longitude":"125.77E"}
{"date":"2010-10-01","average_temperature":"8.562999999999999","city":"Galati","latitude":"45.81N","longitude":"28.85E"}
{"date":"2011-09-01","average_temperature":"29.311","city":"Ganganagar","latitude":"29.74N","longitude":"73.85E"}
{"date":"2012-06-01","average_temperature":"9.017000000000001","city":"Geelong","latitude":"37.78S","longitude":"144.41E"}
{"date":"2012-11-01","average_temperature":"21.110000000000007","city":"Ghaziabad","latitude":"28.13N","longitude":"77.27E"}
{"date":"2012-10-01","average_temperature":"20.566999999999997","city":"Girardot","latitude":"4.02N","longitude":"74.73W"}
{"date":"2012-10-01","average_temperature":"25.086","city":"Gizeh","latitude":"29.74N","longitude":"31.38E"}
{"date":"2011-08-01","average_temperature":"14.355","city":"Glazov","latitude":"58.66N","longitude":"52.31E"}
{"date":"2010-10-01","average_temperature":"16.91","city":"Glendale","latitude":"34.56N","longitude":"118.70W"}
{"date":"2011-05-01","average_temperature":"14.277999999999999","city":"Gliwice","latitude":"50.63N","longitude":"19.01E"}
{"date":"2011-01-01","average_temperature":"25.246","city":"Governador Valadares","latitude":"18.48S","longitude":"42.25W"}
{"date":"2012-06-01","average_temperature":"20.941","city":"Grand Rapids","latitude":"42.59N","longitude":"85.09W"}
{"date":"2011-02-01","average_temperature":"25.846","city":"Grogol","latitude":"7.23S","longitude":"111.08E"}
{"date":"2013-06-01","average_temperature":"26.909000000000002","city":"Grogol","latitude":"7.23S","longitude":"111.08E"}
{"date":"2012-08-01","average_temperature":"26.637","city":"Guacara","latitude":"10.45N","longitude":"67.91W"}
{"date":"2011-08-01","average_temperature":"23.69","city":"Guanare","latitude":"8.84N","longitude":"70.54W"}
{"date":"2012-05-01","average_temperature":"21.031999999999996","city":"Guarapari","latitude":"20.09S","longitude":"40.95W"}
{"date":"2011-10-01","average_temperature":"21.203000000000003","city":"Guaratinguetá","latitude":"23.31S","longitude":"44.56W"}
{"date":"2012-10-01","average_temperature":"26.264","city":"Guatire","latitude":"10.45N","longitude":"66.27W"}
{"date":"2012-07-01","average_temperature":"31.671999999999997","city":"Guaymas","latitude":"28.13N","longitude":"110.00W"}
{"date":"2012-04-01","average_temperature":"24.825","city":"Gulu","latitude":"2.41N","longitude":"32.95E"}
{"date":"2012-06-01","average_temperature":"26.399","city":"Guwahati","latitude":"26.52N","longitude":"91.34E"}
{"date":"2012-01-01","average_temperature":"22.986","city":"Gweru","latitude":"20.09S","longitude":"29.00E"}
{"date":"2010-12-01","average_temperature":"13.539000000000001","city":"Hafizabad","latitude":"31.35N","longitude":"73.51E"}
{"date":"2010-03-01","average_temperature":"28.226","city":"Hagonoy","latitude":"15.27N","longitude":"120.83E"}
{"date":"2010-07-01","average_temperature":"29.665","city":"Haldia","latitude":"21.70N","longitude":"87.40E"}
{"date":"2010-01-01","average_temperature":"17.503","city":"Halisahar","latitude":"23.31N","longitude":"88.25E"}
{"date":"2013-01-01","average_temperature":"-12.564","city":"Hami","latitude":"42.59N","longitude":"93.82E"}
{"date":"2010-03-01","average_temperature":"3.443","city":"Hamilton","latitude":"42.59N","longitude":"80.73W"}
{"date":"2011-12-01","average_temperature":"2.278","city":"Hamilton","latitude":"42.59N","longitude":"80.73W"}
{"date":"2011-05-01","average_temperature":"14.472","city":"Hamm","latitude":"52.24N","longitude":"7.88E"}
{"date":"2011-05-01","average_temperature":"21.215999999999998","city":"Hangzhou","latitude":"29.74N","longitude":"120.00E"}
{"date":"2011-11-01","average_temperature":"5.0470000000000015","city":"Hanover","latitude":"52.24N","longitude":"10.51E"}
{"date":"2011-07-01","average_temperature":"15.315","city":"Harare","latitude":"18.48S","longitude":"30.42E"}
{"date":"2011-02-01","average_temperature":"-12.779000000000002","city":"Harbin","latitude":"45.81N","longitude":"125.77E"}
{"date":"2010-08-01","average_temperature":"28.65","city":"Haridwar","latitude":"29.74N","longitude":"77.54E"}
{"date":"2010-10-01","average_temperature":"24.979","city":"Haridwar","latitude":"29.74N","longitude":"77.54E"}
{"date":"2013-05-01","average_temperature":"32.561","city":"Haridwar","latitude":"29.74N","longitude":"77.54E"}
{"date":"2012-09-01","average_temperature":"25.274","city":"Hassan","latitude":"13.66N","longitude":"76.79E"}
{"date":"2012-11-01","average_temperature":"21.110000000000007","city":"Hathras","latitude":"28.13N","longitude":"77.27E"}
{"date":"2012-07-01","average_temperature":"27.412","city":"Hazaribag","latitude":"23.31N","longitude":"84.76E"}
{"date":"2011-08-01","average_temperature":"21.814","city":"Hebi","latitude":"36.17N","longitude":"113.37E"}
{"date":"2011-11-01","average_temperature":"-10.380999999999998","city":"Heihe","latitude":"50.63N","longitude":"128.03E"}
{"date":"2010-03-01","average_temperature":"12.277999999999999","city":"Herat","latitude":"34.56N","longitude":"62.27E"}
{"date":"2011-05-01","average_temperature":"16.147000000000002","city":"Hino","latitude":"36.17N","longitude":"139.23E"}
{"date":"2010-05-01","average_temperature":"14.463","city":"Hohhot","latitude":"40.99N","longitude":"110.77E"}
{"date":"2011-09-01","average_temperature":"25.705","city":"Hong Gai","latitude":"21.70N","longitude":"106.44E"}
{"date":"2011-03-01","average_temperature":"-3.736","city":"Honggang","latitude":"45.81N","longitude":"125.77E"}
{"date":"2012-01-01","average_temperature":"3.4590000000000005","city":"Honghu","latitude":"29.74N","longitude":"112.62E"}
{"date":"2012-02-01","average_temperature":"20.604","city":"Hue","latitude":"16.87N","longitude":"107.16E"}
{"date":"2010-03-01","average_temperature":"-7.641","city":"Hulan","latitude":"45.81N","longitude":"125.77E"}
{"date":"2010-10-01","average_temperature":"4.718","city":"Hulan Ergi","latitude":"47.42N","longitude":"124.34E"}
{"date":"2012-06-01","average_temperature":"20.526000000000003","city":"Hulan Ergi","latitude":"47.42N","longitude":"124.34E"}
{"date":"2010-06-01","average_temperature":"26.308000000000003","city":"Humen","latitude":"23.31N","longitude":"114.47E"}
{"date":"2012-06-01","average_temperature":"25.911","city":"Ikole","latitude":"7.23N","longitude":"5.68E"}
{"date":"2013-02-01","average_temperature":"26.062","city":"Ilebo","latitude":"4.02S","longitude":"20.09E"}
{"date":"2012-11-01","average_temperature":"28.052","city":"Iloilo","latitude":"10.45N","longitude":"121.91E"}
{"date":"2010-03-01","average_temperature":"30.910999999999998","city":"Ilorin","latitude":"8.84N","longitude":"4.05E"}
{"date":"2012-10-01","average_temperature":"17.633999999999997","city":"Imabari","latitude":"34.56N","longitude":"132.32E"}
{"date":"2012-11-01","average_temperature":"18.976","city":"Imphal","latitude":"24.92N","longitude":"93.99E"}
{"date":"2012-09-01","average_temperature":"26.589","city":"Indore","latitude":"23.31N","longitude":"76.02E"}
{"date":"2010-05-01","average_temperature":"30.277","city":"Ingraj Bazar","latitude":"24.92N","longitude":"88.67E"}
{"date":"2011-03-01","average_temperature":"18.69","city":"Irapuato","latitude":"20.09N","longitude":"100.66W"}
{"date":"2011-12-01","average_temperature":"14.844000000000001","city":"Irapuato","latitude":"20.09N","longitude":"100.66W"}
{"date":"2010-01-01","average_temperature":"23.936","city":"Iringa","latitude":"7.23S","longitude":"36.49E"}
{"date":"2010-06-01","average_temperature":"29.392","city":"Irving","latitude":"32.95N","longitude":"96.70W"}
{"date":"2013-05-01","average_temperature":"26.542","city":"Ise","latitude":"7.23N","longitude":"5.68E"}
{"date":"2012-01-01","average_temperature":"27.704","city":"Iseyin","latitude":"7.23N","longitude":"4.05E"}
{"date":"2011-05-01","average_temperature":"20.842","city":"Iskenderun","latitude":"36.17N","longitude":"35.80E"}
{"date":"2013-01-01","average_temperature":"23.622","city":"Itaguaí","latitude":"23.31S","longitude":"44.56W"}
{"date":"2011-09-01","average_temperature":"20.16","city":"Itu","latitude":"23.31S","longitude":"48.06W"}
{"date":"2013-01-01","average_temperature":"3.917","city":"Izumi","latitude":"34.56N","longitude":"136.22E"}
{"date":"2013-03-01","average_temperature":"10.33","city":"Izumi","latitude":"34.56N","longitude":"136.22E"}
{"date":"2013-09-01","city":"Jaén","latitude":"37.78N","longitude":"4.07W"}
{"date":"2011-02-01","average_temperature":"29.273000000000003","city":"Jalingo","latitude":"8.84N","longitude":"12.16E"}
{"date":"2010-05-01","average_temperature":"29.014","city":"Jamame","latitude":"0.80N","longitude":"42.59E"}
{"date":"2013-07-01","average_temperature":"27.114","city":"Jambi","latitude":"0.80S","longitude":"103.66E"}
{"date":"2011-10-01","average_temperature":"26.4","city":"Jamuria","latitude":"23.31N","longitude":"86.50E"}
{"date":"2011-05-01","average_temperature":"32.457","city":"Jaunpur","latitude":"26.52N","longitude":"82.39E"}
{"date":"2011-02-01","average_temperature":"25.311999999999998","city":"Jequié","latitude":"13.66S","longitude":"40.46W"}
{"date":"2010-08-01","average_temperature":"30.19","city":"Jhunjhunun","latitude":"28.13N","longitude":"75.45E"}
{"date":"2012-10-01","average_temperature":"4.725","city":"Jiamusi","latitude":"47.42N","longitude":"131.45E"}
{"date":"2013-04-01","average_temperature":"17.902","city":"Jian","latitude":"26.52N","longitude":"114.63E"}
{"date":"2011-10-01","average_temperature":"23.0","city":"Jiangmen","latitude":"23.31N","longitude":"112.72E"}
{"date":"2012-01-01","average_temperature":"3.875","city":"Jiangyin","latitude":"31.35N","longitude":"120.63E"}
{"date":"2010-08-01","average_temperature":"20.613000000000003","city":"Jiaohe","latitude":"44.20N","longitude":"127.45E"}
{"date":"2010-10-01","average_temperature":"18.032","city":"Jiaxing","latitude":"31.35N","longitude":"120.63E"}
{"date":"2010-04-01","average_temperature":"21.980999999999998","city":"Jimma","latitude":"7.23N","longitude":"36.49E"}
{"date":"2013-02-01","average_temperature":"22.314","city":"Jimma","latitude":"7.23N","longitude":"36.49E"}
{"date":"2010-05-01","average_temperature":"21.406999999999996","city":"Jingdezhen","latitude":"29.74N","longitude":"116.31E"}
{"date":"2010-01-01","average_temperature":"-14.338","city":"Jining","latitude":"40.99N","longitude":"112.90E"}
{"date":"2013-03-01","average_temperature":"1.257","city":"Jinxi","latitude":"40.99N","longitude":"121.42E"}
{"date":"2011-04-01","average_temperature":"5.604","city":"Jishu","latitude":"44.20N","longitude":"127.45E"}
{"date":"2011-07-01","average_temperature":"24.478","city":"Jiupu","latitude":"40.99N","longitude":"123.55E"}
{"date":"2013-02-01","average_temperature":"-8.242","city":"Jiupu","latitude":"40.99N","longitude":"123.55E"}
{"date":"2011-09-01","average_temperature":"23.234","city":"Juarez","latitude":"31.35N","longitude":"105.55W"}
{"date":"2012-08-01","average_temperature":"26.605999999999998","city":"Juazeiro Do Norte","latitude":"7.23S","longitude":"39.73W"}
{"date":"2013-05-01","average_temperature":"11.38","city":"Jujuy","latitude":"24.92S","longitude":"65.62W"}
{"date":"2010-02-01","average_temperature":"6.8420000000000005","city":"Kadoma","latitude":"34.56N","longitude":"136.22E"}
{"date":"2012-10-01","average_temperature":"24.988000000000003","city":"Kaduna","latitude":"10.45N","longitude":"7.36E"}
{"date":"2011-09-01","average_temperature":"21.374","city":"Kaili","latitude":"26.52N","longitude":"107.46E"}
{"date":"2013-02-01","average_temperature":"16.621000000000002","city":"Kaithal","latitude":"29.74N","longitude":"75.69E"}
{"date":"2012-12-01","average_temperature":"1.297","city":"Kakamigahara","latitude":"36.17N","longitude":"137.24E"}
{"date":"2013-08-01","average_temperature":"17.367","city":"Kaliningrad","latitude":"55.45N","longitude":"19.84E"}
{"date":"2012-12-01","average_temperature":"26.712","city":"Kalmunai","latitude":"7.23N","longitude":"81.89E"}
{"date":"2010-11-01","average_temperature":"3.585","city":"Kaluga","latitude":"53.84N","longitude":"36.82E"}
{"date":"2012-07-01","average_temperature":"27.066999999999997","city":"Kalyan","latitude":"20.09N","longitude":"73.36E"}
{"date":"2012-05-01","average_temperature":"16.669999999999998","city":"Kamagaya","latitude":"36.17N","longitude":"139.23E"}
{"date":"2011-01-01","average_temperature":"17.864","city":"Kamarhati","latitude":"23.31N","longitude":"88.25E"}
{"date":"2010-01-01","average_temperature":"17.503","city":"Kanchrapara","latitude":"23.31N","longitude":"88.25E"}
{"date":"2011-07-01","average_temperature":"29.473000000000003","city":"Kanchrapara","latitude":"23.31N","longitude":"88.25E"}
{"date":"2011-03-01","average_temperature":"31.781","city":"Kandi","latitude":"10.45N","longitude":"2.45E"}
{"date":"2013-09-01","city":"Kankan","latitude":"10.45N","longitude":"9.00W"}
{"date":"2010-10-01","average_temperature":"29.161","city":"Karachi","latitude":"24.92N","longitude":"67.39E"}
{"date":"2011-05-01","average_temperature":"34.521","city":"Karimnagar","latitude":"18.48N","longitude":"79.44E"}
{"date":"2013-07-01","average_temperature":"22.353","city":"Kashipur","latitude":"29.74N","longitude":"79.38E"}
{"date":"2010-12-01","average_temperature":"5.7189999999999985","city":"Kasukabe","latitude":"36.17N","longitude":"139.23E"}
{"date":"2011-07-01","average_temperature":"25.288","city":"Kawasaki","latitude":"36.17N","longitude":"139.23E"}
{"date":"2012-08-01","average_temperature":"28.035","city":"Keelung","latitude":"24.92N","longitude":"122.36E"}
{"date":"2013-04-01","average_temperature":"16.456","city":"Kenitra","latitude":"34.56N","longitude":"5.84W"}
{"date":"2010-11-01","average_temperature":"21.835","city":"Khairpur","latitude":"28.13N","longitude":"68.18E"}
{"date":"2013-02-01","average_temperature":"17.464000000000002","city":"Khorramshahr","latitude":"29.74N","longitude":"48.00E"}
{"date":"2012-08-01","average_temperature":"24.116","city":"Khoy","latitude":"37.78N","longitude":"44.75E"}
{"date":"2013-08-01","average_temperature":"24.264","city":"Kishi","latitude":"8.84N","longitude":"4.05E"}
{"date":"2012-09-01","average_temperature":"24.296","city":"Kobe","latitude":"34.56N","longitude":"134.27E"}
{"date":"2011-09-01","average_temperature":"27.295","city":"Kolar","latitude":"13.66N","longitude":"78.44E"}
{"date":"2010-04-01","average_temperature":"9.167","city":"Komatsu","latitude":"36.17N","longitude":"137.24E"}
{"date":"2010-02-01","average_temperature":"1.186","city":"Koriyama","latitude":"37.78N","longitude":"140.34E"}
{"date":"2013-08-01","average_temperature":"19.797","city":"Kosice","latitude":"49.03N","longitude":"22.04E"}
{"date":"2012-10-01","average_temperature":"24.735","city":"Kot Addu","latitude":"29.74N","longitude":"70.15E"}
{"date":"2012-09-01","average_temperature":"25.593000000000004","city":"Kota Kinabalu","latitude":"5.63N","longitude":"116.23E"}
{"date":"2012-08-01","average_temperature":"26.295","city":"Kousséri","latitude":"12.05N","longitude":"14.79E"}
{"date":"2012-12-01","average_temperature":"-0.18199999999999994","city":"Kragujevac","latitude":"44.20N","longitude":"20.12E"}
{"date":"2013-08-01","average_temperature":"22.866","city":"Kragujevac","latitude":"44.20N","longitude":"20.12E"}
{"date":"2012-04-01","average_temperature":"13.011","city":"Kryvyy Rih","latitude":"47.42N","longitude":"34.34E"}
{"date":"2012-05-01","average_temperature":"19.898","city":"Kryvyy Rih","latitude":"47.42N","longitude":"34.34E"}
{"date":"2012-07-01","average_temperature":"27.978","city":"Kuala Terengganu","latitude":"5.63N","longitude":"103.32E"}
{"date":"2013-05-01","average_temperature":"28.711","city":"Kuala Terengganu","latitude":"5.63N","longitude":"103.32E"}
{"date":"2012-09-01","average_temperature":"31.184","city":"Kuhdasht","latitude":"32.95N","longitude":"46.91E"}
{"date":"2012-09-01","average_temperature":"27.793000000000003","city":"Kulim","latitude":"5.63N","longitude":"100.09E"}
{"date":"2010-09-01","average_temperature":"22.414","city":"Kumagaya","latitude":"36.17N","longitude":"139.23E"}
{"date":"2010-09-01","average_temperature":"28.705","city":"Kumbakonam","latitude":"10.45N","longitude":"79.36E"}
{"date":"2013-03-01","average_temperature":"-5.4190000000000005","city":"Kursk","latitude":"52.24N","longitude":"36.79E"}
{"date":"2011-09-01","average_temperature":"14.607000000000001","city":"Kuytun","latitude":"44.20N","longitude":"84.97E"}
{"date":"2013-09-01","city":"Lübeck","latitude":"53.84N","longitude":"9.55E"}
{"date":"2012-05-01","average_temperature":"26.574","city":"La Ceiba","latitude":"15.27N","longitude":"87.50W"}
{"date":"2013-08-01","average_temperature":"24.491","city":"La Ceiba","latitude":"15.27N","longitude":"87.50W"}
{"date":"2013-09-01","city":"La Serena","latitude":"29.74S","longitude":"72.00W"}
{"date":"2011-03-01","average_temperature":"21.596","city":"Lages","latitude":"28.13S","longitude":"50.00W"}
{"date":"2011-06-01","average_temperature":"27.256999999999998","city":"Lahad Datu","latitude":"5.63N","longitude":"117.85E"}
{"date":"2013-06-01","average_temperature":"27.755","city":"Lahad Datu","latitude":"5.63N","longitude":"117.85E"}
{"date":"2010-07-01","average_temperature":"21.733","city":"Lalitpur","latitude":"28.13N","longitude":"84.55E"}
{"date":"2013-06-01","average_temperature":"18.576","city":"Lambaré","latitude":"24.92S","longitude":"58.52W"}
{"date":"2012-11-01","average_temperature":"3.674","city":"Lansing","latitude":"42.59N","longitude":"85.09W"}
{"date":"2011-07-01","average_temperature":"27.031999999999996","city":"Lashio","latitude":"23.31N","longitude":"96.99E"}
{"date":"2011-04-01","average_temperature":"12.172","city":"Lausanne","latitude":"45.81N","longitude":"5.77E"}
{"date":"2010-02-01","average_temperature":"8.027999999999999","city":"Lengshuijiang","latitude":"28.13N","longitude":"111.82E"}
{"date":"2010-05-01","average_temperature":"27.54","city":"Leuwiliang","latitude":"7.23S","longitude":"106.22E"}
{"date":"2011-09-01","average_temperature":"16.04","city":"Liège","latitude":"50.63N","longitude":"6.34E"}
{"date":"2013-04-01","average_temperature":"8.374","city":"Liège","latitude":"50.63N","longitude":"6.34E"}
{"date":"2012-07-01","average_temperature":"28.829","city":"Liancheng","latitude":"21.70N","longitude":"109.90E"}
{"date":"2012-09-01","average_temperature":"27.003","city":"Liancheng","latitude":"21.70N","longitude":"109.90E"}
{"date":"2012-01-01","average_temperature":"8.555","city":"Lianran","latitude":"24.92N","longitude":"102.86E"}
{"date":"2013-08-01","average_temperature":"18.844","city":"Lilongwe","latitude":"13.66S","longitude":"33.85E"}
{"date":"2013-06-01","average_temperature":"19.746","city":"Limeira","latitude":"21.70S","longitude":"47.60W"}
{"date":"2011-05-01","average_temperature":"16.329","city":"Limoges","latitude":"45.81N","longitude":"1.15E"}
{"date":"2012-04-01","average_temperature":"8.676","city":"Limoges","latitude":"45.81N","longitude":"1.15E"}
{"date":"2012-05-01","average_temperature":"14.84","city":"Limoges","latitude":"45.81N","longitude":"1.15E"}
{"date":"2013-02-01","average_temperature":"9.174","city":"Linhai","latitude":"28.13N","longitude":"120.91E"}
{"date":"2012-08-01","average_temperature":"23.051","city":"Linhares","latitude":"20.09S","longitude":"39.24W"}
{"date":"2010-04-01","average_temperature":"7.94","city":"Liverpool","latitude":"53.84N","longitude":"4.09W"}
{"date":"2010-03-01","average_temperature":"10.004","city":"Lleida","latitude":"40.99N","longitude":"0.00W"}
{"date":"2012-10-01","average_temperature":"27.581","city":"Loa Janan","latitude":"0.80S","longitude":"116.52E"}
{"date":"2012-09-01","average_temperature":"23.384","city":"Londrina","latitude":"23.31S","longitude":"51.55W"}
{"date":"2013-08-01","average_temperature":"19.317999999999998","city":"Londrina","latitude":"23.31S","longitude":"51.55W"}
{"date":"2013-08-01","average_temperature":"20.076","city":"Long Beach","latitude":"32.95N","longitude":"117.77W"}
{"date":"2012-02-01","average_temperature":"-13.302999999999999","city":"Longjing","latitude":"42.59N","longitude":"128.73E"}
{"date":"2011-06-01","average_temperature":"31.764","city":"Los Mochis","latitude":"26.52N","longitude":"109.25W"}
{"date":"2011-06-01","average_temperature":"18.901","city":"Los Reyes","latitude":"20.09N","longitude":"98.96W"}
{"date":"2013-01-01","average_temperature":"4.73","city":"Loudi","latitude":"28.13N","longitude":"111.82E"}
{"date":"2010-01-01","average_temperature":"24.678","city":"Loum","latitude":"5.63N","longitude":"9.69E"}
{"date":"2012-09-01","average_temperature":"16.115","city":"Lowell","latitude":"42.59N","longitude":"72.00W"}
{"date":"2013-08-01","average_temperature":"11.106","city":"Lower Hutt","latitude":"40.99S","longitude":"174.67E"}
{"date":"2012-10-01","average_temperature":"16.142","city":"Lubbock","latitude":"32.95N","longitude":"102.45W"}
{"date":"2012-02-01","average_temperature":"-1.859","city":"Ludwigshafen","latitude":"49.03N","longitude":"7.35E"}
{"date":"2013-03-01","average_temperature":"27.055","city":"Lumajang","latitude":"8.84S","longitude":"112.70E"}
{"date":"2012-02-01","average_temperature":"13.718","city":"Luoyang","latitude":"23.31N","longitude":"114.47E"}
{"date":"2012-10-01","average_temperature":"25.962","city":"Luque","latitude":"24.92S","longitude":"56.75W"}
{"date":"2010-12-01","average_temperature":"22.259","city":"Lusaka","latitude":"15.27S","longitude":"27.50E"}
{"date":"2012-08-01","average_temperature":"19.105999999999998","city":"Lvov","latitude":"50.63N","longitude":"24.08E"}
{"date":"2011-09-01","average_temperature":"16.343","city":"Lyon","latitude":"45.81N","longitude":"5.77E"}
{"date":"2012-06-01","average_temperature":"14.889000000000001","city":"Münster","latitude":"52.24N","longitude":"7.88E"}
{"date":"2010-11-01","average_temperature":"5.3229999999999995","city":"Maastricht","latitude":"50.63N","longitude":"6.34E"}
{"date":"2012-06-01","average_temperature":"26.441999999999997","city":"Maba","latitude":"24.92N","longitude":"113.50E"}
{"date":"2012-04-01","average_temperature":"21.043000000000003","city":"Machala","latitude":"4.02S","longitude":"79.55W"}
{"date":"2011-04-01","average_temperature":"12.26","city":"Mainz","latitude":"50.63N","longitude":"8.87E"}
{"date":"2011-08-01","average_temperature":"18.093","city":"Mainz","latitude":"50.63N","longitude":"8.87E"}
{"date":"2011-10-01","average_temperature":"25.517","city":"Malegaon","latitude":"20.09N","longitude":"75.07E"}
{"date":"2012-11-01","average_temperature":"20.123","city":"Maler Kotla","latitude":"29.74N","longitude":"75.69E"}
{"date":"2011-06-01","average_temperature":"27.288","city":"Manbij","latitude":"36.17N","longitude":"37.79E"}
{"date":"2010-06-01","average_temperature":"19.822","city":"Manizales","latitude":"5.63N","longitude":"75.87W"}
{"date":"2013-08-01","average_temperature":"22.909","city":"Manta","latitude":"0.80S","longitude":"81.16W"}
{"date":"2013-08-01","average_temperature":"28.173000000000002","city":"Maracanaú","latitude":"4.02S","longitude":"39.38W"}
{"date":"2010-07-01","average_temperature":"25.765","city":"Marand","latitude":"39.38N","longitude":"45.78E"}
{"date":"2011-09-01","average_temperature":"22.573","city":"Marseille","latitude":"42.59N","longitude":"6.55E"}
{"date":"2012-11-01","average_temperature":"23.355999999999998","city":"Matamoros","latitude":"26.52N","longitude":"96.72W"}
{"date":"2011-05-01","average_temperature":"26.34","city":"Matanzas","latitude":"23.31N","longitude":"81.26W"}
{"date":"2011-04-01","average_temperature":"28.956","city":"Mathura","latitude":"28.13N","longitude":"77.27E"}
{"date":"2012-05-01","average_temperature":"26.773000000000003","city":"Mejicanos","latitude":"13.66N","longitude":"90.00W"}
{"date":"2012-08-01","average_temperature":"27.338","city":"Melaka","latitude":"2.41N","longitude":"102.05E"}
{"date":"2010-08-01","average_temperature":"8.684","city":"Melbourne","latitude":"37.78S","longitude":"144.41E"}
{"date":"2012-02-01","average_temperature":"20.223000000000006","city":"Melbourne","latitude":"37.78S","longitude":"144.41E"}
{"date":"2012-08-01","average_temperature":"26.479","city":"Metro","latitude":"5.63S","longitude":"104.93E"}
{"date":"2010-08-01","average_temperature":"17.62","city":"Metz","latitude":"49.03N","longitude":"7.35E"}
{"date":"2010-04-01","average_temperature":"5.058","city":"Miass","latitude":"55.45N","longitude":"59.53E"}
{"date":"2013-04-01","average_temperature":"6.787999999999999","city":"Middlesbrough","latitude":"53.84N","longitude":"1.36W"}
{"date":"2012-02-01","average_temperature":"-3.798","city":"Milan","latitude":"45.81N","longitude":"8.08E"}
{"date":"2011-11-01","average_temperature":"9.555","city":"Milwaukee","latitude":"42.59N","longitude":"87.27W"}
{"date":"2012-06-01","average_temperature":"28.159","city":"Minatitlán","latitude":"18.48N","longitude":"94.65W"}
{"date":"2012-01-01","average_temperature":"5.836","city":"Mingaora","latitude":"34.56N","longitude":"72.00E"}
{"date":"2011-05-01","average_temperature":"27.576","city":"Miri","latitude":"4.02N","longitude":"113.30E"}
{"date":"2012-02-01","average_temperature":"1.8419999999999999","city":"Misato","latitude":"36.17N","longitude":"139.23E"}
{"date":"2013-08-01","average_temperature":"30.04","city":"Moga","latitude":"31.35N","longitude":"75.39E"}
{"date":"2011-05-01","average_temperature":"31.606","city":"Mokolo","latitude":"10.45N","longitude":"13.91E"}
{"date":"2013-01-01","average_temperature":"28.274","city":"Mombasa","latitude":"4.02S","longitude":"39.38E"}
{"date":"2010-04-01","average_temperature":"21.651999999999997","city":"Monclova","latitude":"26.52N","longitude":"102.09W"}
{"date":"2011-02-01","average_temperature":"27.353","city":"Monrovia","latitude":"7.23N","longitude":"10.54W"}
{"date":"2010-08-01","average_temperature":"29.25","city":"Montgomery","latitude":"32.95N","longitude":"87.13W"}
{"date":"2013-08-01","average_temperature":"26.746","city":"Moratuwa","latitude":"7.23N","longitude":"80.27E"}
{"date":"2010-06-01","average_temperature":"21.355999999999998","city":"Morelia","latitude":"20.09N","longitude":"100.66W"}
{"date":"2011-03-01","average_temperature":"24.791999999999998","city":"Morena","latitude":"26.52N","longitude":"78.81E"}
{"date":"2012-03-01","average_temperature":"13.29","city":"Mostar","latitude":"42.59N","longitude":"17.45E"}
{"date":"2011-05-01","average_temperature":"30.826","city":"Munger","latitude":"24.92N","longitude":"86.90E"}
{"date":"2011-05-01","average_temperature":"31.909000000000002","city":"Muzaffarnagar","latitude":"29.74N","longitude":"77.54E"}
{"date":"2011-06-01","average_temperature":"21.085","city":"Nagareyama","latitude":"36.17N","longitude":"139.23E"}
{"date":"2011-11-01","average_temperature":"13.571","city":"Nagoya","latitude":"34.56N","longitude":"136.22E"}
{"date":"2011-12-01","average_temperature":"-6.693","city":"Nakhodka","latitude":"42.59N","longitude":"133.09E"}
{"date":"2011-02-01","average_temperature":"-0.764","city":"Namangan","latitude":"40.99N","longitude":"72.43E"}
{"date":"2012-04-01","average_temperature":"10.997","city":"Nanpiao","latitude":"40.99N","longitude":"121.42E"}
{"date":"2012-08-01","average_temperature":"20.554000000000002","city":"Nantes","latitude":"47.42N","longitude":"1.18W"}
{"date":"2012-03-01","average_temperature":"19.81","city":"Nantou","latitude":"23.31N","longitude":"121.46E"}
{"date":"2011-03-01","average_temperature":"4.147","city":"Naperville","latitude":"40.99N","longitude":"87.34W"}
{"date":"2011-01-01","average_temperature":"6.481","city":"Naples","latitude":"40.99N","longitude":"14.91E"}
{"date":"2010-05-01","average_temperature":"23.739","city":"Navoi","latitude":"39.38N","longitude":"64.51E"}
{"date":"2012-12-01","average_temperature":"7.306999999999999","city":"Nazilli","latitude":"37.78N","longitude":"28.47E"}
{"date":"2013-08-01","average_temperature":"23.561","city":"Nazran","latitude":"44.20N","longitude":"44.72E"}
{"date":"2010-09-01","average_temperature":"26.738000000000003","city":"Negombo","latitude":"7.23N","longitude":"80.27E"}
{"date":"2013-01-01","average_temperature":"7.404","city":"Neijiang","latitude":"29.74N","longitude":"105.23E"}
{"date":"2012-08-01","average_temperature":"14.9","city":"Newcastle","latitude":"32.95S","longitude":"152.23E"}
{"date":"2012-08-01","average_temperature":"14.347","city":"Newcastle","latitude":"28.13S","longitude":"30.00E"}
{"date":"2012-07-01","average_temperature":"24.084","city":"Nis","latitude":"42.59N","longitude":"21.82E"}
{"date":"2011-06-01","average_temperature":"16.88","city":"Nizhnekamsk","latitude":"55.45N","longitude":"51.02E"}
{"date":"2011-09-01","average_temperature":"11.425999999999998","city":"Nizhnevartovsk","latitude":"60.27N","longitude":"77.84E"}
{"date":"2013-01-01","average_temperature":"-16.05","city":"Nizhniy Tagil","latitude":"57.05N","longitude":"60.49E"}
{"date":"2010-10-01","average_temperature":"26.686","city":"Nkpor","latitude":"5.63N","longitude":"6.46E"}
{"date":"2012-05-01","average_temperature":"27.357","city":"Nkpor","latitude":"5.63N","longitude":"6.46E"}
{"date":"2013-01-01","average_temperature":"27.778","city":"Nkpor","latitude":"5.63N","longitude":"6.46E"}
{"date":"2013-08-01","average_temperature":"24.232000000000006","city":"Norwalk","latitude":"34.56N","longitude":"118.70W"}
{"date":"2013-05-01","average_temperature":"20.661","city":"Novocherkassk","latitude":"47.42N","longitude":"39.08E"}
{"date":"2011-11-01","average_temperature":"27.287","city":"Nsukka","latitude":"7.23N","longitude":"7.30E"}
{"date":"2012-01-01","average_temperature":"25.224","city":"Nueva San Salvador","latitude":"13.66N","longitude":"90.00W"}
{"date":"2013-01-01","average_temperature":"-1.5309999999999997","city":"Nukus","latitude":"42.59N","longitude":"58.91E"}
{"date":"2013-01-01","average_temperature":"8.32","city":"Oakland","latitude":"37.78N","longitude":"122.03W"}
{"date":"2012-08-01","average_temperature":"20.267","city":"Oaxaca","latitude":"16.87N","longitude":"97.12W"}
{"date":"2011-05-01","average_temperature":"7.723999999999998","city":"Obihiro","latitude":"42.59N","longitude":"144.00E"}
{"date":"2010-11-01","average_temperature":"27.544","city":"Obosi","latitude":"5.63N","longitude":"6.46E"}
{"date":"2011-09-01","average_temperature":"26.450000000000006","city":"Obosi","latitude":"5.63N","longitude":"6.46E"}
{"date":"2011-09-01","average_temperature":"25.32","city":"Obuasi","latitude":"5.63N","longitude":"1.61W"}
{"date":"2010-01-01","average_temperature":"-15.845999999999998","city":"Odintsovo","latitude":"55.45N","longitude":"36.85E"}
{"date":"2011-01-01","average_temperature":"26.508000000000003","city":"Offa","latitude":"8.84N","longitude":"4.05E"}
{"date":"2010-06-01","average_temperature":"17.059","city":"Offenbach","latitude":"50.63N","longitude":"8.87E"}
{"date":"2013-05-01","average_temperature":"14.020999999999999","city":"Olomouc","latitude":"49.03N","longitude":"17.14E"}
{"date":"2013-09-01","city":"Ome","latitude":"36.17N","longitude":"139.23E"}
{"date":"2013-01-01","average_temperature":"27.279","city":"Opobo","latitude":"4.02N","longitude":"7.23E"}
{"date":"2012-11-01","average_temperature":"18.507","city":"Orlando","latitude":"28.13N","longitude":"80.91W"}
{"date":"2013-05-01","average_temperature":"24.276999999999997","city":"Orlando","latitude":"28.13N","longitude":"80.91W"}
{"date":"2012-01-01","average_temperature":"-16.796","city":"Orsk","latitude":"50.63N","longitude":"59.58E"}
{"date":"2013-01-01","average_temperature":"-10.651","city":"Ottawa","latitude":"45.81N","longitude":"75.00W"}
{"date":"2011-04-01","average_temperature":"30.191999999999997","city":"Otukpo","latitude":"7.23N","longitude":"8.92E"}
{"date":"2013-03-01","average_temperature":"19.332","city":"Paarl","latitude":"34.56S","longitude":"19.46E"}
{"date":"2010-10-01","average_temperature":"25.502","city":"Pakokku","latitude":"21.70N","longitude":"94.33E"}
{"date":"2013-02-01","average_temperature":"24.362","city":"Palhoça","latitude":"28.13S","longitude":"48.18W"}
{"date":"2012-05-01","average_temperature":"34.135","city":"Pallavaram","latitude":"13.66N","longitude":"80.09E"}
{"date":"2010-03-01","average_temperature":"24.273000000000003","city":"Palmira","latitude":"4.02N","longitude":"76.34W"}
{"date":"2013-05-01","average_temperature":"22.328000000000003","city":"Palmira","latitude":"4.02N","longitude":"76.34W"}
{"date":"2012-10-01","average_temperature":"26.787","city":"Palo Negro","latitude":"10.45N","longitude":"67.91W"}
{"date":"2012-12-01","average_temperature":"26.585","city":"Palu","latitude":"0.80S","longitude":"119.73E"}
{"date":"2011-04-01","average_temperature":"28.956","city":"Palwal","latitude":"28.13N","longitude":"77.27E"}
{"date":"2011-02-01","average_temperature":"27.893","city":"Panamá","latitude":"8.84N","longitude":"80.27W"}
{"date":"2011-06-01","average_temperature":"17.958000000000006","city":"Panevezys","latitude":"55.45N","longitude":"25.51E"}
{"date":"2013-02-01","average_temperature":"-2.096","city":"Panevezys","latitude":"55.45N","longitude":"25.51E"}
{"date":"2012-01-01","average_temperature":"18.815","city":"Panihati","latitude":"23.31N","longitude":"88.25E"}
{"date":"2010-06-01","average_temperature":"32.585","city":"Panipat","latitude":"29.74N","longitude":"77.54E"}
{"date":"2010-05-01","average_temperature":"21.733","city":"Panzhihua","latitude":"26.52N","longitude":"102.09E"}
{"date":"2010-06-01","average_temperature":"13.032","city":"Parana","latitude":"31.35S","longitude":"60.31W"}
{"date":"2013-06-01","average_temperature":"29.141","city":"Parbhani","latitude":"20.09N","longitude":"76.78E"}
{"date":"2013-09-01","city":"Pate","latitude":"24.92N","longitude":"120.59E"}
{"date":"2010-11-01","average_temperature":"25.180999999999997","city":"Payakumbuh","latitude":"0.80S","longitude":"100.45E"}
{"date":"2011-07-01","average_temperature":"23.184","city":"Pemba","latitude":"13.66S","longitude":"40.46E"}
{"date":"2011-08-01","average_temperature":"20.090000000000003","city":"Pereira","latitude":"5.63N","longitude":"75.87W"}
{"date":"2012-02-01","average_temperature":"9.451","city":"Peristérion","latitude":"37.78N","longitude":"24.41E"}
{"date":"2011-12-01","average_temperature":"11.877","city":"Pescara","latitude":"42.59N","longitude":"15.27E"}
{"date":"2010-05-01","average_temperature":"11.328","city":"Peterborough","latitude":"52.24N","longitude":"0.00W"}
{"date":"2010-11-01","average_temperature":"27.21","city":"Phan Thiet","latitude":"10.45N","longitude":"107.18E"}
{"date":"2010-05-01","average_temperature":"31.353","city":"Phitsanulok","latitude":"16.87N","longitude":"100.47E"}
{"date":"2013-02-01","average_temperature":"16.407","city":"Piedras Negras","latitude":"28.13N","longitude":"100.91W"}
{"date":"2010-06-01","average_temperature":"24.464","city":"Pingxiang","latitude":"28.13N","longitude":"113.64E"}
{"date":"2010-02-01","average_temperature":"25.586","city":"Plumbon","latitude":"7.23S","longitude":"107.84E"}
{"date":"2012-07-01","average_temperature":"16.299999999999994","city":"Plymouth","latitude":"50.63N","longitude":"3.80W"}
{"date":"2012-12-01","average_temperature":"-9.09","city":"Podolsk","latitude":"55.45N","longitude":"36.85E"}
{"date":"2011-10-01","average_temperature":"7.591","city":"Poltava","latitude":"49.03N","longitude":"34.29E"}
{"date":"2013-06-01","average_temperature":"27.111","city":"Ponce","latitude":"18.48N","longitude":"65.92W"}
{"date":"2013-05-01","average_temperature":"29.74","city":"Ponnani","latitude":"10.45N","longitude":"76.09E"}
{"date":"2013-07-01","average_temperature":"26.098000000000006","city":"Ponnani","latitude":"10.45N","longitude":"76.09E"}
{"date":"2011-07-01","average_temperature":"15.009","city":"Ponta Grossa","latitude":"24.92S","longitude":"49.66W"}
{"date":"2012-10-01","average_temperature":"20.075","city":"Ponta Grossa","latitude":"24.92S","longitude":"49.66W"}
{"date":"2010-10-01","average_temperature":"15.993","city":"Port Elizabeth","latitude":"34.56S","longitude":"25.30E"}
{"date":"2011-06-01","average_temperature":"23.355999999999998","city":"Port Louis","latitude":"20.09S","longitude":"58.01E"}
{"date":"2010-12-01","average_temperature":"13.45","city":"Port Saint Lucie","latitude":"26.52N","longitude":"80.60W"}
{"date":"2010-12-01","average_temperature":"21.541","city":"Potchefstroom","latitude":"26.52S","longitude":"26.87E"}
{"date":"2011-07-01","average_temperature":"25.73","city":"Prabumulih","latitude":"4.02S","longitude":"103.66E"}
{"date":"2010-09-01","average_temperature":"12.684","city":"Prague","latitude":"50.63N","longitude":"13.94E"}
{"date":"2013-05-01","average_temperature":"22.304000000000002","city":"Presidente Prudente","latitude":"21.70S","longitude":"51.06W"}
{"date":"2010-09-01","average_temperature":"28.398000000000003","city":"Proddatur","latitude":"15.27N","longitude":"79.17E"}
{"date":"2012-06-01","average_temperature":"20.564","city":"Provo","latitude":"39.38N","longitude":"112.37W"}
{"date":"2011-06-01","average_temperature":"26.180999999999997","city":"Pucallpa","latitude":"8.84S","longitude":"73.78W"}
{"date":"2010-06-01","average_temperature":"5.742000000000001","city":"Puerto Montt","latitude":"40.99S","longitude":"72.43W"}
{"date":"2011-10-01","average_temperature":"28.842","city":"Puerto Vallarta","latitude":"20.09N","longitude":"105.78W"}
{"date":"2010-10-01","average_temperature":"26.531999999999996","city":"Puruliya","latitude":"23.31N","longitude":"86.50E"}
{"date":"2010-06-01","average_temperature":"26.97","city":"Purwokerto","latitude":"7.23S","longitude":"109.46E"}
{"date":"2012-11-01","average_temperature":"21.246","city":"Qena","latitude":"26.52N","longitude":"32.24E"}
{"date":"2010-07-01","average_temperature":"29.285","city":"Qinzhou","latitude":"21.70N","longitude":"108.17E"}
{"date":"2010-12-01","average_temperature":"-19.262","city":"Qiqihar","latitude":"47.42N","longitude":"124.34E"}
{"date":"2012-06-01","average_temperature":"27.644000000000002","city":"Qom","latitude":"34.56N","longitude":"50.59E"}
{"date":"2012-07-01","average_temperature":"30.134","city":"Quchan","latitude":"37.78N","longitude":"58.98E"}
{"date":"2011-07-01","average_temperature":"6.812","city":"Queenstown","latitude":"31.35S","longitude":"26.39E"}
{"date":"2011-05-01","average_temperature":"27.136999999999997","city":"Quelimane","latitude":"18.48S","longitude":"37.18E"}
{"date":"2010-07-01","average_temperature":"21.064","city":"Quetzaltenango","latitude":"15.27N","longitude":"90.83W"}
{"date":"2013-05-01","average_temperature":"21.635","city":"Quetzaltenango","latitude":"15.27N","longitude":"90.83W"}
{"date":"2010-02-01","average_temperature":"18.495","city":"Quito","latitude":"0.80S","longitude":"77.95W"}
{"date":"2012-01-01","average_temperature":"27.085","city":"Rach Gia","latitude":"10.45N","longitude":"105.55E"}
{"date":"2010-03-01","average_temperature":"26.496","city":"Rae Bareli","latitude":"26.52N","longitude":"80.60E"}
{"date":"2011-04-01","average_temperature":"30.052","city":"Raigarh","latitude":"21.70N","longitude":"83.94E"}
{"date":"2010-11-01","average_temperature":"25.436999999999998","city":"Rajpur","latitude":"23.31N","longitude":"88.25E"}
{"date":"2012-02-01","average_temperature":"10.434","city":"Ramat Gan","latitude":"32.95N","longitude":"35.43E"}
{"date":"2011-11-01","average_temperature":"22.006","city":"Rampur","latitude":"28.13N","longitude":"79.09E"}
{"date":"2010-02-01","average_temperature":"25.586","city":"Rancaekek","latitude":"7.23S","longitude":"107.84E"}
{"date":"2012-09-01","average_temperature":"15.056","city":"Ranghulu","latitude":"47.42N","longitude":"124.34E"}
{"date":"2011-07-01","average_temperature":"26.901","city":"Rangoon","latitude":"16.87N","longitude":"95.44E"}
{"date":"2011-11-01","average_temperature":"22.522","city":"Raniganj","latitude":"23.31N","longitude":"86.50E"}
{"date":"2012-06-01","average_temperature":"32.79","city":"Raniganj","latitude":"23.31N","longitude":"86.50E"}
{"date":"2011-05-01","average_temperature":"31.371","city":"Raurkela","latitude":"21.70N","longitude":"85.67E"}
{"date":"2013-03-01","average_temperature":"7.178999999999999","city":"Ravenna","latitude":"44.20N","longitude":"11.18E"}
{"date":"2013-01-01","average_temperature":"10.957","city":"Rawalpindi","latitude":"32.95N","longitude":"73.72E"}
{"date":"2011-05-01","average_temperature":"28.56","city":"Rayong","latitude":"12.05N","longitude":"101.92E"}
{"date":"2010-08-01","average_temperature":"17.185000000000002","city":"Recklinghausen","latitude":"52.24N","longitude":"7.88E"}
{"date":"2011-10-01","average_temperature":"10.616","city":"Recklinghausen","latitude":"52.24N","longitude":"7.88E"}
{"date":"2011-08-01","average_temperature":"19.418","city":"Resende","latitude":"21.70S","longitude":"44.13W"}
{"date":"2013-05-01","average_temperature":"12.129","city":"Reutlingen","latitude":"49.03N","longitude":"9.80E"}
{"date":"2010-06-01","average_temperature":"24.930999999999997","city":"Rialto","latitude":"34.56N","longitude":"116.76W"}
{"date":"2011-02-01","average_temperature":"25.244","city":"Ribeirão Prêto","latitude":"21.70S","longitude":"47.60W"}
{"date":"2011-07-01","average_temperature":"19.649","city":"Richmond","latitude":"37.78N","longitude":"122.03W"}
{"date":"2012-06-01","average_temperature":"22.816000000000006","city":"Richmond","latitude":"37.78N","longitude":"77.29W"}
{"date":"2011-03-01","average_temperature":"19.831000000000003","city":"Rio Cuarto","latitude":"32.95S","longitude":"64.15W"}
{"date":"2010-12-01","average_temperature":"24.386999999999997","city":"Rio Grande","latitude":"31.35S","longitude":"52.77W"}
{"date":"2013-01-01","average_temperature":"17.757","city":"Rishra","latitude":"23.31N","longitude":"88.25E"}
{"date":"2013-07-01","average_temperature":"30.0","city":"Rishra","latitude":"23.31N","longitude":"88.25E"}
{"date":"2013-08-01","average_temperature":"28.006","city":"Rizhao","latitude":"36.17N","longitude":"119.34E"}
{"date":"2011-05-01","average_temperature":"30.522","city":"Robertsonpet","latitude":"13.66N","longitude":"78.44E"}
{"date":"2011-03-01","average_temperature":"7.695","city":"Rome","latitude":"42.59N","longitude":"13.09E"}
{"date":"2011-11-01","average_temperature":"4.47","city":"Rostock","latitude":"53.84N","longitude":"12.27E"}
{"date":"2011-09-01","average_temperature":"15.770999999999999","city":"Rybnik","latitude":"50.63N","longitude":"19.01E"}
{"date":"2012-08-01","average_temperature":"19.266","city":"Rybnik","latitude":"50.63N","longitude":"19.01E"}
{"date":"2012-06-01","average_temperature":"16.538","city":"Saarbrücken","latitude":"49.03N","longitude":"7.35E"}
{"date":"2011-05-01","average_temperature":"20.108","city":"Sabará","latitude":"20.09S","longitude":"44.36W"}
{"date":"2011-11-01","average_temperature":"11.478","city":"Sacramento","latitude":"37.78N","longitude":"122.03W"}
{"date":"2011-08-01","average_temperature":"26.982","city":"Saga","latitude":"32.95N","longitude":"131.17E"}
{"date":"2011-09-01","average_temperature":"27.916","city":"Saharanpur","latitude":"29.74N","longitude":"77.54E"}
{"date":"2010-03-01","average_temperature":"4.774","city":"Saint Étienne","latitude":"45.81N","longitude":"3.46E"}
{"date":"2011-01-01","average_temperature":"26.14","city":"Saint Denis","latitude":"21.70S","longitude":"56.25E"}
{"date":"2010-11-01","average_temperature":"7.2429999999999986","city":"Saint Helens","latitude":"53.84N","longitude":"4.09W"}
{"date":"2013-04-01","average_temperature":"11.31","city":"Saitama","latitude":"36.17N","longitude":"139.23E"}
{"date":"2013-07-01","average_temperature":"26.377","city":"Salatiga","latitude":"7.23S","longitude":"111.08E"}
{"date":"2010-03-01","average_temperature":"9.603","city":"Salerno","latitude":"40.99N","longitude":"14.91E"}
{"date":"2011-10-01","average_temperature":"26.545","city":"Sambalpur","latitude":"21.70N","longitude":"83.94E"}
{"date":"2011-03-01","average_temperature":"24.221","city":"San Francisco De Macorís","latitude":"20.09N","longitude":"69.95W"}
{"date":"2011-09-01","average_temperature":"20.54","city":"San Jose","latitude":"37.78N","longitude":"122.03W"}
{"date":"2013-09-01","average_temperature":"21.815","city":"San Juan Sacatepéquez","latitude":"15.27N","longitude":"90.83W"}
{"date":"2012-04-01","average_temperature":"26.203000000000003","city":"San Salvador","latitude":"13.66N","longitude":"90.00W"}
{"date":"2012-12-01","average_temperature":"18.590999999999998","city":"Santa Cruz De Tenerife","latitude":"28.13N","longitude":"15.45W"}
{"date":"2011-01-01","average_temperature":"27.155","city":"Santa Marta","latitude":"10.45N","longitude":"74.45W"}
{"date":"2012-04-01","average_temperature":"26.258000000000003","city":"Santarém","latitude":"2.41S","longitude":"55.45W"}
{"date":"2011-01-01","average_temperature":"23.798","city":"Santiago De Cuba","latitude":"20.09N","longitude":"75.07W"}
{"date":"2010-12-01","average_temperature":"23.397","city":"Sapucaia","latitude":"29.74S","longitude":"51.69W"}
{"date":"2012-12-01","average_temperature":"24.851","city":"Sapucaia","latitude":"29.74S","longitude":"51.69W"}
{"date":"2012-09-01","average_temperature":"24.265","city":"Sari","latitude":"36.17N","longitude":"53.70E"}
{"date":"2013-06-01","average_temperature":"32.948","city":"Sawai Madhopur","latitude":"26.52N","longitude":"77.01E"}
{"date":"2013-02-01","average_temperature":"27.34","city":"Serang","latitude":"5.63S","longitude":"106.55E"}
{"date":"2012-07-01","average_temperature":"23.149","city":"Setúbal","latitude":"39.38N","longitude":"8.32W"}
{"date":"2011-06-01","average_temperature":"13.179","city":"Severodvinsk","latitude":"65.09N","longitude":"40.21E"}
{"date":"2010-02-01","average_temperature":"28.476999999999997","city":"Shah Alam","latitude":"2.41N","longitude":"102.05E"}
{"date":"2013-02-01","average_temperature":"0.27699999999999925","city":"Shakhty","latitude":"47.42N","longitude":"39.08E"}
{"date":"2011-11-01","average_temperature":"27.401","city":"Shaki","latitude":"8.84N","longitude":"4.05E"}
{"date":"2010-08-01","average_temperature":"30.128","city":"Shanghai","latitude":"31.35N","longitude":"120.63E"}
{"date":"2012-06-01","average_temperature":"25.103","city":"Shaoyang","latitude":"26.52N","longitude":"111.04E"}
{"date":"2011-07-01","average_temperature":"35.683","city":"Sharjah","latitude":"24.92N","longitude":"54.98E"}
{"date":"2013-03-01","average_temperature":"22.493000000000002","city":"Sharjah","latitude":"24.92N","longitude":"54.98E"}
{"date":"2010-07-01","average_temperature":"29.236","city":"Shashi","latitude":"29.74N","longitude":"112.62E"}
{"date":"2012-02-01","average_temperature":"4.854","city":"Shashi","latitude":"29.74N","longitude":"112.62E"}
{"date":"2010-12-01","average_temperature":"14.408","city":"Shenzhen","latitude":"23.31N","longitude":"114.47E"}
{"date":"2011-04-01","average_temperature":"22.703000000000003","city":"Shenzhen","latitude":"23.31N","longitude":"114.47E"}
{"date":"2011-04-01","average_temperature":"26.623","city":"Sherpur","latitude":"24.92N","longitude":"90.44E"}
{"date":"2011-02-01","average_temperature":"16.938000000000002","city":"Shiliguri","latitude":"26.52N","longitude":"87.76E"}
{"date":"2012-05-01","average_temperature":"22.805999999999997","city":"Shinyanga","latitude":"4.02S","longitude":"32.95E"}
{"date":"2012-08-01","average_temperature":"20.756999999999998","city":"Shuangyashan","latitude":"47.42N","longitude":"131.45E"}
{"date":"2010-01-01","average_temperature":"26.019","city":"Sibu","latitude":"2.41N","longitude":"111.70E"}
{"date":"2011-06-01","average_temperature":"28.505","city":"Singkawang","latitude":"0.80N","longitude":"108.48E"}
{"date":"2010-09-01","average_temperature":"15.264000000000001","city":"Sioux Falls","latitude":"44.20N","longitude":"96.15W"}
{"date":"2012-12-01","average_temperature":"-1.3359999999999999","city":"Skopje","latitude":"42.59N","longitude":"21.82E"}
{"date":"2011-02-01","average_temperature":"19.967","city":"Soacha","latitude":"4.02N","longitude":"74.73W"}
{"date":"2013-01-01","average_temperature":"20.967","city":"Soacha","latitude":"4.02N","longitude":"74.73W"}
{"date":"2013-08-01","average_temperature":"29.9","city":"Sonipat","latitude":"28.13N","longitude":"77.27E"}
{"date":"2010-08-01","average_temperature":"27.177","city":"Sorong","latitude":"0.80S","longitude":"130.98E"}
{"date":"2010-10-01","average_temperature":"27.56","city":"Sorong","latitude":"0.80S","longitude":"130.98E"}
{"date":"2010-01-01","average_temperature":"24.44","city":"Spanish Town","latitude":"18.48N","longitude":"77.75W"}
{"date":"2012-10-01","average_temperature":"14.87","city":"Split","latitude":"44.20N","longitude":"15.65E"}
{"date":"2010-01-01","average_temperature":"19.507","city":"Springs","latitude":"26.52S","longitude":"28.66E"}
{"date":"2012-11-01","average_temperature":"4.717","city":"Stavropol","latitude":"44.20N","longitude":"42.48E"}
{"date":"2010-10-01","average_temperature":"7.285","city":"Stockholm","latitude":"58.66N","longitude":"18.46E"}
{"date":"2010-12-01","average_temperature":"-0.5649999999999995","city":"Stoke On Trent","latitude":"52.24N","longitude":"2.63W"}
{"date":"2011-10-01","average_temperature":"12.167","city":"Stoke On Trent","latitude":"52.24N","longitude":"2.63W"}
{"date":"2011-04-01","average_temperature":"9.629","city":"Suceava","latitude":"47.42N","longitude":"27.24E"}
{"date":"2012-09-01","average_temperature":"21.774","city":"Sullana","latitude":"5.63S","longitude":"80.72W"}
{"date":"2010-10-01","average_temperature":"26.723000000000003","city":"Sultanpur","latitude":"26.52N","longitude":"82.39E"}
{"date":"2010-01-01","average_temperature":"0.08800000000000008","city":"Sunderland","latitude":"55.45N","longitude":"2.83W"}
{"date":"2010-07-01","average_temperature":"27.936","city":"Sunggal","latitude":"4.02N","longitude":"98.84E"}
{"date":"2011-11-01","average_temperature":"9.897","city":"Sunrise Manor","latitude":"36.17N","longitude":"115.36W"}
{"date":"2011-05-01","average_temperature":"20.979","city":"Surt","latitude":"31.35N","longitude":"16.96E"}
{"date":"2013-04-01","average_temperature":"1.455","city":"Syktyvkar","latitude":"61.88N","longitude":"49.25E"}
{"date":"2010-08-01","average_temperature":"21.145","city":"Syracuse","latitude":"42.59N","longitude":"76.36W"}
{"date":"2010-07-01","average_temperature":"18.243","city":"Tacna","latitude":"18.48S","longitude":"70.99W"}
{"date":"2010-08-01","average_temperature":"17.843999999999994","city":"Tacna","latitude":"18.48S","longitude":"70.99W"}
{"date":"2012-08-01","average_temperature":"17.005","city":"Tacoma","latitude":"47.42N","longitude":"121.97W"}
{"date":"2010-04-01","average_temperature":"10.536","city":"Taganrog","latitude":"47.42N","longitude":"39.08E"}
{"date":"2010-02-01","average_temperature":"2.306","city":"Taian","latitude":"36.17N","longitude":"117.35E"}
{"date":"2010-09-01","average_temperature":"28.031999999999996","city":"Tainan","latitude":"23.31N","longitude":"119.71E"}
{"date":"2012-03-01","average_temperature":"27.287","city":"Taiping","latitude":"4.02N","longitude":"100.45E"}
{"date":"2012-02-01","average_temperature":"4.3420000000000005","city":"Takarazuka","latitude":"34.56N","longitude":"136.22E"}
{"date":"2013-02-01","average_temperature":"18.735","city":"Talca","latitude":"36.17S","longitude":"71.60W"}
{"date":"2010-09-01","average_temperature":"11.348","city":"Talcahuano","latitude":"36.17S","longitude":"73.59W"}
{"date":"2013-03-01","average_temperature":"-6.2589999999999995","city":"Tallinn","latitude":"58.66N","longitude":"24.62E"}
{"date":"2012-11-01","average_temperature":"27.601999999999997","city":"Taman","latitude":"7.23S","longitude":"109.46E"}
{"date":"2012-01-01","average_temperature":"26.756","city":"Taman","latitude":"7.23S","longitude":"112.70E"}
{"date":"2013-03-01","average_temperature":"27.719","city":"Tambun","latitude":"5.63S","longitude":"106.55E"}
{"date":"2010-02-01","average_temperature":"27.568","city":"Tangerang","latitude":"5.63S","longitude":"106.55E"}
{"date":"2011-12-01","average_temperature":"25.881999999999998","city":"Tanza","latitude":"15.27N","longitude":"120.83E"}
{"date":"2012-04-01","average_temperature":"29.293000000000003","city":"Tanza","latitude":"15.27N","longitude":"120.83E"}
{"date":"2011-05-01","average_temperature":"15.322","city":"Taonan","latitude":"45.81N","longitude":"123.46E"}
{"date":"2012-01-01","average_temperature":"11.232000000000001","city":"Tarragona","latitude":"40.99N","longitude":"2.13E"}
{"date":"2010-07-01","average_temperature":"27.936","city":"Tebingtinggi","latitude":"4.02N","longitude":"98.84E"}
{"date":"2013-06-01","average_temperature":"21.758000000000006","city":"Tekirdag","latitude":"40.99N","longitude":"27.69E"}
{"date":"2010-12-01","average_temperature":"-13.390999999999998","city":"Temirtau","latitude":"50.63N","longitude":"72.25E"}
{"date":"2013-02-01","average_temperature":"17.852999999999998","city":"Thái Nguyên","latitude":"21.70N","longitude":"106.44E"}
{"date":"2010-05-01","average_temperature":"28.43","city":"Thanh Hóa","latitude":"20.09N","longitude":"105.78E"}
{"date":"2010-10-01","average_temperature":"26.273000000000003","city":"Thiruvananthapuram","latitude":"8.84N","longitude":"77.03E"}
{"date":"2012-11-01","average_temperature":"8.718","city":"Toda","latitude":"36.17N","longitude":"139.23E"}
{"date":"2013-05-01","average_temperature":"16.756999999999998","city":"Toda","latitude":"36.17N","longitude":"139.23E"}
{"date":"2011-12-01","average_temperature":"3.25","city":"Tokorozawa","latitude":"36.17N","longitude":"139.23E"}
{"date":"2011-04-01","average_temperature":"13.499","city":"Torrejón De Ardoz","latitude":"40.99N","longitude":"4.26W"}
{"date":"2013-02-01","average_temperature":"4.4030000000000005","city":"Torrejón De Ardoz","latitude":"40.99N","longitude":"4.26W"}
{"date":"2012-11-01","average_temperature":"11.014000000000001","city":"Toyota","latitude":"34.56N","longitude":"136.22E"}
{"date":"2012-09-01","average_temperature":"14.662","city":"Trier","latitude":"49.03N","longitude":"7.35E"}
{"date":"2011-08-01","average_temperature":"16.310000000000002","city":"Trujillo","latitude":"8.84S","longitude":"78.65W"}
{"date":"2010-12-01","average_temperature":"12.102","city":"Tucson","latitude":"31.35N","longitude":"111.20W"}
{"date":"2010-03-01","average_temperature":"26.668000000000003","city":"Tuguegarao","latitude":"18.48N","longitude":"121.69E"}
{"date":"2012-08-01","average_temperature":"27.874000000000002","city":"Tulsa","latitude":"36.17N","longitude":"95.47W"}
{"date":"2012-01-01","average_temperature":"10.934","city":"Tunis","latitude":"36.17N","longitude":"9.94E"}
{"date":"2012-11-01","average_temperature":"11.019","city":"Turhal","latitude":"40.99N","longitude":"36.21E"}
{"date":"2012-01-01","average_temperature":"22.125999999999998","city":"Uberaba","latitude":"20.09S","longitude":"47.77W"}
{"date":"2012-01-01","average_temperature":"22.17","city":"Uberlândia","latitude":"18.48S","longitude":"49.01W"}
{"date":"2010-03-01","average_temperature":"28.436999999999998","city":"Udon Thani","latitude":"16.87N","longitude":"102.14E"}
{"date":"2011-05-01","average_temperature":"16.147000000000002","city":"Ueda","latitude":"36.17N","longitude":"139.23E"}
{"date":"2010-10-01","average_temperature":"8.204","city":"Ulm","latitude":"49.03N","longitude":"9.80E"}
{"date":"2013-08-01","average_temperature":"29.539","city":"Ulubaria","latitude":"23.31N","longitude":"88.25E"}
{"date":"2013-04-01","average_temperature":"27.046999999999997","city":"Ungaran","latitude":"7.23S","longitude":"111.08E"}
{"date":"2011-06-01","average_temperature":"21.085","city":"Urayasu","latitude":"36.17N","longitude":"139.23E"}
{"date":"2010-08-01","average_temperature":"14.687999999999999","city":"Uruguaiana","latitude":"29.74S","longitude":"57.23W"}
{"date":"2011-02-01","average_temperature":"-20.385","city":"Ust Ilimsk","latitude":"58.66N","longitude":"101.54E"}
{"date":"2012-10-01","average_temperature":"18.779","city":"Valencia","latitude":"39.38N","longitude":"0.00W"}
{"date":"2011-07-01","average_temperature":"26.865","city":"Valencia","latitude":"10.45N","longitude":"67.91W"}
{"date":"2011-12-01","average_temperature":"4.604","city":"Valladolid","latitude":"40.99N","longitude":"4.26W"}
{"date":"2013-01-01","average_temperature":"4.691","city":"Valladolid","latitude":"40.99N","longitude":"4.26W"}
{"date":"2011-02-01","average_temperature":"16.561","city":"Valparaiso","latitude":"32.95S","longitude":"71.81W"}
{"date":"2011-01-01","average_temperature":"1.135","city":"Van","latitude":"37.78N","longitude":"42.71E"}
{"date":"2011-06-01","average_temperature":"13.784","city":"Vancouver","latitude":"45.81N","longitude":"123.46W"}
{"date":"2010-09-01","average_temperature":"29.154","city":"Varanasi","latitude":"24.92N","longitude":"83.35E"}
{"date":"2012-05-01","average_temperature":"16.373","city":"Varna","latitude":"42.59N","longitude":"28.36E"}
{"date":"2010-06-01","average_temperature":"16.999000000000002","city":"Velikie Luki","latitude":"57.05N","longitude":"30.98E"}
{"date":"2012-05-01","average_temperature":"13.32","city":"Verwoerdburg","latitude":"26.52S","longitude":"28.66E"}
{"date":"2010-02-01","average_temperature":"21.708000000000002","city":"Vidisha","latitude":"23.31N","longitude":"77.77E"}
{"date":"2013-07-01","average_temperature":"35.331","city":"Vihari","latitude":"29.74N","longitude":"72.00E"}
{"date":"2011-02-01","average_temperature":"26.663","city":"Vila Velha","latitude":"20.09S","longitude":"40.95W"}
{"date":"2013-04-01","average_temperature":"29.987","city":"Vinh Long","latitude":"10.45N","longitude":"105.55E"}
{"date":"2010-06-01","average_temperature":"27.413","city":"Viransehir","latitude":"37.78N","longitude":"40.68E"}
{"date":"2010-04-01","average_temperature":"30.669","city":"Vizianagaram","latitude":"18.48N","longitude":"82.82E"}
{"date":"2012-10-01","average_temperature":"25.208","city":"Vizianagaram","latitude":"18.48N","longitude":"82.82E"}
{"date":"2010-05-01","average_temperature":"11.742","city":"Vladikavkaz","latitude":"42.59N","longitude":"43.64E"}
{"date":"2013-03-01","average_temperature":"-0.3840000000000001","city":"Volgograd","latitude":"49.03N","longitude":"44.08E"}
{"date":"2012-10-01","average_temperature":"8.365","city":"Voronezh","latitude":"52.24N","longitude":"39.42E"}
{"date":"2010-08-01","average_temperature":"13.203","city":"Vryheid","latitude":"28.13S","longitude":"30.00E"}
{"date":"2010-02-01","average_temperature":"6.2410000000000005","city":"Waco","latitude":"31.35N","longitude":"98.01W"}
{"date":"2013-02-01","average_temperature":"-0.8240000000000001","city":"Walbrzych","latitude":"50.63N","longitude":"16.48E"}
{"date":"2011-05-01","average_temperature":"20.265","city":"Wanxian","latitude":"31.35N","longitude":"109.32E"}
{"date":"2013-09-01","city":"Warangal","latitude":"18.48N","longitude":"79.44E"}
{"date":"2013-05-01","average_temperature":"28.984","city":"Warqla","latitude":"31.35N","longitude":"5.65E"}
{"date":"2013-06-01","average_temperature":"19.784000000000002","city":"Waterbury","latitude":"40.99N","longitude":"72.43W"}
{"date":"2011-04-01","average_temperature":"24.298","city":"Wazirabad","latitude":"32.95N","longitude":"73.72E"}
{"date":"2012-03-01","average_temperature":"5.1190000000000015","city":"Weifang","latitude":"36.17N","longitude":"119.34E"}
{"date":"2013-03-01","average_temperature":"22.634","city":"Welkom","latitude":"28.13S","longitude":"26.36E"}
{"date":"2011-07-01","average_temperature":"24.483","city":"West Jordan","latitude":"40.99N","longitude":"112.90W"}
{"date":"2010-07-01","average_temperature":"22.297","city":"Wloclawek","latitude":"52.24N","longitude":"18.39E"}
{"date":"2011-02-01","average_temperature":"21.706999999999997","city":"Wollongong","latitude":"34.56S","longitude":"151.78E"}
{"date":"2010-06-01","average_temperature":"10.572","city":"Worcester","latitude":"32.95S","longitude":"20.11E"}
{"date":"2013-08-01","average_temperature":"19.579","city":"Worcester","latitude":"42.59N","longitude":"72.00W"}
{"date":"2013-09-01","average_temperature":"15.883","city":"Worcester","latitude":"42.59N","longitude":"72.00W"}
{"date":"2012-05-01","average_temperature":"14.367","city":"Wroclaw","latitude":"50.63N","longitude":"16.48E"}
{"date":"2010-03-01","average_temperature":"10.248","city":"Wuning","latitude":"29.74N","longitude":"120.00E"}
{"date":"2010-07-01","average_temperature":"28.241","city":"Wuxue","latitude":"29.74N","longitude":"116.31E"}
{"date":"2010-09-01","average_temperature":"22.37","city":"Xalapa","latitude":"20.09N","longitude":"97.25W"}
{"date":"2010-04-01","average_temperature":"11.377","city":"Xianyang","latitude":"34.56N","longitude":"108.97E"}
{"date":"2011-03-01","average_temperature":"15.557","city":"Xiaolan","latitude":"23.31N","longitude":"112.72E"}
{"date":"2012-07-01","average_temperature":"17.525000000000002","city":"Xico","latitude":"20.09N","longitude":"98.96W"}
{"date":"2010-04-01","average_temperature":"18.062","city":"Xingyi","latitude":"24.92N","longitude":"104.63E"}
{"date":"2012-09-01","average_temperature":"21.585","city":"Xinpu","latitude":"34.56N","longitude":"118.70E"}
{"date":"2010-11-01","average_temperature":"12.267999999999999","city":"Xuanzhou","latitude":"31.35N","longitude":"118.74E"}
{"date":"2010-02-01","average_temperature":"8.485","city":"Yaizu","latitude":"34.56N","longitude":"138.16E"}
{"date":"2011-04-01","average_temperature":"26.561","city":"Yamunanagar","latitude":"29.74N","longitude":"77.54E"}
{"date":"2010-09-01","average_temperature":"23.976000000000006","city":"Yancheng","latitude":"32.95N","longitude":"119.68E"}
{"date":"2012-10-01","average_temperature":"5.225","city":"Yaroslavl","latitude":"57.05N","longitude":"39.84E"}
{"date":"2011-11-01","average_temperature":"24.53","city":"Yavatmal","latitude":"20.09N","longitude":"78.48E"}
{"date":"2010-07-01","average_temperature":"24.113000000000003","city":"Yelahanka","latitude":"13.66N","longitude":"76.79E"}
{"date":"2011-04-01","average_temperature":"28.028000000000002","city":"Yelahanka","latitude":"13.66N","longitude":"76.79E"}
{"date":"2011-09-01","average_temperature":"27.971999999999998","city":"Yenangyaung","latitude":"20.09N","longitude":"95.55E"}
{"date":"2011-10-01","average_temperature":"15.582999999999998","city":"Yibin","latitude":"28.13N","longitude":"104.55E"}
{"date":"2011-10-01","average_temperature":"18.204","city":"Yichun","latitude":"28.13N","longitude":"113.64E"}
{"date":"2012-11-01","average_temperature":"11.815","city":"Yichun","latitude":"28.13N","longitude":"113.64E"}
{"date":"2012-03-01","average_temperature":"9.811","city":"Yingcheng","latitude":"31.35N","longitude":"113.09E"}
{"date":"2012-04-01","average_temperature":"18.375","city":"Yingcheng","latitude":"31.35N","longitude":"113.09E"}
{"date":"2012-05-01","average_temperature":"16.162","city":"Yonago","latitude":"36.17N","longitude":"133.26E"}
{"date":"2013-04-01","average_temperature":"12.239","city":"Yuncheng","latitude":"34.56N","longitude":"110.92E"}
{"date":"2013-07-01","average_temperature":"24.476000000000006","city":"Yuncheng","latitude":"34.56N","longitude":"110.92E"}
{"date":"2012-07-01","average_temperature":"28.763","city":"Yungho","latitude":"24.92N","longitude":"122.36E"}
{"date":"2012-08-01","average_temperature":"33.795","city":"Zabol","latitude":"31.35N","longitude":"62.20E"}
{"date":"2013-07-01","average_temperature":"18.957","city":"Zacatecas","latitude":"23.31N","longitude":"102.23W"}
{"date":"2010-06-01","average_temperature":"22.794","city":"Zamora","latitude":"20.09N","longitude":"102.37W"}
{"date":"2011-04-01","average_temperature":"18.387999999999998","city":"Zaoyang","latitude":"31.35N","longitude":"113.09E"}
{"date":"2013-04-01","average_temperature":"13.347","city":"Zaragoza","latitude":"40.99N","longitude":"0.00W"}
{"date":"2011-03-01","average_temperature":"8.061","city":"Zhangdian","latitude":"36.17N","longitude":"117.35E"}
{"date":"2012-10-01","average_temperature":"7.221","city":"Zhangjiakou","latitude":"40.99N","longitude":"115.03E"}
{"date":"2011-11-01","average_temperature":"9.6","city":"Zhaocheng","latitude":"37.78N","longitude":"120.00E"}
{"date":"2013-09-01","city":"Zhaoyang","latitude":"32.95N","longitude":"119.68E"}
{"date":"2011-08-01","average_temperature":"24.866999999999997","city":"Zhoucun","latitude":"36.17N","longitude":"117.35E"}
{"date":"2011-04-01","average_temperature":"12.969","city":"Zhucheng","latitude":"36.17N","longitude":"119.34E"}
{"date":"2010-02-01","average_temperature":"4.471","city":"Zhumadian","latitude":"32.95N","longitude":"113.94E"}
{"date":"2013-04-01","average_temperature":"7.71","city":"Zwolle","latitude":"52.24N","longitude":"5.26E"}
