{"date":"2012-08-01","average_temperature":"17.489","city":"Öskemen","latitude":"50.63N","longitude":"82.39E"}
{"date":"2012-05-01","average_temperature":"15.24","city":"A Coruña","latitude":"42.59N","longitude":"8.73W"}
{"date":"2012-08-01","average_temperature":"18.959","city":"Aachen","latitude":"50.63N","longitude":"6.34E"}
{"date":"2012-12-01","average_temperature":"27.135","city":"Aba","latitude":"5.63N","longitude":"8.07E"}
{"date":"2012-05-01","average_temperature":"9.863999999999999","city":"Abakan","latitude":"53.84N","longitude":"91.36E"}
{"date":"2011-07-01","average_temperature":"25.829","city":"Abengourou","latitude":"7.23N","longitude":"4.05W"}
{"date":"2013-09-01","city":"Abengourou","latitude":"7.23N","longitude":"4.05W"}
{"date":"2011-04-01","average_temperature":"8.95","city":"Aberdeen","latitude":"57.05N","longitude":"1.48W"}
{"date":"2010-02-01","average_temperature":"4.51","city":"Abilene","latitude":"32.95N","longitude":"100.53W"}
{"date":"2011-12-01","average_temperature":"28.341","city":"Abomey Calavi","latitude":"7.23N","longitude":"2.43E"}
{"date":"2012-03-01","average_temperature":"30.16","city":"Abomey Calavi","latitude":"7.23N","longitude":"2.43E"}
{"date":"2012-01-01","average_temperature":"19.243","city":"Abu Dhabi","latitude":"24.92N","longitude":"54.98E"}
{"date":"2011-12-01","average_temperature":"26.13","city":"Acapulco","latitude":"16.87N","longitude":"100.47W"}
{"date":"2011-09-01","average_temperature":"27.225","city":"Acuña","latitude":"29.74N","longitude":"101.54W"}
{"date":"2010-04-01","average_temperature":"19.876","city":"Addis Abeba","latitude":"8.84N","longitude":"38.11E"}
{"date":"2013-07-01","average_temperature":"28.732","city":"Aden","latitude":"13.66N","longitude":"45.41E"}
{"date":"2011-11-01","average_temperature":"27.114","city":"Adiwerna","latitude":"7.23S","longitude":"109.46E"}
{"date":"2010-03-01","average_temperature":"17.84","city":"Agadir","latitude":"29.74N","longitude":"9.23W"}
{"date":"2011-04-01","average_temperature":"27.673","city":"Agartala","latitude":"23.31N","longitude":"91.75E"}
{"date":"2012-07-01","average_temperature":"21.162000000000006","city":"Aguascalientes","latitude":"21.70N","longitude":"102.98W"}
{"date":"2012-01-01","average_temperature":"11.998","city":"Ahvaz","latitude":"31.35N","longitude":"49.01E"}
{"date":"2011-07-01","average_temperature":"27.299","city":"Akola","latitude":"20.09N","longitude":"76.78E"}
{"date":"2010-05-01","average_temperature":"28.881","city":"Akyab","latitude":"20.09N","longitude":"92.13E"}
{"date":"2012-09-01","average_temperature":"18.204","city":"Alcorcón","latitude":"40.99N","longitude":"4.26W"}
{"date":"2010-08-01","average_temperature":"26.996","city":"Algeciras","latitude":"36.17N","longitude":"5.97W"}
{"date":"2011-07-01","average_temperature":"30.947","city":"Aligarh","latitude":"28.13N","longitude":"77.27E"}
{"date":"2010-01-01","average_temperature":"-2.359","city":"Allentown","latitude":"40.99N","longitude":"74.56W"}
{"date":"2013-04-01","average_temperature":"8.456","city":"Almaty","latitude":"42.59N","longitude":"76.36E"}
{"date":"2010-03-01","average_temperature":"26.953000000000003","city":"Alwar","latitude":"28.13N","longitude":"77.27E"}
{"date":"2012-02-01","average_temperature":"28.76","city":"Amaigbo","latitude":"5.63N","longitude":"8.07E"}
{"date":"2011-10-01","average_temperature":"29.015","city":"Ambattur","latitude":"13.66N","longitude":"80.09E"}
{"date":"2010-04-01","average_temperature":"31.576","city":"Ambur","latitude":"12.05N","longitude":"78.90E"}
{"date":"2012-05-01","average_temperature":"14.169","city":"Amersfoort","latitude":"52.24N","longitude":"5.26E"}
{"date":"2011-05-01","average_temperature":"27.318","city":"Anaco","latitude":"8.84N","longitude":"64.05W"}
{"date":"2010-08-01","average_temperature":"10.384","city":"Anchorage","latitude":"61.88N","longitude":"151.13W"}
{"date":"2012-11-01","average_temperature":"-9.535","city":"Angarsk","latitude":"52.24N","longitude":"105.11E"}
{"date":"2013-08-01","average_temperature":"26.754","city":"Angeles","latitude":"15.27N","longitude":"120.83E"}
{"date":"2013-09-01","city":"Antofagasta","latitude":"23.31S","longitude":"70.78W"}
{"date":"2010-05-01","average_temperature":"11.578","city":"Antwerp","latitude":"50.63N","longitude":"3.80E"}
{"date":"2011-02-01","average_temperature":"26.134","city":"Araçatuba","latitude":"21.70S","longitude":"51.06W"}
{"date":"2012-04-01","average_temperature":"27.448","city":"Arapiraca","latitude":"10.45S","longitude":"36.82W"}
{"date":"2011-01-01","average_temperature":"24.927","city":"Arjawinangun","latitude":"7.23S","longitude":"107.84E"}
{"date":"2011-11-01","average_temperature":"-0.8889999999999998","city":"Arkhangelsk","latitude":"65.09N","longitude":"40.21E"}
{"date":"2012-10-01","average_temperature":"13.607000000000001","city":"Arlington","latitude":"39.38N","longitude":"76.99W"}
{"date":"2011-09-01","average_temperature":"15.788","city":"Arnhem","latitude":"52.24N","longitude":"5.26E"}
{"date":"2010-10-01","average_temperature":"26.531999999999996","city":"Asansol","latitude":"23.31N","longitude":"86.50E"}
{"date":"2011-07-01","average_temperature":"30.263","city":"Asgabat","latitude":"37.78N","longitude":"58.98E"}
{"date":"2012-01-01","average_temperature":"12.575999999999999","city":"Ashdod","latitude":"31.35N","longitude":"33.93E"}
{"date":"2010-03-01","average_temperature":"18.335","city":"Ashqelon","latitude":"31.35N","longitude":"33.93E"}
{"date":"2010-03-01","average_temperature":"23.345","city":"Atibaia","latitude":"23.31S","longitude":"46.31W"}
{"date":"2011-03-01","average_temperature":"5.018000000000002","city":"Aurora","latitude":"39.38N","longitude":"104.05W"}
{"date":"2011-06-01","average_temperature":"30.441","city":"Azare","latitude":"12.05N","longitude":"9.86E"}
{"date":"2013-09-01","city":"Bacau","latitude":"45.81N","longitude":"26.54E"}
{"date":"2011-05-01","average_temperature":"13.699000000000002","city":"Badaojiang","latitude":"42.59N","longitude":"126.55E"}
{"date":"2012-05-01","average_temperature":"23.881999999999998","city":"Bafoussam","latitude":"5.63N","longitude":"9.69E"}
{"date":"2011-09-01","average_temperature":"32.055","city":"Baghdad","latitude":"32.95N","longitude":"45.00E"}
{"date":"2012-04-01","average_temperature":"30.105999999999998","city":"Bago","latitude":"16.87N","longitude":"97.12E"}
{"date":"2010-04-01","average_temperature":"30.255000000000006","city":"Bahraich","latitude":"28.13N","longitude":"80.91E"}
{"date":"2011-07-01","average_temperature":"24.561","city":"Baicheng","latitude":"45.81N","longitude":"123.46E"}
{"date":"2011-02-01","average_temperature":"-11.759","city":"Balashikha","latitude":"55.45N","longitude":"36.85E"}
{"date":"2013-02-01","average_temperature":"-4.725999999999999","city":"Balashikha","latitude":"55.45N","longitude":"36.85E"}
{"date":"2012-05-01","average_temperature":"32.232","city":"Bally","latitude":"23.31N","longitude":"88.25E"}
{"date":"2013-06-01","average_temperature":"28.839000000000002","city":"Bamako","latitude":"12.05N","longitude":"8.22W"}
{"date":"2011-06-01","average_temperature":"22.329","city":"Bandar E Anzali","latitude":"37.78N","longitude":"48.81E"}
{"date":"2011-10-01","average_temperature":"26.184","city":"Bandung","latitude":"7.23S","longitude":"107.84E"}
{"date":"2013-07-01","average_temperature":"29.092","city":"Bankura","latitude":"23.31N","longitude":"86.50E"}
{"date":"2012-12-01","average_temperature":"19.621","city":"Baranagar","latitude":"23.31N","longitude":"88.25E"}
{"date":"2011-04-01","average_temperature":"28.734","city":"Baripada","latitude":"21.70N","longitude":"87.40E"}
{"date":"2012-05-01","average_temperature":"28.025","city":"Barranquilla","latitude":"10.45N","longitude":"74.45W"}
{"date":"2012-10-01","average_temperature":"28.523000000000003","city":"Barreiras","latitude":"12.05S","longitude":"44.38W"}
{"date":"2011-07-01","average_temperature":"20.888","city":"Barretos","latitude":"20.09S","longitude":"47.77W"}
{"date":"2012-10-01","average_temperature":"25.851999999999997","city":"Barsi","latitude":"18.48N","longitude":"76.06E"}
{"date":"2010-12-01","average_temperature":"16.717","city":"Bayrut","latitude":"34.56N","longitude":"35.03E"}
{"date":"2013-01-01","average_temperature":"26.741999999999997","city":"Bekasi","latitude":"5.63S","longitude":"106.55E"}
{"date":"2010-08-01","average_temperature":"28.049","city":"Belawan","latitude":"4.02N","longitude":"98.84E"}
{"date":"2010-03-01","average_temperature":"16.295","city":"Benghazi","latitude":"32.95N","longitude":"20.11E"}
{"date":"2010-11-01","average_temperature":"21.258000000000006","city":"Beni Suef","latitude":"29.74N","longitude":"31.38E"}
{"date":"2011-07-01","average_temperature":"19.477","city":"Bergamo","latitude":"45.81N","longitude":"10.38E"}
{"date":"2011-10-01","average_temperature":"3.717000000000001","city":"Bergen","latitude":"60.27N","longitude":"6.49E"}
{"date":"2012-03-01","average_temperature":"8.16","city":"Bergisch Gladbach","latitude":"50.63N","longitude":"6.34E"}
{"date":"2012-08-01","average_temperature":"20.531","city":"Berkeley","latitude":"37.78N","longitude":"122.03W"}
{"date":"2011-08-01","average_temperature":"23.164","city":"Bertoua","latitude":"4.02N","longitude":"13.66E"}
{"date":"2012-06-01","average_temperature":"9.224","city":"Bethal","latitude":"26.52S","longitude":"28.66E"}
{"date":"2010-02-01","average_temperature":"19.498","city":"Bettiah","latitude":"26.52N","longitude":"84.18E"}
{"date":"2011-11-01","average_temperature":"22.106","city":"Bettiah","latitude":"26.52N","longitude":"84.18E"}
{"date":"2013-08-01","average_temperature":"29.539","city":"Bhadreswar","latitude":"23.31N","longitude":"88.25E"}
{"date":"2012-10-01","average_temperature":"15.158","city":"Bharatpur","latitude":"28.13N","longitude":"84.55E"}
{"date":"2010-08-01","average_temperature":"27.467","city":"Bhilwara","latitude":"24.92N","longitude":"74.48E"}
{"date":"2010-06-01","average_temperature":"29.421999999999997","city":"Biên Hòa","latitude":"10.45N","longitude":"107.18E"}
{"date":"2012-03-01","average_temperature":"8.017999999999999","city":"Bielefeld","latitude":"52.24N","longitude":"7.88E"}
{"date":"2012-06-01","average_temperature":"34.313","city":"Bihar","latitude":"24.92N","longitude":"85.12E"}
{"date":"2012-03-01","average_temperature":"26.881","city":"Binjai","latitude":"4.02N","longitude":"98.84E"}
{"date":"2010-08-01","average_temperature":"15.242","city":"Birmingham","latitude":"52.24N","longitude":"2.63W"}
{"date":"2013-01-01","average_temperature":"25.279","city":"Birnin Kebbi","latitude":"12.05N","longitude":"4.93E"}
{"date":"2010-04-01","average_temperature":"31.344","city":"Bissau","latitude":"12.05N","longitude":"14.79W"}
{"date":"2011-01-01","average_temperature":"5.257000000000001","city":"Blackpool","latitude":"53.84N","longitude":"4.09W"}
{"date":"2010-07-01","average_temperature":"19.666","city":"Blantyre","latitude":"15.27S","longitude":"35.83E"}
{"date":"2013-04-01","average_temperature":"22.819000000000006","city":"Blantyre","latitude":"15.27S","longitude":"35.83E"}
{"date":"2012-12-01","average_temperature":"28.483","city":"Boa Vista","latitude":"2.41N","longitude":"60.27W"}
{"date":"2013-03-01","average_temperature":"1.056","city":"Bochum","latitude":"52.24N","longitude":"7.88E"}
{"date":"2010-10-01","average_temperature":"25.881","city":"Bogor","latitude":"7.23S","longitude":"106.22E"}
{"date":"2012-04-01","average_temperature":"28.223000000000006","city":"Bombay","latitude":"18.48N","longitude":"72.68E"}
{"date":"2010-04-01","average_temperature":"14.946","city":"Braga","latitude":"40.99N","longitude":"8.52W"}
{"date":"2011-12-01","average_temperature":"22.244","city":"Bragança Paulista","latitude":"23.31S","longitude":"46.31W"}
{"date":"2012-09-01","average_temperature":"20.464000000000002","city":"Bragança Paulista","latitude":"23.31S","longitude":"46.31W"}
{"date":"2011-07-01","average_temperature":"7.3450000000000015","city":"Brakpan","latitude":"26.52S","longitude":"28.66E"}
{"date":"2010-08-01","average_temperature":"20.474","city":"Bratislava","latitude":"47.42N","longitude":"17.76E"}
{"date":"2013-05-01","average_temperature":"7.081","city":"Bratsk","latitude":"55.45N","longitude":"102.05E"}
{"date":"2012-01-01","average_temperature":"24.71","city":"Brazzaville","latitude":"4.02S","longitude":"15.27E"}
{"date":"2012-10-01","average_temperature":"21.16","city":"Brits","latitude":"24.92S","longitude":"28.37E"}
{"date":"2011-08-01","average_temperature":"19.78","city":"Brno","latitude":"49.03N","longitude":"17.14E"}
{"date":"2010-09-01","average_temperature":"27.805000000000003","city":"Brownsville","latitude":"26.52N","longitude":"96.72W"}
{"date":"2012-07-01","average_temperature":"28.318","city":"Brownsville","latitude":"26.52N","longitude":"96.72W"}
{"date":"2011-11-01","average_temperature":"8.280999999999999","city":"Brugge","latitude":"50.63N","longitude":"3.80E"}
{"date":"2011-12-01","average_temperature":"6.05","city":"Brugge","latitude":"50.63N","longitude":"3.80E"}
{"date":"2013-05-01","average_temperature":"12.494000000000002","city":"Brunswick","latitude":"52.24N","longitude":"10.51E"}
{"date":"2011-07-01","average_temperature":"16.393","city":"Brussels","latitude":"50.63N","longitude":"3.80E"}
{"date":"2012-04-01","average_temperature":"8.620000000000001","city":"Brussels","latitude":"50.63N","longitude":"3.80E"}
{"date":"2012-03-01","average_temperature":"23.663","city":"Budaun","latitude":"28.13N","longitude":"79.09E"}
{"date":"2011-04-01","average_temperature":"7.449999999999998","city":"Buffalo","latitude":"42.59N","longitude":"78.55W"}
{"date":"2011-12-01","average_temperature":"8.867999999999997","city":"Burbank","latitude":"34.56N","longitude":"118.70W"}
{"date":"2010-06-01","average_temperature":"30.829","city":"Bushehr","latitude":"29.74N","longitude":"51.69E"}
{"date":"2011-08-01","average_temperature":"21.968000000000004","city":"Cúcuta","latitude":"7.23N","longitude":"72.16W"}
{"date":"2010-01-01","average_temperature":"25.454","city":"Cabanatuan","latitude":"15.27N","longitude":"120.83E"}
{"date":"2010-10-01","average_temperature":"18.598","city":"Cagliari","latitude":"39.38N","longitude":"8.32E"}
{"date":"2010-12-01","average_temperature":"25.912000000000006","city":"Cainta","latitude":"15.27N","longitude":"120.83E"}
{"date":"2010-11-01","average_temperature":"24.784000000000002","city":"Cairns","latitude":"16.87S","longitude":"145.67E"}
{"date":"2010-10-01","average_temperature":"16.314","city":"Cajamarca","latitude":"7.23S","longitude":"78.65W"}
{"date":"2012-11-01","average_temperature":"24.776999999999997","city":"Cam Ranh","latitude":"12.05N","longitude":"108.49E"}
{"date":"2011-10-01","average_temperature":"25.793000000000003","city":"Camaçari","latitude":"12.05S","longitude":"37.81W"}
{"date":"2010-03-01","average_temperature":"24.373","city":"Campeche","latitude":"20.09N","longitude":"90.43W"}
{"date":"2011-12-01","average_temperature":"15.307","city":"Canberra","latitude":"36.17S","longitude":"149.17E"}
{"date":"2010-10-01","average_temperature":"17.807000000000002","city":"Canoas","latitude":"29.74S","longitude":"51.69W"}
{"date":"2012-03-01","average_temperature":"24.661","city":"Cap Haïtien","latitude":"20.09N","longitude":"71.66W"}
{"date":"2011-11-01","average_temperature":"27.199","city":"Cape Coast","latitude":"5.63N","longitude":"1.61W"}
{"date":"2012-08-01","average_temperature":"22.116","city":"Capiatá","latitude":"24.92S","longitude":"56.75W"}
{"date":"2012-11-01","average_temperature":"27.840999999999998","city":"Castanhal","latitude":"0.80S","longitude":"47.41W"}
{"date":"2011-04-01","average_temperature":"21.086","city":"Celaya","latitude":"20.09N","longitude":"100.66W"}
{"date":"2012-09-01","average_temperature":"18.713","city":"Celaya","latitude":"20.09N","longitude":"100.66W"}
{"date":"2012-11-01","average_temperature":"15.489","city":"Celaya","latitude":"20.09N","longitude":"100.66W"}
{"date":"2012-01-01","average_temperature":"10.700999999999999","city":"Chakwal","latitude":"32.95N","longitude":"73.72E"}
{"date":"2012-08-01","average_temperature":"18.505000000000006","city":"Chandigarh","latitude":"31.35N","longitude":"77.28E"}
{"date":"2012-07-01","average_temperature":"28.127","city":"Chandrapur","latitude":"20.09N","longitude":"78.48E"}
{"date":"2011-08-01","average_temperature":"27.609","city":"Changde","latitude":"28.13N","longitude":"111.82E"}
{"date":"2011-12-01","average_temperature":"7.803999999999999","city":"Chattanooga","latitude":"34.56N","longitude":"85.62W"}
{"date":"2011-10-01","average_temperature":"6.09","city":"Cheboksary","latitude":"55.45N","longitude":"48.19E"}
{"date":"2012-08-01","average_temperature":"19.059","city":"Chelyabinsk","latitude":"55.45N","longitude":"62.36E"}
{"date":"2012-01-01","average_temperature":"-4.617","city":"Cherkasy","latitude":"49.03N","longitude":"31.84E"}
{"date":"2012-08-01","average_temperature":"19.06","city":"Chernihiv","latitude":"52.24N","longitude":"31.53E"}
{"date":"2010-11-01","average_temperature":"7.403","city":"Chernivtsi","latitude":"49.03N","longitude":"26.94E"}
{"date":"2011-01-01","average_temperature":"21.505","city":"Chiang Mai","latitude":"18.48N","longitude":"99.72E"}
{"date":"2010-10-01","average_temperature":"7.1770000000000005","city":"Chifeng","latitude":"42.59N","longitude":"120.00E"}
{"date":"2013-06-01","average_temperature":"35.93","city":"Chishtian Mandi","latitude":"29.74N","longitude":"72.00E"}
{"date":"2011-08-01","average_temperature":"17.287000000000006","city":"Chitungwiza","latitude":"18.48S","longitude":"30.42E"}
{"date":"2012-04-01","average_temperature":"19.129","city":"Chitungwiza","latitude":"18.48S","longitude":"30.42E"}
{"date":"2013-02-01","average_temperature":"2.046","city":"Chofu","latitude":"36.17N","longitude":"139.23E"}
{"date":"2013-01-01","average_temperature":"13.404000000000002","city":"Chula Vista","latitude":"32.95N","longitude":"117.77W"}
{"date":"2010-03-01","average_temperature":"17.894000000000002","city":"Chupei","latitude":"24.92N","longitude":"120.59E"}
{"date":"2013-08-01","average_temperature":"26.869","city":"Cibinong","latitude":"5.63S","longitude":"106.55E"}
{"date":"2010-09-01","average_temperature":"27.796","city":"Ciego De Ávila","latitude":"21.70N","longitude":"78.75W"}
{"date":"2011-07-01","average_temperature":"27.072","city":"Cikarang","latitude":"5.63S","longitude":"106.55E"}
{"date":"2012-07-01","average_temperature":"27.101","city":"Cikarang","latitude":"5.63S","longitude":"106.55E"}
{"date":"2013-08-01","average_temperature":"25.459000000000003","city":"Cimahi","latitude":"7.23S","longitude":"107.84E"}
{"date":"2010-07-01","average_temperature":"25.267","city":"Ciparay","latitude":"7.23S","longitude":"107.84E"}
{"date":"2011-06-01","average_temperature":"25.349","city":"Ciparay","latitude":"7.23S","longitude":"107.84E"}
{"date":"2013-01-01","average_temperature":"15.964","city":"Ciudad Valles","latitude":"21.70N","longitude":"99.52W"}
{"date":"2010-01-01","average_temperature":"21.016","city":"Coatzacoalcos","latitude":"18.48N","longitude":"94.65W"}
{"date":"2011-10-01","average_temperature":"23.161","city":"Colatina","latitude":"20.09S","longitude":"40.95W"}
{"date":"2012-04-01","average_temperature":"11.409","city":"Columbus","latitude":"39.38N","longitude":"83.24W"}
{"date":"2012-11-01","average_temperature":"16.38","city":"Comodoro Rivadavia","latitude":"45.81S","longitude":"68.08W"}
{"date":"2010-08-01","average_temperature":"20.301","city":"Conselheiro Lafaiete","latitude":"20.09S","longitude":"44.36W"}
{"date":"2010-10-01","average_temperature":"11.753","city":"Constanta","latitude":"44.20N","longitude":"29.07E"}
{"date":"2013-03-01","average_temperature":"12.886","city":"Copiapo","latitude":"28.13S","longitude":"70.00W"}
{"date":"2010-09-01","average_temperature":"18.4","city":"Corrientes","latitude":"28.13S","longitude":"59.09W"}
{"date":"2013-01-01","average_temperature":"25.971999999999998","city":"Cotabato","latitude":"7.23N","longitude":"124.05E"}
{"date":"2011-07-01","average_temperature":"17.597","city":"Cotia","latitude":"23.31S","longitude":"46.31W"}
{"date":"2011-04-01","average_temperature":"10.872","city":"Cracow","latitude":"50.63N","longitude":"19.01E"}
{"date":"2010-10-01","average_temperature":"11.938","city":"Crawley","latitude":"50.63N","longitude":"1.27W"}
{"date":"2010-09-01","average_temperature":"17.083","city":"Cuautitlán Izcalli","latitude":"20.09N","longitude":"98.96W"}
{"date":"2012-01-01","average_temperature":"25.481","city":"Cuiabá","latitude":"15.27S","longitude":"55.83W"}
{"date":"2011-10-01","average_temperature":"27.035999999999998","city":"Curug","latitude":"5.63S","longitude":"106.55E"}
{"date":"2010-07-01","average_temperature":"21.101","city":"Czestochowa","latitude":"50.63N","longitude":"19.01E"}
{"date":"2010-07-01","average_temperature":"26.965999999999998","city":"Da Nang","latitude":"15.27N","longitude":"107.50E"}
{"date":"2012-09-01","average_temperature":"25.973000000000003","city":"Da Nang","latitude":"15.27N","longitude":"107.50E"}
{"date":"2010-02-01","average_temperature":"25.09","city":"Dagupan","latitude":"16.87N","longitude":"120.56E"}
{"date":"2012-07-01","average_temperature":"24.035","city":"Dalian","latitude":"39.38N","longitude":"120.69E"}
{"date":"2012-06-01","average_temperature":"15.261","city":"Darmstadt","latitude":"50.63N","longitude":"8.87E"}
{"date":"2011-05-01","average_temperature":"21.980999999999998","city":"Daxian","latitude":"31.35N","longitude":"107.43E"}
{"date":"2010-11-01","average_temperature":"8.106","city":"Debrecen","latitude":"47.42N","longitude":"22.50E"}
{"date":"2013-08-01","average_temperature":"28.513","city":"Dehra Dun","latitude":"29.74N","longitude":"77.54E"}
{"date":"2011-06-01","average_temperature":"32.96700000000001","city":"Delhi","latitude":"28.13N","longitude":"77.27E"}
{"date":"2012-04-01","average_temperature":"15.077","city":"Denizli","latitude":"37.78N","longitude":"28.47E"}
{"date":"2011-10-01","average_temperature":"26.8","city":"Denpasar","latitude":"8.84S","longitude":"115.95E"}
{"date":"2011-03-01","average_temperature":"27.241","city":"Depok","latitude":"5.63S","longitude":"106.55E"}
{"date":"2011-02-01","average_temperature":"14.726","city":"Dera Ghazi Khan","latitude":"29.74N","longitude":"70.15E"}
{"date":"2012-11-01","average_temperature":"20.067999999999998","city":"Dera Ismail Khan","latitude":"31.35N","longitude":"71.62E"}
{"date":"2010-10-01","average_temperature":"25.804000000000002","city":"Dhule","latitude":"20.09N","longitude":"75.07E"}
{"date":"2012-08-01","average_temperature":"26.844","city":"Digos","latitude":"7.23N","longitude":"125.68E"}
{"date":"2013-08-01","average_temperature":"24.871","city":"Divo","latitude":"5.63N","longitude":"4.84W"}
{"date":"2012-03-01","average_temperature":"31.084","city":"Djougou","latitude":"10.45N","longitude":"2.45E"}
{"date":"2012-07-01","average_temperature":"20.424000000000003","city":"Dodoma","latitude":"5.63S","longitude":"35.52E"}
{"date":"2010-05-01","average_temperature":"15.895","city":"Downey","latitude":"34.56N","longitude":"118.70W"}
{"date":"2010-01-01","average_temperature":"27.366","city":"Dumai","latitude":"2.41N","longitude":"102.05E"}
{"date":"2013-04-01","average_temperature":"4.8980000000000015","city":"Dundee","latitude":"57.05N","longitude":"4.43W"}
{"date":"2011-11-01","average_temperature":"11.169","city":"Durham","latitude":"36.17N","longitude":"79.56W"}
{"date":"2010-06-01","average_temperature":"18.492","city":"Dzerzhinsk","latitude":"57.05N","longitude":"42.79E"}
{"date":"2010-04-01","average_temperature":"9.033999999999999","city":"Eastbourne","latitude":"50.63N","longitude":"1.27E"}
{"date":"2010-03-01","average_temperature":"27.234","city":"Edéa","latitude":"4.02N","longitude":"10.45E"}
{"date":"2012-08-01","average_temperature":"14.743","city":"Edinburgh","latitude":"55.45N","longitude":"2.83W"}
{"date":"2013-06-01","average_temperature":"14.412","city":"Edmonton","latitude":"53.84N","longitude":"113.18W"}
{"date":"2011-11-01","average_temperature":"23.626","city":"Ejido","latitude":"8.84N","longitude":"70.54W"}
{"date":"2012-08-01","average_temperature":"26.751","city":"El Paso","latitude":"31.35N","longitude":"105.55W"}
{"date":"2010-02-01","average_temperature":"21.171999999999997","city":"Envigado","latitude":"5.63N","longitude":"75.87W"}
{"date":"2010-03-01","average_temperature":"5.622999999999999","city":"Erzincan","latitude":"39.38N","longitude":"39.54E"}
{"date":"2013-03-01","average_temperature":"1.8340000000000003","city":"Essen","latitude":"50.63N","longitude":"6.34E"}
{"date":"2010-08-01","average_temperature":"29.589","city":"Etawah","latitude":"26.52N","longitude":"78.81E"}
{"date":"2010-02-01","average_temperature":"16.91","city":"Faisalabad","latitude":"31.35N","longitude":"73.51E"}
{"date":"2012-02-01","average_temperature":"17.087999999999994","city":"Faridabad","latitude":"28.13N","longitude":"77.27E"}
{"date":"2012-02-01","average_temperature":"22.051","city":"Faridpur","latitude":"23.31N","longitude":"90.00E"}
{"date":"2012-06-01","average_temperature":"24.263","city":"Fayetteville","latitude":"34.56N","longitude":"79.78W"}
{"date":"2013-05-01","average_temperature":"18.317","city":"Ferraz De Vasconcelos","latitude":"23.31S","longitude":"46.31W"}
{"date":"2013-07-01","average_temperature":"16.849","city":"Ferraz De Vasconcelos","latitude":"23.31S","longitude":"46.31W"}
{"date":"2011-08-01","average_temperature":"22.255000000000006","city":"Flint","latitude":"42.59N","longitude":"82.91W"}
{"date":"2012-03-01","average_temperature":"24.213","city":"Florianópolis","latitude":"28.13S","longitude":"48.18W"}
{"date":"2012-04-01","average_temperature":"23.115","city":"Fort Lauderdale","latitude":"26.52N","longitude":"80.60W"}
{"date":"2012-10-01","average_temperature":"25.017","city":"Fort Lauderdale","latitude":"26.52N","longitude":"80.60W"}
{"date":"2011-01-01","average_temperature":"-5.643","city":"Fort Wayne","latitude":"40.99N","longitude":"85.21W"}
{"date":"2011-11-01","average_temperature":"13.81","city":"Fort Worth","latitude":"32.95N","longitude":"96.70W"}
{"date":"2013-06-01","average_temperature":"15.84","city":"Frankfurt","latitude":"50.63N","longitude":"8.87E"}
{"date":"2010-08-01","average_temperature":"23.23","city":"Fushun","latitude":"40.99N","longitude":"123.55E"}
{"date":"2010-09-01","average_temperature":"17.862000000000005","city":"Fushun","latitude":"40.99N","longitude":"123.55E"}
{"date":"2012-09-01","average_temperature":"22.081000000000003","city":"Fuyang","latitude":"32.95N","longitude":"115.85E"}
{"date":"2011-10-01","average_temperature":"20.997","city":"Gómez Palacio","latitude":"24.92N","longitude":"102.86W"}
{"date":"2011-08-01","average_temperature":"17.921","city":"Göttingen","latitude":"52.24N","longitude":"10.51E"}
{"date":"2010-06-01","average_temperature":"32.667","city":"Gandhidham","latitude":"23.31N","longitude":"70.78E"}
{"date":"2012-08-01","average_temperature":"28.701","city":"Gandhidham","latitude":"23.31N","longitude":"70.78E"}
{"date":"2012-08-01","average_temperature":"25.355","city":"Gangawati","latitude":"15.27N","longitude":"75.83E"}
{"date":"2011-04-01","average_temperature":"27.084","city":"Garza García","latitude":"26.52N","longitude":"100.30W"}
{"date":"2012-05-01","average_temperature":"17.68","city":"Gaziantep","latitude":"37.78N","longitude":"36.61E"}
{"date":"2010-12-01","average_temperature":"19.727999999999998","city":"Gazipur","latitude":"23.31N","longitude":"90.00E"}
{"date":"2012-01-01","average_temperature":"15.25","city":"General Escobedo","latitude":"26.52N","longitude":"100.30W"}
{"date":"2011-05-01","average_temperature":"15.056","city":"Gent","latitude":"50.63N","longitude":"3.80E"}
{"date":"2011-01-01","average_temperature":"10.703","city":"Gilbert","latitude":"32.95N","longitude":"112.02W"}
{"date":"2011-09-01","average_temperature":"30.251","city":"Glendale","latitude":"32.95N","longitude":"112.02W"}
{"date":"2011-04-01","average_temperature":"31.753","city":"Gombe","latitude":"10.45N","longitude":"10.64E"}
{"date":"2010-02-01","average_temperature":"6.9929999999999986","city":"Gorgan","latitude":"36.17N","longitude":"53.70E"}
{"date":"2010-06-01","average_temperature":"26.816999999999997","city":"Gorontalo","latitude":"0.80N","longitude":"122.95E"}
{"date":"2010-09-01","average_temperature":"15.453","city":"Green Bay","latitude":"44.20N","longitude":"87.20W"}
{"date":"2011-03-01","average_temperature":"4.5230000000000015","city":"Groningen","latitude":"53.84N","longitude":"6.82E"}
{"date":"2010-12-01","average_temperature":"14.832","city":"Guadalupe","latitude":"26.52N","longitude":"100.30W"}
{"date":"2011-02-01","average_temperature":"24.412","city":"Guarulhos","latitude":"23.31S","longitude":"46.31W"}
{"date":"2010-12-01","average_temperature":"16.205000000000002","city":"Guatemala","latitude":"15.27N","longitude":"90.83W"}
{"date":"2011-04-01","average_temperature":"21.203000000000003","city":"Guatemala City","latitude":"15.27N","longitude":"90.83W"}
{"date":"2010-06-01","average_temperature":"26.590999999999998","city":"Guatire","latitude":"10.45N","longitude":"66.27W"}
{"date":"2010-06-01","average_temperature":"17.455","city":"Guelph","latitude":"44.20N","longitude":"80.50W"}
{"date":"2013-04-01","average_temperature":"4.657","city":"Guelph","latitude":"44.20N","longitude":"80.50W"}
{"date":"2010-04-01","average_temperature":"28.160999999999998","city":"Gujranwala","latitude":"32.95N","longitude":"73.72E"}
{"date":"2011-08-01","average_temperature":"26.484","city":"Gulbarga","latitude":"16.87N","longitude":"77.02E"}
{"date":"2010-07-01","average_temperature":"31.465","city":"Gurgaon","latitude":"28.13N","longitude":"77.27E"}
{"date":"2010-07-01","average_temperature":"29.774","city":"Hòa Bình","latitude":"20.09N","longitude":"105.78E"}
{"date":"2011-05-01","average_temperature":"14.065999999999999","city":"Haarlemmermeer","latitude":"52.24N","longitude":"5.26E"}
{"date":"2012-07-01","average_temperature":"17.329","city":"Haarlemmermeer","latitude":"52.24N","longitude":"5.26E"}
{"date":"2012-09-01","average_temperature":"24.467","city":"Habikino","latitude":"34.56N","longitude":"136.22E"}
{"date":"2011-07-01","average_temperature":"29.473000000000003","city":"Habra","latitude":"23.31N","longitude":"88.25E"}
{"date":"2010-02-01","average_temperature":"0.3960000000000001","city":"Hagen","latitude":"52.24N","longitude":"7.88E"}
{"date":"2011-02-01","average_temperature":"26.04","city":"Hagonoy","latitude":"15.27N","longitude":"120.83E"}
{"date":"2010-11-01","average_temperature":"18.846","city":"Hai Phong","latitude":"21.70N","longitude":"106.44E"}
{"date":"2010-02-01","average_temperature":"13.738","city":"Haifa","latitude":"32.95N","longitude":"35.43E"}
{"date":"2011-10-01","average_temperature":"21.109","city":"Haifa","latitude":"32.95N","longitude":"35.43E"}
{"date":"2012-01-01","average_temperature":"9.609","city":"Haifa","latitude":"32.95N","longitude":"35.43E"}
{"date":"2010-06-01","average_temperature":"30.962","city":"Haldia","latitude":"21.70N","longitude":"87.40E"}
{"date":"2012-08-01","average_temperature":"21.919","city":"Haldwani","latitude":"29.74N","longitude":"79.38E"}
{"date":"2010-05-01","average_temperature":"8.977","city":"Halifax","latitude":"44.20N","longitude":"62.61W"}
{"date":"2013-08-01","average_temperature":"17.837","city":"Halle","latitude":"50.63N","longitude":"11.41E"}
{"date":"2010-07-01","average_temperature":"26.008000000000003","city":"Hami","latitude":"42.59N","longitude":"93.82E"}
{"date":"2011-12-01","average_temperature":"-10.275","city":"Hami","latitude":"42.59N","longitude":"93.82E"}
{"date":"2012-12-01","average_temperature":"2.48","city":"Hamilton","latitude":"42.59N","longitude":"80.73W"}
{"date":"2010-06-01","average_temperature":"27.959","city":"Hanoi","latitude":"21.70N","longitude":"106.44E"}
{"date":"2012-08-01","average_temperature":"18.191000000000006","city":"Harare","latitude":"18.48S","longitude":"30.42E"}
{"date":"2010-01-01","average_temperature":"-18.555","city":"Harbin","latitude":"45.81N","longitude":"125.77E"}
{"date":"2012-06-01","average_temperature":"20.401","city":"Harbin","latitude":"45.81N","longitude":"125.77E"}
{"date":"2013-02-01","average_temperature":"-16.209","city":"Harbin","latitude":"45.81N","longitude":"125.77E"}
{"date":"2011-05-01","average_temperature":"33.21","city":"Hardoi","latitude":"26.52N","longitude":"80.60E"}
{"date":"2010-07-01","average_temperature":"26.44","city":"Hargeysa","latitude":"8.84N","longitude":"44.59E"}
{"date":"2010-06-01","average_temperature":"26.034000000000002","city":"Hassan","latitude":"13.66N","longitude":"76.79E"}
{"date":"2012-10-01","average_temperature":"8.940000000000003","city":"Heidelberg","latitude":"49.03N","longitude":"9.80E"}
{"date":"2012-02-01","average_temperature":"9.209","city":"Henderson","latitude":"36.17N","longitude":"115.36W"}
{"date":"2010-11-01","average_temperature":"-4.7989999999999995","city":"Hengshan","latitude":"45.81N","longitude":"130.38E"}
{"date":"2011-09-01","average_temperature":"20.082","city":"Heze","latitude":"34.56N","longitude":"114.81E"}
{"date":"2010-08-01","average_temperature":"29.211","city":"Hialeah","latitude":"26.52N","longitude":"80.60W"}
{"date":"2012-09-01","average_temperature":"25.274","city":"Hindupur","latitude":"13.66N","longitude":"76.79E"}
{"date":"2011-09-01","average_temperature":"22.199","city":"Hino","latitude":"36.17N","longitude":"139.23E"}
{"date":"2012-07-01","average_temperature":"26.26","city":"Hirakata","latitude":"34.56N","longitude":"136.22E"}
{"date":"2013-01-01","average_temperature":"3.917","city":"Hirakata","latitude":"34.56N","longitude":"136.22E"}
{"date":"2011-03-01","average_temperature":"6.53","city":"Hitachi","latitude":"36.17N","longitude":"141.22E"}
{"date":"2010-05-01","average_temperature":"30.702","city":"Ho Chi Minh City","latitude":"10.45N","longitude":"107.18E"}
{"date":"2013-09-01","city":"Hobart","latitude":"42.59S","longitude":"148.36E"}
{"date":"2012-12-01","average_temperature":"5.5","city":"Hofu","latitude":"34.56N","longitude":"132.32E"}
{"date":"2011-01-01","average_temperature":"-17.351","city":"Hohhot","latitude":"40.99N","longitude":"110.77E"}
{"date":"2010-12-01","average_temperature":"23.653000000000002","city":"Hortolândia","latitude":"23.31S","longitude":"48.06W"}
{"date":"2013-08-01","average_temperature":"18.652","city":"Hortolândia","latitude":"23.31S","longitude":"48.06W"}
{"date":"2010-11-01","average_temperature":"11.703","city":"Huainan","latitude":"32.95N","longitude":"117.77E"}
{"date":"2011-10-01","average_temperature":"16.833","city":"Huaiyin","latitude":"32.95N","longitude":"119.68E"}
{"date":"2012-11-01","average_temperature":"3.411","city":"Huangcun","latitude":"39.38N","longitude":"116.53E"}
{"date":"2012-02-01","average_temperature":"13.718","city":"Humen","latitude":"23.31N","longitude":"114.47E"}
{"date":"2011-11-01","average_temperature":"15.455","city":"Huntington Beach","latitude":"32.95N","longitude":"117.77W"}
{"date":"2011-12-01","average_temperature":"7.803999999999999","city":"Huntsville","latitude":"34.56N","longitude":"85.62W"}
{"date":"2010-09-01","average_temperature":"10.289000000000001","city":"Ica","latitude":"13.66S","longitude":"75.14W"}
{"date":"2011-01-01","average_temperature":"11.854000000000001","city":"Ica","latitude":"13.66S","longitude":"75.14W"}
{"date":"2012-06-01","average_temperature":"21.401","city":"Ichinomiya","latitude":"34.56N","longitude":"136.22E"}
{"date":"2012-04-01","average_temperature":"10.874","city":"Iida","latitude":"36.17N","longitude":"137.24E"}
{"date":"2013-01-01","average_temperature":"27.351","city":"Ijero","latitude":"7.23N","longitude":"5.68E"}
{"date":"2010-09-01","average_temperature":"32.336","city":"Ilam","latitude":"32.95N","longitude":"46.91E"}
{"date":"2010-05-01","average_temperature":"28.546999999999997","city":"Ilesha","latitude":"8.84N","longitude":"4.05E"}
{"date":"2013-05-01","average_temperature":"27.535","city":"Ilesha","latitude":"8.84N","longitude":"4.05E"}
{"date":"2013-06-01","average_temperature":"23.506999999999998","city":"Ilhéus","latitude":"15.27S","longitude":"39.17W"}
{"date":"2011-07-01","average_temperature":"27.976999999999997","city":"Iligan","latitude":"8.84N","longitude":"124.05E"}
{"date":"2012-02-01","average_temperature":"26.96","city":"Iloilo","latitude":"10.45N","longitude":"121.91E"}
{"date":"2011-06-01","average_temperature":"23.096","city":"Imabari","latitude":"34.56N","longitude":"132.32E"}
{"date":"2010-01-01","average_temperature":"14.385","city":"Imphal","latitude":"24.92N","longitude":"93.99E"}
{"date":"2011-01-01","average_temperature":"2.609","city":"Inegol","latitude":"39.38N","longitude":"29.13E"}
{"date":"2012-06-01","average_temperature":"15.727","city":"Iquique","latitude":"20.09S","longitude":"69.95W"}
{"date":"2012-07-01","average_temperature":"15.636","city":"Irkutsk","latitude":"52.24N","longitude":"105.11E"}
{"date":"2011-06-01","average_temperature":"30.087","city":"Irving","latitude":"32.95N","longitude":"96.70W"}
{"date":"2012-05-01","average_temperature":"27.061999999999998","city":"Iseyin","latitude":"7.23N","longitude":"4.05E"}
{"date":"2012-11-01","average_temperature":"25.331999999999997","city":"Itabuna","latitude":"15.27S","longitude":"39.17W"}
{"date":"2013-04-01","average_temperature":"16.643","city":"Izmir","latitude":"37.78N","longitude":"26.44E"}
{"date":"2011-12-01","average_temperature":"7.907","city":"Izmit","latitude":"40.99N","longitude":"29.82E"}
{"date":"2010-05-01","average_temperature":"20.654000000000003","city":"Jaú","latitude":"21.70S","longitude":"49.33W"}
{"date":"2013-02-01","average_temperature":"20.423","city":"Jabalpur","latitude":"23.31N","longitude":"79.51E"}
{"date":"2013-09-01","city":"Jaffna","latitude":"8.84N","longitude":"80.27E"}
{"date":"2010-01-01","average_temperature":"13.267999999999999","city":"Jahrom","latitude":"28.13N","longitude":"53.64E"}
{"date":"2010-12-01","average_temperature":"16.034000000000002","city":"Jalpaiguri","latitude":"26.52N","longitude":"89.55E"}
{"date":"2011-07-01","average_temperature":"28.347","city":"Jamalpur","latitude":"24.92N","longitude":"90.44E"}
{"date":"2011-09-01","average_temperature":"27.694000000000003","city":"Jamuria","latitude":"23.31N","longitude":"86.50E"}
{"date":"2012-12-01","average_temperature":"14.263","city":"Jaranwala","latitude":"31.35N","longitude":"73.51E"}
{"date":"2012-08-01","average_temperature":"28.174","city":"Jetpur","latitude":"21.70N","longitude":"70.10E"}
{"date":"2013-02-01","average_temperature":"19.228","city":"Jhansi","latitude":"24.92N","longitude":"78.03E"}
{"date":"2013-08-01","average_temperature":"27.145","city":"Jhansi","latitude":"24.92N","longitude":"78.03E"}
{"date":"2010-12-01","average_temperature":"12.345","city":"Jhelum","latitude":"32.95N","longitude":"73.72E"}
{"date":"2010-04-01","average_temperature":"2.8469999999999995","city":"Jiamusi","latitude":"47.42N","longitude":"131.45E"}
{"date":"2010-01-01","average_temperature":"-13.312","city":"Jiayuguan","latitude":"39.38N","longitude":"97.80E"}
{"date":"2013-01-01","average_temperature":"26.644","city":"Jimeta","latitude":"8.84N","longitude":"12.16E"}
{"date":"2012-10-01","average_temperature":"6.974","city":"Jiutai","latitude":"44.20N","longitude":"125.22E"}
{"date":"2012-02-01","average_temperature":"25.945","city":"Juazeiro Do Norte","latitude":"7.23S","longitude":"39.73W"}
{"date":"2013-03-01","average_temperature":"6.961","city":"Juliaca","latitude":"15.27S","longitude":"70.83W"}
{"date":"2011-06-01","average_temperature":"30.968000000000004","city":"Junagadh","latitude":"21.70N","longitude":"70.10E"}
{"date":"2010-03-01","average_temperature":"7.802999999999999","city":"Kütahya","latitude":"39.38N","longitude":"29.13E"}
{"date":"2013-09-01","city":"Kütahya","latitude":"39.38N","longitude":"29.13E"}
{"date":"2010-12-01","average_temperature":"-6.142","city":"Kalisz","latitude":"52.24N","longitude":"18.39E"}
{"date":"2010-05-01","average_temperature":"21.188000000000002","city":"Kallithéa","latitude":"37.78N","longitude":"24.41E"}
{"date":"2010-11-01","average_temperature":"25.34","city":"Kalol","latitude":"23.31N","longitude":"72.52E"}
{"date":"2013-07-01","average_temperature":"25.48","city":"Kalyan","latitude":"20.09N","longitude":"73.36E"}
{"date":"2011-09-01","average_temperature":"25.293000000000003","city":"Kamakura","latitude":"34.56N","longitude":"140.11E"}
{"date":"2012-06-01","average_temperature":"23.503","city":"Kampala","latitude":"0.80N","longitude":"32.95E"}
{"date":"2011-09-01","average_temperature":"24.419","city":"Kananga","latitude":"5.63S","longitude":"22.60E"}
{"date":"2013-03-01","average_temperature":"31.54","city":"Kandi","latitude":"10.45N","longitude":"2.45E"}
{"date":"2010-04-01","average_temperature":"31.064","city":"Kankan","latitude":"10.45N","longitude":"9.00W"}
{"date":"2012-12-01","average_temperature":"15.933","city":"Kanpur","latitude":"26.52N","longitude":"80.60E"}
{"date":"2010-06-01","average_temperature":"25.375999999999998","city":"Kansas City","latitude":"39.38N","longitude":"93.64W"}
{"date":"2011-04-01","average_temperature":"30.646","city":"Kaolack","latitude":"13.66N","longitude":"15.69W"}
{"date":"2012-05-01","average_temperature":"34.331","city":"Kapra","latitude":"16.87N","longitude":"78.70E"}
{"date":"2013-01-01","average_temperature":"18.912000000000006","city":"Karachi","latitude":"24.92N","longitude":"67.39E"}
{"date":"2011-04-01","average_temperature":"13.042","city":"Karlsruhe","latitude":"49.03N","longitude":"7.35E"}
{"date":"2012-08-01","average_temperature":"29.445","city":"Kashan","latitude":"34.56N","longitude":"50.59E"}
{"date":"2013-01-01","average_temperature":"3.755","city":"Kashan","latitude":"34.56N","longitude":"50.59E"}
{"date":"2012-11-01","average_temperature":"2.332","city":"Kashi","latitude":"39.38N","longitude":"76.99E"}
{"date":"2011-04-01","average_temperature":"11.175","city":"Kashiwa","latitude":"36.17N","longitude":"139.23E"}
{"date":"2013-07-01","average_temperature":"26.915000000000006","city":"Kawanishi","latitude":"34.56N","longitude":"136.22E"}
{"date":"2012-08-01","average_temperature":"26.680999999999997","city":"Kawasaki","latitude":"36.17N","longitude":"139.23E"}
{"date":"2012-03-01","average_temperature":"26.555","city":"Kebumen","latitude":"7.23S","longitude":"109.46E"}
{"date":"2013-04-01","average_temperature":"27.615","city":"Kediri","latitude":"7.23S","longitude":"112.70E"}
{"date":"2013-08-01","average_temperature":"33.132","city":"Khanewal","latitude":"29.74N","longitude":"72.00E"}
{"date":"2010-12-01","average_temperature":"13.692","city":"Khanna","latitude":"31.35N","longitude":"75.39E"}
{"date":"2012-05-01","average_temperature":"35.046","city":"Khartoum","latitude":"15.27N","longitude":"32.50E"}
{"date":"2010-05-01","average_temperature":"31.115","city":"Khlong Luang","latitude":"13.66N","longitude":"99.91E"}
{"date":"2010-06-01","average_temperature":"37.103","city":"Khorramshahr","latitude":"29.74N","longitude":"48.00E"}
{"date":"2012-10-01","average_temperature":"29.112","city":"Khorramshahr","latitude":"29.74N","longitude":"48.00E"}
{"date":"2011-12-01","average_temperature":"1.5200000000000002","city":"Kielce","latitude":"50.63N","longitude":"21.55E"}
{"date":"2011-07-01","average_temperature":"21.008000000000003","city":"Kigoma","latitude":"4.02S","longitude":"29.73E"}
{"date":"2012-04-01","average_temperature":"20.831999999999997","city":"Kigoma","latitude":"4.02S","longitude":"29.73E"}
{"date":"2013-08-01","average_temperature":"24.958000000000002","city":"Kikwit","latitude":"5.63S","longitude":"19.37E"}
{"date":"2010-11-01","average_temperature":"23.043000000000003","city":"Kimberley","latitude":"28.13S","longitude":"24.55E"}
{"date":"2012-05-01","average_temperature":"25.234","city":"Kisaran","latitude":"2.41N","longitude":"98.84E"}
{"date":"2012-08-01","average_temperature":"18.959","city":"Koblenz","latitude":"50.63N","longitude":"6.34E"}
{"date":"2011-07-01","average_temperature":"32.255","city":"Kohat","latitude":"32.95N","longitude":"71.81E"}
{"date":"2011-12-01","average_temperature":"2.087","city":"Konan","latitude":"36.17N","longitude":"137.24E"}
{"date":"2012-07-01","average_temperature":"25.114","city":"Konan","latitude":"36.17N","longitude":"137.24E"}
{"date":"2012-09-01","average_temperature":"22.783","city":"Konan","latitude":"36.17N","longitude":"137.24E"}
{"date":"2011-08-01","average_temperature":"27.007","city":"Korba","latitude":"21.70N","longitude":"82.21E"}
{"date":"2010-04-01","average_temperature":"27.745","city":"Kota Bahru","latitude":"5.63N","longitude":"101.70E"}
{"date":"2012-08-01","average_temperature":"26.962","city":"Kotte","latitude":"7.23N","longitude":"80.27E"}
{"date":"2012-05-01","average_temperature":"32.942","city":"Kousséri","latitude":"12.05N","longitude":"14.79E"}
{"date":"2011-08-01","average_temperature":"22.298000000000002","city":"Kragujevac","latitude":"44.20N","longitude":"20.12E"}
{"date":"2013-08-01","average_temperature":"14.223999999999998","city":"Krasnoyarsk","latitude":"55.45N","longitude":"93.54E"}
{"date":"2011-08-01","average_temperature":"29.346999999999998","city":"Kumbakonam","latitude":"10.45N","longitude":"79.36E"}
{"date":"2011-04-01","average_temperature":"16.330000000000002","city":"Kunming","latitude":"24.92N","longitude":"102.86E"}
{"date":"2010-12-01","average_temperature":"7.229","city":"Kure","latitude":"34.56N","longitude":"132.32E"}
{"date":"2012-09-01","average_temperature":"24.01","city":"Kure","latitude":"34.56N","longitude":"132.32E"}
{"date":"2011-05-01","average_temperature":"18.11","city":"Kusatsu","latitude":"34.56N","longitude":"136.22E"}
{"date":"2013-03-01","average_temperature":"10.33","city":"Kuwana","latitude":"34.56N","longitude":"136.22E"}
{"date":"2011-08-01","average_temperature":"26.381999999999998","city":"La Ceiba","latitude":"15.27N","longitude":"87.50W"}
{"date":"2011-03-01","average_temperature":"21.948","city":"Lahore","latitude":"31.35N","longitude":"73.51E"}
{"date":"2013-02-01","average_temperature":"18.137","city":"Lakhnau","latitude":"26.52N","longitude":"80.60E"}
{"date":"2012-05-01","average_temperature":"21.089","city":"Lambaré","latitude":"24.92S","longitude":"58.52W"}
{"date":"2010-01-01","average_temperature":"-4.632","city":"Lansing","latitude":"42.59N","longitude":"85.09W"}
{"date":"2012-07-01","average_temperature":"25.397","city":"Lansing","latitude":"42.59N","longitude":"85.09W"}
{"date":"2010-08-01","average_temperature":"28.465","city":"Laoag","latitude":"18.48N","longitude":"120.00E"}
{"date":"2010-07-01","average_temperature":"27.615","city":"Laohekou","latitude":"32.95N","longitude":"112.02E"}
{"date":"2010-09-01","average_temperature":"27.826999999999998","city":"Laredo","latitude":"28.13N","longitude":"99.09W"}
{"date":"2011-05-01","average_temperature":"27.531999999999996","city":"Laredo","latitude":"28.13N","longitude":"99.09W"}
{"date":"2012-12-01","average_temperature":"15.607000000000001","city":"Laredo","latitude":"28.13N","longitude":"99.09W"}
{"date":"2013-01-01","average_temperature":"13.734000000000002","city":"Laredo","latitude":"28.13N","longitude":"99.09W"}
{"date":"2013-03-01","average_temperature":"19.169","city":"Las Palmas","latitude":"28.13N","longitude":"15.45W"}
{"date":"2010-04-01","average_temperature":"14.377","city":"Las Vegas","latitude":"36.17N","longitude":"115.36W"}
{"date":"2012-03-01","average_temperature":"13.579","city":"Latina","latitude":"40.99N","longitude":"12.78E"}
{"date":"2010-02-01","average_temperature":"25.701","city":"Latur","latitude":"18.48N","longitude":"76.06E"}
{"date":"2012-05-01","average_temperature":"27.680000000000003","city":"Lawang","latitude":"7.23S","longitude":"112.70E"}
{"date":"2011-12-01","average_temperature":"13.683","city":"León","latitude":"21.70N","longitude":"101.25W"}
{"date":"2013-09-01","city":"León","latitude":"42.59N","longitude":"6.55W"}
{"date":"2010-06-01","average_temperature":"16.894000000000002","city":"Le Havre","latitude":"49.03N","longitude":"0.00W"}
{"date":"2011-05-01","average_temperature":"16.298000000000002","city":"Le Mans","latitude":"47.42N","longitude":"1.18E"}
{"date":"2012-01-01","average_temperature":"-0.06499999999999995","city":"Legnica","latitude":"50.63N","longitude":"16.48E"}
{"date":"2011-07-01","average_temperature":"15.992","city":"Leicester","latitude":"52.24N","longitude":"0.00W"}
{"date":"2013-01-01","average_temperature":"1.479","city":"Leiden","latitude":"52.24N","longitude":"5.26E"}
{"date":"2013-03-01","average_temperature":"-0.847","city":"Leipzig","latitude":"50.63N","longitude":"11.41E"}
{"date":"2011-10-01","average_temperature":"17.494","city":"Lengshuijiang","latitude":"28.13N","longitude":"111.82E"}
{"date":"2012-03-01","average_temperature":"10.264","city":"Leshan","latitude":"29.74N","longitude":"103.38E"}
{"date":"2010-06-01","average_temperature":"26.636","city":"Leuwiliang","latitude":"7.23S","longitude":"106.22E"}
{"date":"2010-08-01","average_temperature":"26.32","city":"Lexington Fayette","latitude":"37.78N","longitude":"85.42W"}
{"date":"2010-01-01","average_temperature":"22.435","city":"Likasi","latitude":"10.45S","longitude":"27.00E"}
{"date":"2011-04-01","average_temperature":"21.739","city":"Likasi","latitude":"10.45S","longitude":"27.00E"}
{"date":"2013-04-01","average_temperature":"8.943","city":"Lille","latitude":"50.63N","longitude":"3.80E"}
{"date":"2013-07-01","average_temperature":"16.499000000000002","city":"Lilongwe","latitude":"13.66S","longitude":"33.85E"}
{"date":"2012-07-01","average_temperature":"16.264","city":"Lima","latitude":"12.05S","longitude":"77.26W"}
{"date":"2010-06-01","average_temperature":"24.331","city":"Liuzhou","latitude":"24.92N","longitude":"109.95E"}
{"date":"2013-04-01","average_temperature":"26.983","city":"Lobito","latitude":"12.05S","longitude":"13.15E"}
{"date":"2011-04-01","average_temperature":"19.398","city":"Los Reyes","latitude":"20.09N","longitude":"98.96W"}
{"date":"2011-01-01","average_temperature":"24.67","city":"Los Teques","latitude":"10.45N","longitude":"66.27W"}
{"date":"2012-10-01","average_temperature":"18.16","city":"Loudi","latitude":"28.13N","longitude":"111.82E"}
{"date":"2011-09-01","average_temperature":"19.678","city":"Louisville","latitude":"37.78N","longitude":"85.42W"}
{"date":"2013-07-01","average_temperature":"31.599","city":"Ludhiana","latitude":"31.35N","longitude":"75.39E"}
{"date":"2010-11-01","average_temperature":"11.737","city":"Luohe","latitude":"32.95N","longitude":"113.94E"}
{"date":"2011-08-01","average_temperature":"25.504","city":"Luohe","latitude":"32.95N","longitude":"113.94E"}
{"date":"2013-01-01","average_temperature":"28.025","city":"Luque","latitude":"24.92S","longitude":"56.75W"}
{"date":"2010-02-01","average_temperature":"2.812","city":"Luton","latitude":"52.24N","longitude":"0.00W"}
{"date":"2010-07-01","average_temperature":"27.985","city":"Luzhou","latitude":"29.74N","longitude":"105.23E"}
{"date":"2011-07-01","average_temperature":"15.847000000000001","city":"Mönchengladbach","latitude":"50.63N","longitude":"6.34E"}
{"date":"2011-08-01","average_temperature":"17.58","city":"Mönchengladbach","latitude":"50.63N","longitude":"6.34E"}
{"date":"2012-05-01","average_temperature":"14.821000000000002","city":"Münster","latitude":"52.24N","longitude":"7.88E"}
{"date":"2012-08-01","average_temperature":"24.579","city":"Maceió","latitude":"10.45S","longitude":"35.18W"}
{"date":"2011-01-01","average_temperature":"24.911","city":"Madras","latitude":"13.66N","longitude":"80.09E"}
{"date":"2011-03-01","average_temperature":"25.967","city":"Magé","latitude":"23.31S","longitude":"42.82W"}
{"date":"2013-03-01","average_temperature":"26.859","city":"Magé","latitude":"23.31S","longitude":"42.82W"}
{"date":"2010-01-01","average_temperature":"26.285","city":"Magelang","latitude":"7.23S","longitude":"109.46E"}
{"date":"2011-10-01","average_temperature":"15.017000000000001","city":"Mahabad","latitude":"36.17N","longitude":"45.75E"}
{"date":"2013-07-01","average_temperature":"25.699","city":"Mahajanga","latitude":"15.27S","longitude":"45.83E"}
{"date":"2011-09-01","average_temperature":"27.61","city":"Mahbubnagar","latitude":"16.87N","longitude":"78.70E"}
{"date":"2011-03-01","average_temperature":"27.308000000000003","city":"Maisuru","latitude":"12.05N","longitude":"77.26E"}
{"date":"2010-09-01","average_temperature":"27.36","city":"Makati","latitude":"15.27N","longitude":"120.83E"}
{"date":"2011-01-01","average_temperature":"24.963","city":"Makati","latitude":"15.27N","longitude":"120.83E"}
{"date":"2010-09-01","average_temperature":"26.441","city":"Makurdi","latitude":"7.23N","longitude":"8.92E"}
{"date":"2013-05-01","average_temperature":"27.869000000000003","city":"Makurdi","latitude":"7.23N","longitude":"8.92E"}
{"date":"2010-03-01","average_temperature":"27.668000000000003","city":"Malabo","latitude":"4.02N","longitude":"8.84E"}
{"date":"2012-09-01","average_temperature":"25.921999999999997","city":"Malegaon","latitude":"20.09N","longitude":"75.07E"}
{"date":"2013-02-01","average_temperature":"16.621000000000002","city":"Maler Kotla","latitude":"29.74N","longitude":"75.69E"}
{"date":"2010-06-01","average_temperature":"28.514","city":"Malolos","latitude":"15.27N","longitude":"120.83E"}
{"date":"2013-02-01","average_temperature":"27.042","city":"Malolos","latitude":"15.27N","longitude":"120.83E"}
{"date":"2010-09-01","average_temperature":"26.311","city":"Managua","latitude":"12.05N","longitude":"85.48W"}
{"date":"2013-05-01","average_temperature":"30.785","city":"Manama","latitude":"26.52N","longitude":"50.15E"}
{"date":"2012-03-01","average_temperature":"28.116","city":"Mandya","latitude":"12.05N","longitude":"77.26E"}
{"date":"2012-03-01","average_temperature":"24.451999999999998","city":"Manzini","latitude":"26.52S","longitude":"32.24E"}
{"date":"2013-03-01","average_temperature":"24.738000000000003","city":"Marília","latitude":"21.70S","longitude":"49.33W"}
{"date":"2010-04-01","average_temperature":"34.226","city":"Maradi","latitude":"13.66N","longitude":"7.43E"}
{"date":"2010-02-01","average_temperature":"2.2270000000000003","city":"Maragheh","latitude":"37.78N","longitude":"46.78E"}
{"date":"2013-03-01","average_temperature":"24.501","city":"Maringá","latitude":"23.31S","longitude":"51.55W"}
{"date":"2012-04-01","average_temperature":"28.499000000000002","city":"Masaya","latitude":"12.05N","longitude":"85.48W"}
{"date":"2012-01-01","average_temperature":"22.193","city":"Matanzas","latitude":"23.31N","longitude":"81.26W"}
{"date":"2010-12-01","average_temperature":"26.228","city":"Maturín","latitude":"10.45N","longitude":"63.00W"}
{"date":"2010-03-01","average_temperature":"27.576","city":"Maxixe","latitude":"23.31S","longitude":"35.83E"}
{"date":"2012-06-01","average_temperature":"28.252","city":"Melaka","latitude":"2.41N","longitude":"102.05E"}
{"date":"2012-07-01","average_temperature":"28.651","city":"Memphis","latitude":"34.56N","longitude":"89.51W"}
{"date":"2011-04-01","average_temperature":"28.016","city":"Mergui","latitude":"12.05N","longitude":"98.63E"}
{"date":"2011-01-01","average_temperature":"10.703","city":"Mesa","latitude":"32.95N","longitude":"112.02W"}
{"date":"2011-03-01","average_temperature":"16.922","city":"Mexico","latitude":"20.09N","longitude":"98.96W"}
{"date":"2012-02-01","average_temperature":"-15.932","city":"Miass","latitude":"55.45N","longitude":"59.53E"}
{"date":"2012-12-01","average_temperature":"-17.374000000000002","city":"Miass","latitude":"55.45N","longitude":"59.53E"}
{"date":"2010-02-01","average_temperature":"1.87","city":"Middlesbrough","latitude":"53.84N","longitude":"1.36W"}
{"date":"2012-01-01","average_temperature":"4.225","city":"Middlesbrough","latitude":"53.84N","longitude":"1.36W"}
{"date":"2013-07-01","average_temperature":"21.914","city":"Milwaukee","latitude":"42.59N","longitude":"87.27W"}
{"date":"2013-08-01","average_temperature":"27.757","city":"Minatitlán","latitude":"18.48N","longitude":"94.65W"}
{"date":"2011-08-01","average_temperature":"25.05","city":"Minna","latitude":"8.84N","longitude":"7.30E"}
{"date":"2012-08-01","average_temperature":"17.364","city":"Minsk","latitude":"53.84N","longitude":"28.64E"}
{"date":"2012-03-01","average_temperature":"25.878","city":"Mirpur Khas","latitude":"24.92N","longitude":"69.16E"}
{"date":"2010-05-01","average_temperature":"33.926","city":"Mirzapur","latitude":"24.92N","longitude":"83.35E"}
{"date":"2012-02-01","average_temperature":"19.42","city":"Mirzapur","latitude":"24.92N","longitude":"83.35E"}
{"date":"2013-02-01","average_temperature":"19.546","city":"Mirzapur","latitude":"24.92N","longitude":"83.35E"}
{"date":"2013-03-01","average_temperature":"3.4560000000000004","city":"Miskolc","latitude":"47.42N","longitude":"20.13E"}
{"date":"2010-11-01","average_temperature":"20.269","city":"Moga","latitude":"31.35N","longitude":"75.39E"}
{"date":"2012-05-01","average_temperature":"28.995","city":"Mogadishu","latitude":"2.41N","longitude":"45.80E"}
{"date":"2012-08-01","average_temperature":"26.643","city":"Mojokerto","latitude":"7.23S","longitude":"112.70E"}
{"date":"2010-07-01","average_temperature":"24.494","city":"Mombasa","latitude":"4.02S","longitude":"39.38E"}
{"date":"2011-06-01","average_temperature":"25.766","city":"Mombasa","latitude":"4.02S","longitude":"39.38E"}
{"date":"2013-08-01","average_temperature":"27.375","city":"Monclova","latitude":"26.52N","longitude":"102.09W"}
{"date":"2012-07-01","average_temperature":"29.66","city":"Monterrey","latitude":"26.52N","longitude":"100.30W"}
{"date":"2012-05-01","average_temperature":"15.741","city":"Montevideo","latitude":"34.56S","longitude":"56.43W"}
{"date":"2010-01-01","average_temperature":"25.717","city":"Moratuwa","latitude":"7.23N","longitude":"80.27E"}
{"date":"2012-06-01","average_temperature":"27.586","city":"Moratuwa","latitude":"7.23N","longitude":"80.27E"}
{"date":"2011-08-01","average_temperature":"25.293000000000006","city":"Mormugao","latitude":"15.27N","longitude":"74.17E"}
{"date":"2012-10-01","average_temperature":"29.561","city":"Mossoró","latitude":"5.63S","longitude":"37.13W"}
{"date":"2013-08-01","average_temperature":"27.453000000000003","city":"Mostar","latitude":"42.59N","longitude":"17.45E"}
{"date":"2011-06-01","average_temperature":"30.366999999999997","city":"Motihari","latitude":"26.52N","longitude":"84.18E"}
{"date":"2011-07-01","average_temperature":"34.729","city":"Multan","latitude":"29.74N","longitude":"72.00E"}
{"date":"2012-08-01","average_temperature":"27.622","city":"Murcia","latitude":"37.78N","longitude":"2.03W"}
{"date":"2013-04-01","average_temperature":"27.055999999999997","city":"Muridke","latitude":"31.35N","longitude":"73.51E"}
{"date":"2013-06-01","average_temperature":"31.483","city":"Najran","latitude":"16.87N","longitude":"43.53E"}
{"date":"2012-03-01","average_temperature":"20.191","city":"Nam Dinh","latitude":"20.09N","longitude":"105.78E"}
{"date":"2010-08-01","average_temperature":"19.296","city":"Nancha","latitude":"47.42N","longitude":"129.08E"}
{"date":"2010-09-01","average_temperature":"27.958","city":"Nandurbar","latitude":"21.70N","longitude":"73.56E"}
{"date":"2011-02-01","average_temperature":"26.113000000000003","city":"Nandyal","latitude":"15.27N","longitude":"79.17E"}
{"date":"2011-10-01","average_temperature":"12.162","city":"Naperville","latitude":"40.99N","longitude":"87.34W"}
{"date":"2011-11-01","average_temperature":"10.802999999999999","city":"Narashino","latitude":"36.17N","longitude":"139.23E"}
{"date":"2011-09-01","average_temperature":"20.594","city":"Nashville","latitude":"36.17N","longitude":"87.51W"}
{"date":"2012-05-01","average_temperature":"15.2","city":"Neftekamsk","latitude":"55.45N","longitude":"53.86E"}
{"date":"2013-01-01","average_temperature":"-24.969","city":"Nefteyugansk","latitude":"61.88N","longitude":"73.02E"}
{"date":"2012-03-01","average_temperature":"-8.516","city":"Nehe","latitude":"49.03N","longitude":"124.90E"}
{"date":"2011-07-01","average_temperature":"10.086","city":"Nelspruit","latitude":"24.92S","longitude":"30.15E"}
{"date":"2013-02-01","average_temperature":"0.5380000000000003","city":"Nevinnomyssk","latitude":"44.20N","longitude":"42.48E"}
{"date":"2013-02-01","average_temperature":"14.525","city":"New Orleans","latitude":"29.74N","longitude":"90.46W"}
{"date":"2013-06-01","average_temperature":"28.306","city":"New Orleans","latitude":"29.74N","longitude":"90.46W"}
{"date":"2010-04-01","average_temperature":"12.306","city":"Neyagawa","latitude":"34.56N","longitude":"136.22E"}
{"date":"2012-04-01","average_temperature":"34.264","city":"Nguru","latitude":"13.66N","longitude":"10.73E"}
{"date":"2011-10-01","average_temperature":"18.825","city":"Ningbo","latitude":"29.74N","longitude":"121.85E"}
{"date":"2012-05-01","average_temperature":"24.023000000000003","city":"Niterói","latitude":"23.31S","longitude":"42.82W"}
{"date":"2011-07-01","average_temperature":"22.42","city":"Nizhniy Novgorod","latitude":"57.05N","longitude":"42.79E"}
{"date":"2010-03-01","average_temperature":"12.192","city":"Nogales","latitude":"31.35N","longitude":"111.20W"}
{"date":"2012-04-01","average_temperature":"30.435","city":"Nonthaburi","latitude":"13.66N","longitude":"99.91E"}
{"date":"2011-08-01","average_temperature":"26.57","city":"Norfolk","latitude":"36.17N","longitude":"75.58W"}
{"date":"2012-10-01","average_temperature":"18.169","city":"Norfolk","latitude":"36.17N","longitude":"75.58W"}
{"date":"2011-06-01","average_temperature":"14.511","city":"North Shore","latitude":"36.17S","longitude":"175.03E"}
{"date":"2013-07-01","average_temperature":"25.09","city":"Norwalk","latitude":"34.56N","longitude":"118.70W"}
{"date":"2010-11-01","average_temperature":"27.142","city":"Nossa Senhora Do Socorro","latitude":"10.45S","longitude":"36.82W"}
{"date":"2013-03-01","average_temperature":"2.478","city":"Nottingham","latitude":"53.84N","longitude":"1.36W"}
{"date":"2010-07-01","average_temperature":"19.125","city":"Novara","latitude":"45.81N","longitude":"8.08E"}
{"date":"2013-06-01","average_temperature":"14.595","city":"Novara","latitude":"45.81N","longitude":"8.08E"}
{"date":"2010-02-01","average_temperature":"-1.9810000000000003","city":"Novocherkassk","latitude":"47.42N","longitude":"39.08E"}
{"date":"2011-11-01","average_temperature":"15.692","city":"Numazu","latitude":"34.56N","longitude":"138.16E"}
{"date":"2011-07-01","average_temperature":"24.91","city":"Nzérékoré","latitude":"7.23N","longitude":"8.92W"}
{"date":"2011-06-01","average_temperature":"18.437","city":"Obninsk","latitude":"55.45N","longitude":"36.85E"}
{"date":"2010-11-01","average_temperature":"13.671","city":"Odesa","latitude":"45.81N","longitude":"31.15E"}
{"date":"2010-04-01","average_temperature":"30.423000000000002","city":"Offa","latitude":"8.84N","longitude":"4.05E"}
{"date":"2010-03-01","average_temperature":"8.894","city":"Okazaki","latitude":"34.56N","longitude":"136.22E"}
{"date":"2012-09-01","average_temperature":"14.093","city":"Oldenburg","latitude":"52.24N","longitude":"7.88E"}
{"date":"2011-03-01","average_temperature":"2.066","city":"Olsztyn","latitude":"53.84N","longitude":"20.45E"}
{"date":"2013-09-01","city":"Olsztyn","latitude":"53.84N","longitude":"20.45E"}
{"date":"2012-08-01","average_temperature":"23.85","city":"Omaha","latitude":"40.99N","longitude":"95.86W"}
{"date":"2010-06-01","average_temperature":"19.316","city":"Orsha","latitude":"53.84N","longitude":"31.36E"}
{"date":"2011-10-01","average_temperature":"20.55","city":"Osasco","latitude":"23.31S","longitude":"46.31W"}
{"date":"2010-09-01","average_temperature":"24.622","city":"Osmaniye","latitude":"37.78N","longitude":"36.61E"}
{"date":"2013-01-01","average_temperature":"-2.557","city":"Ostrava","latitude":"50.63N","longitude":"19.01E"}
{"date":"2011-02-01","average_temperature":"25.983","city":"Pétionville","latitude":"18.48N","longitude":"72.68W"}
{"date":"2012-02-01","average_temperature":"25.058000000000003","city":"Pôrto Velho","latitude":"8.84S","longitude":"64.05W"}
{"date":"2011-06-01","average_temperature":"26.633000000000003","city":"Palu","latitude":"0.80S","longitude":"119.73E"}
{"date":"2012-07-01","average_temperature":"25.894","city":"Pangkah","latitude":"7.23S","longitude":"109.46E"}
{"date":"2010-11-01","average_temperature":"25.436999999999998","city":"Panihati","latitude":"23.31N","longitude":"88.25E"}
{"date":"2012-05-01","average_temperature":"32.232","city":"Panihati","latitude":"23.31N","longitude":"88.25E"}
{"date":"2010-03-01","average_temperature":"24.704","city":"Panipat","latitude":"29.74N","longitude":"77.54E"}
{"date":"2011-09-01","average_temperature":"27.39","city":"Panvel","latitude":"18.48N","longitude":"72.68E"}
{"date":"2013-05-01","average_temperature":"29.718000000000004","city":"Panvel","latitude":"18.48N","longitude":"72.68E"}
{"date":"2011-05-01","average_temperature":"18.853","city":"Paradise","latitude":"36.17N","longitude":"115.36W"}
{"date":"2010-09-01","average_temperature":"17.599","city":"Parma","latitude":"44.20N","longitude":"11.18E"}
{"date":"2010-08-01","average_temperature":"25.756999999999998","city":"Paseh","latitude":"7.23S","longitude":"107.84E"}
{"date":"2012-03-01","average_temperature":"22.311","city":"Patiala","latitude":"29.74N","longitude":"75.69E"}
{"date":"2011-08-01","average_temperature":"18.736","city":"Penza","latitude":"53.84N","longitude":"45.00E"}
{"date":"2011-10-01","average_temperature":"17.9","city":"Perth","latitude":"31.35S","longitude":"114.97E"}
{"date":"2013-06-01","average_temperature":"16.991","city":"Perth","latitude":"31.35S","longitude":"114.97E"}
{"date":"2013-04-01","average_temperature":"12.394","city":"Perugia","latitude":"42.59N","longitude":"13.09E"}
{"date":"2011-04-01","average_temperature":"4.445","city":"Pervouralsk","latitude":"57.05N","longitude":"60.49E"}
{"date":"2011-07-01","average_temperature":"24.542","city":"Petrolina","latitude":"8.84S","longitude":"39.73W"}
{"date":"2012-11-01","average_temperature":"29.222","city":"Petrolina","latitude":"8.84S","longitude":"39.73W"}
{"date":"2010-06-01","average_temperature":"20.079","city":"Piatra Neamt","latitude":"47.42N","longitude":"27.24E"}
{"date":"2013-03-01","average_temperature":"22.776","city":"Pietersburg","latitude":"23.31S","longitude":"28.83E"}
{"date":"2013-05-01","average_temperature":"31.024","city":"Pimpri","latitude":"18.48N","longitude":"74.37E"}
{"date":"2012-06-01","average_temperature":"18.113","city":"Pindamonhangaba","latitude":"23.31S","longitude":"46.31W"}
{"date":"2012-10-01","average_temperature":"25.105","city":"Pingtung","latitude":"23.31N","longitude":"119.71E"}
{"date":"2012-12-01","average_temperature":"5.739","city":"Pingxiang","latitude":"28.13N","longitude":"113.64E"}
{"date":"2011-09-01","average_temperature":"18.655","city":"Pittsburgh","latitude":"40.99N","longitude":"80.95W"}
{"date":"2011-12-01","average_temperature":"7.796999999999999","city":"Plano","latitude":"32.95N","longitude":"96.70W"}
{"date":"2010-02-01","average_temperature":"-1.7890000000000001","city":"Ploiesti","latitude":"45.81N","longitude":"26.54E"}
{"date":"2012-09-01","average_temperature":"17.285","city":"Plovdiv","latitude":"42.59N","longitude":"24.00E"}
{"date":"2011-06-01","average_temperature":"25.349","city":"Plumbon","latitude":"7.23S","longitude":"107.84E"}
{"date":"2012-02-01","average_temperature":"25.687","city":"Pondicherry","latitude":"12.05N","longitude":"80.55E"}
{"date":"2010-01-01","average_temperature":"21.729","city":"Ponta Grossa","latitude":"24.92S","longitude":"49.66W"}
{"date":"2012-03-01","average_temperature":"28.507","city":"Port Blair","latitude":"12.05N","longitude":"92.05E"}
{"date":"2011-03-01","average_temperature":"6.638999999999999","city":"Portland","latitude":"45.81N","longitude":"123.46W"}
{"date":"2013-06-01","average_temperature":"17.473","city":"Potsdam","latitude":"52.24N","longitude":"13.14E"}
{"date":"2010-12-01","average_temperature":"-4.685","city":"Prague","latitude":"50.63N","longitude":"13.94E"}
{"date":"2012-06-01","average_temperature":"16.998","city":"Prague","latitude":"50.63N","longitude":"13.94E"}
{"date":"2013-04-01","average_temperature":"11.934","city":"Prato","latitude":"44.20N","longitude":"11.18E"}
{"date":"2010-10-01","average_temperature":"27.654","city":"Probolinggo","latitude":"7.23S","longitude":"112.70E"}
{"date":"2012-10-01","average_temperature":"10.715","city":"Pueblo","latitude":"37.78N","longitude":"103.73W"}
{"date":"2011-01-01","average_temperature":"26.840999999999998","city":"Puerto Princesa","latitude":"10.45N","longitude":"118.64E"}
{"date":"2012-08-01","average_temperature":"30.761000000000006","city":"Punto Fijo","latitude":"12.05N","longitude":"70.68W"}
{"date":"2011-02-01","average_temperature":"7.702000000000001","city":"Puqi","latitude":"29.74N","longitude":"114.46E"}
{"date":"2011-02-01","average_temperature":"24.774","city":"Puri","latitude":"20.09N","longitude":"85.31E"}
{"date":"2011-03-01","average_temperature":"27.165","city":"Puruliya","latitude":"23.31N","longitude":"86.50E"}
{"date":"2013-09-01","city":"Purwodadi","latitude":"7.23S","longitude":"111.08E"}
{"date":"2010-12-01","average_temperature":"23.576999999999998","city":"Pyay","latitude":"18.48N","longitude":"94.65E"}
{"date":"2013-06-01","average_temperature":"27.71","city":"Pyay","latitude":"18.48N","longitude":"94.65E"}
{"date":"2011-12-01","average_temperature":"12.609000000000002","city":"Qabis","latitude":"34.56N","longitude":"9.73E"}
{"date":"2010-07-01","average_temperature":"29.365","city":"Qingyuan","latitude":"23.31N","longitude":"112.72E"}
{"date":"2010-09-01","average_temperature":"26.848000000000003","city":"Quanzhou","latitude":"24.92N","longitude":"118.82E"}
{"date":"2012-02-01","average_temperature":"-11.071","city":"Quebec","latitude":"47.42N","longitude":"72.24W"}
{"date":"2013-01-01","average_temperature":"18.072","city":"Quetzaltenango","latitude":"15.27N","longitude":"90.83W"}
{"date":"2012-03-01","average_temperature":"25.264","city":"Qui Nhon","latitude":"13.66N","longitude":"109.82E"}
{"date":"2010-04-01","average_temperature":"18.062","city":"Qujing","latitude":"24.92N","longitude":"104.63E"}
{"date":"2010-12-01","average_temperature":"26.872","city":"Rach Gia","latitude":"10.45N","longitude":"105.55E"}
{"date":"2011-01-01","average_temperature":"-1.5659999999999994","city":"Radom","latitude":"50.63N","longitude":"21.55E"}
{"date":"2011-12-01","average_temperature":"5.1080000000000005","city":"Rafsanjan","latitude":"29.74N","longitude":"55.38E"}
{"date":"2011-04-01","average_temperature":"6.638","city":"Rancagua","latitude":"34.56S","longitude":"70.05W"}
{"date":"2012-03-01","average_temperature":"21.101999999999997","city":"Randfontein","latitude":"26.52S","longitude":"26.87E"}
{"date":"2011-03-01","average_temperature":"-4.579","city":"Ranghulu","latitude":"47.42N","longitude":"124.34E"}
{"date":"2012-09-01","average_temperature":"27.936999999999998","city":"Rayong","latitude":"12.05N","longitude":"101.92E"}
{"date":"2013-09-01","city":"Reggio Di Calabria","latitude":"37.78N","longitude":"16.27E"}
{"date":"2012-02-01","average_temperature":"2.5940000000000003","city":"Rennes","latitude":"47.42N","longitude":"1.18W"}
{"date":"2010-02-01","average_temperature":"27.772","city":"Resistencia","latitude":"28.13S","longitude":"59.09W"}
{"date":"2010-02-01","average_temperature":"24.83","city":"Ribeirão Pires","latitude":"23.31S","longitude":"46.31W"}
{"date":"2013-09-01","city":"Richards Bay","latitude":"28.13S","longitude":"31.82E"}
{"date":"2013-08-01","average_temperature":"30.255","city":"Richardson","latitude":"32.95N","longitude":"96.70W"}
{"date":"2011-03-01","average_temperature":"11.886","city":"Richmond","latitude":"37.78N","longitude":"122.03W"}
{"date":"2012-09-01","average_temperature":"23.773000000000003","city":"Rio Claro","latitude":"21.70S","longitude":"47.60W"}
{"date":"2010-06-01","average_temperature":"9.88","city":"Rio Cuarto","latitude":"32.95S","longitude":"64.15W"}
{"date":"2013-04-01","average_temperature":"17.496","city":"Riverside","latitude":"34.56N","longitude":"116.76W"}
{"date":"2012-02-01","average_temperature":"17.087999999999994","city":"Rohtak","latitude":"28.13N","longitude":"77.27E"}
{"date":"2013-05-01","average_temperature":"10.322000000000001","city":"Rotherham","latitude":"53.84N","longitude":"1.36W"}
{"date":"2013-09-01","city":"Roxas","latitude":"12.05N","longitude":"123.29E"}
{"date":"2012-01-01","average_temperature":"22.454","city":"Ruiru","latitude":"0.80S","longitude":"37.77E"}
{"date":"2011-06-01","average_temperature":"19.23","city":"Ryazan","latitude":"53.84N","longitude":"39.55E"}
{"date":"2013-01-01","average_temperature":"-2.557","city":"Rybnik","latitude":"50.63N","longitude":"19.01E"}
{"date":"2010-10-01","average_temperature":"23.131","city":"São Carlos","latitude":"21.70S","longitude":"47.60W"}
{"date":"2011-04-01","average_temperature":"24.026","city":"São José Do Rio Prêto","latitude":"20.09S","longitude":"49.48W"}
{"date":"2013-02-01","average_temperature":"25.281999999999996","city":"São José Do Rio Prêto","latitude":"20.09S","longitude":"49.48W"}
{"date":"2011-08-01","average_temperature":"15.574000000000002","city":"São José Dos Pinhais","latitude":"24.92S","longitude":"49.66W"}
{"date":"2013-04-01","average_temperature":"21.706","city":"Sabará","latitude":"20.09S","longitude":"44.36W"}
{"date":"2011-09-01","average_temperature":"27.305","city":"Sabratah","latitude":"32.95N","longitude":"12.45E"}
{"date":"2010-02-01","average_temperature":"7.5520000000000005","city":"Saga","latitude":"32.95N","longitude":"131.17E"}
{"date":"2010-04-01","average_temperature":"29.06","city":"Saharsa","latitude":"26.52N","longitude":"85.97E"}
{"date":"2012-11-01","average_temperature":"3.448","city":"Saint Petersburg","latitude":"60.27N","longitude":"29.19E"}
{"date":"2012-02-01","average_temperature":"19.272","city":"Saint Petersburg","latitude":"28.13N","longitude":"82.73W"}
{"date":"2012-12-01","average_temperature":"24.029","city":"Salalah","latitude":"16.87N","longitude":"53.58E"}
{"date":"2012-03-01","average_temperature":"18.121","city":"Salamanca","latitude":"20.09N","longitude":"100.66W"}
{"date":"2013-03-01","average_temperature":"13.520999999999999","city":"Salinas","latitude":"36.17N","longitude":"121.33W"}
{"date":"2011-03-01","average_temperature":"23.226","city":"Salto","latitude":"31.35S","longitude":"58.43W"}
{"date":"2012-05-01","average_temperature":"27.399","city":"Samarinda","latitude":"0.80S","longitude":"116.52E"}
{"date":"2012-01-01","average_temperature":"14.061","city":"Sambhal","latitude":"28.13N","longitude":"79.09E"}
{"date":"2013-06-01","average_temperature":"31.468000000000004","city":"Sambhal","latitude":"28.13N","longitude":"79.09E"}
{"date":"2012-09-01","average_temperature":"20.446","city":"Samsun","latitude":"40.99N","longitude":"36.21E"}
{"date":"2012-11-01","average_temperature":"27.807","city":"Samut Prakan","latitude":"13.66N","longitude":"99.91E"}
{"date":"2010-07-01","average_temperature":"18.415","city":"San Diego","latitude":"32.95N","longitude":"117.77W"}
{"date":"2011-04-01","average_temperature":"15.062000000000001","city":"San Diego","latitude":"32.95N","longitude":"117.77W"}
{"date":"2013-02-01","average_temperature":"10.229","city":"San Francisco","latitude":"37.78N","longitude":"122.03W"}
{"date":"2010-04-01","average_temperature":"25.405","city":"San Francisco De Macorís","latitude":"20.09N","longitude":"69.95W"}
{"date":"2010-04-01","average_temperature":"12.402999999999999","city":"San Jose","latitude":"37.78N","longitude":"122.03W"}
{"date":"2011-07-01","average_temperature":"27.434","city":"San Juan","latitude":"18.48N","longitude":"65.92W"}
{"date":"2011-01-01","average_temperature":"25.025","city":"San Pablo","latitude":"13.66N","longitude":"121.38E"}
{"date":"2010-10-01","average_temperature":"25.741999999999997","city":"San Salvador","latitude":"13.66N","longitude":"90.00W"}
{"date":"2013-08-01","average_temperature":"20.076","city":"Santa Ana","latitude":"32.95N","longitude":"117.77W"}
{"date":"2010-06-01","average_temperature":"13.032","city":"Santa Fe","latitude":"31.35S","longitude":"60.31W"}
{"date":"2012-10-01","average_temperature":"20.141","city":"Santa Fe","latitude":"31.35S","longitude":"60.31W"}
{"date":"2010-04-01","average_temperature":"22.267","city":"Santa Luzia","latitude":"20.09S","longitude":"44.36W"}
{"date":"2011-02-01","average_temperature":"27.28","city":"Santa Rita","latitude":"7.23S","longitude":"34.86W"}
{"date":"2012-01-01","average_temperature":"25.732","city":"Santa Rosa","latitude":"13.66N","longitude":"121.38E"}
{"date":"2010-08-01","average_temperature":"28.1","city":"Santiago","latitude":"16.87N","longitude":"122.23E"}
{"date":"2011-08-01","average_temperature":"27.933000000000003","city":"Santo Domingo","latitude":"18.48N","longitude":"69.30W"}
{"date":"2012-07-01","average_temperature":"34.235","city":"Sargodha","latitude":"31.35N","longitude":"73.51E"}
{"date":"2012-08-01","average_temperature":"25.877","city":"Sarh","latitude":"8.84N","longitude":"18.65E"}
{"date":"2013-04-01","average_temperature":"14.592","city":"Sasebo","latitude":"32.95N","longitude":"129.26E"}
{"date":"2011-09-01","average_temperature":"27.436","city":"Sekudai","latitude":"0.80N","longitude":"103.66E"}
{"date":"2010-03-01","average_temperature":"11.429","city":"Semnan","latitude":"36.17N","longitude":"53.70E"}
{"date":"2011-01-01","average_temperature":"23.619","city":"Serekunda","latitude":"13.66N","longitude":"17.34W"}
{"date":"2012-04-01","average_temperature":"0.3540000000000001","city":"Severodvinsk","latitude":"65.09N","longitude":"40.21E"}
{"date":"2012-04-01","average_temperature":"17.084","city":"Shahe","latitude":"36.17N","longitude":"115.36E"}
{"date":"2010-01-01","average_temperature":"14.136","city":"Shaping","latitude":"23.31N","longitude":"112.72E"}
{"date":"2011-06-01","average_temperature":"28.231","city":"Shenzhen","latitude":"23.31N","longitude":"114.47E"}
{"date":"2011-05-01","average_temperature":"14.73","city":"Shihezi","latitude":"44.20N","longitude":"84.97E"}
{"date":"2011-08-01","average_temperature":"26.114","city":"Shimonoseki","latitude":"34.56N","longitude":"130.38E"}
{"date":"2012-03-01","average_temperature":"10.111","city":"Shishou","latitude":"29.74N","longitude":"112.62E"}
{"date":"2011-10-01","average_temperature":"23.386","city":"Shulin","latitude":"24.92N","longitude":"120.59E"}
{"date":"2013-04-01","average_temperature":"9.565","city":"Sibiu","latitude":"45.81N","longitude":"24.23E"}
{"date":"2011-02-01","average_temperature":"19.905","city":"Silchar","latitude":"24.92N","longitude":"92.22E"}
{"date":"2010-03-01","average_temperature":"30.216","city":"Sincelejo","latitude":"8.84N","longitude":"75.41W"}
{"date":"2010-01-01","average_temperature":"27.064","city":"Singapore","latitude":"0.80N","longitude":"103.66E"}
{"date":"2012-11-01","average_temperature":"26.951","city":"Singapore","latitude":"0.80N","longitude":"103.66E"}
{"date":"2012-04-01","average_temperature":"31.366999999999997","city":"Sinnar","latitude":"13.66N","longitude":"33.85E"}
{"date":"2013-05-01","average_temperature":"21.218000000000004","city":"Sirjan","latitude":"29.74N","longitude":"55.38E"}
{"date":"2012-06-01","average_temperature":"18.353","city":"Sivas","latitude":"39.38N","longitude":"37.46E"}
{"date":"2011-09-01","average_temperature":"21.494","city":"Soacha","latitude":"4.02N","longitude":"74.73W"}
{"date":"2010-09-01","average_temperature":"30.711","city":"Sohag","latitude":"26.52N","longitude":"32.24E"}
{"date":"2012-08-01","average_temperature":"25.146","city":"Soreang","latitude":"7.23S","longitude":"107.84E"}
{"date":"2012-02-01","average_temperature":"24.981","city":"Sorocaba","latitude":"23.31S","longitude":"48.06W"}
{"date":"2010-06-01","average_temperature":"25.505","city":"Soyapango","latitude":"13.66N","longitude":"88.35W"}
{"date":"2013-04-01","average_temperature":"27.041999999999998","city":"Spanish Town","latitude":"18.48N","longitude":"77.75W"}
{"date":"2013-07-01","average_temperature":"23.824","city":"Springfield","latitude":"39.38N","longitude":"89.48W"}
{"date":"2012-06-01","average_temperature":"22.755000000000006","city":"Stara Zagora","latitude":"42.59N","longitude":"26.18E"}
{"date":"2011-04-01","average_temperature":"12.561","city":"Stuttgart","latitude":"49.03N","longitude":"9.80E"}
{"date":"2012-11-01","average_temperature":"5.449999999999998","city":"Stuttgart","latitude":"49.03N","longitude":"9.80E"}
{"date":"2010-06-01","average_temperature":"9.267999999999999","city":"Sucre","latitude":"18.48S","longitude":"65.92W"}
{"date":"2010-04-01","average_temperature":"33.101","city":"Sukkur","latitude":"28.13N","longitude":"68.18E"}
{"date":"2010-08-01","average_temperature":"18.564","city":"Sumaré","latitude":"23.31S","longitude":"48.06W"}
{"date":"2012-09-01","average_temperature":"27.746","city":"Surat","latitude":"21.70N","longitude":"73.56E"}
{"date":"2010-10-01","average_temperature":"16.967000000000002","city":"Sydney","latitude":"34.56S","longitude":"151.78E"}
{"date":"2013-09-01","average_temperature":"15.53","city":"Syracuse","latitude":"42.59N","longitude":"76.36W"}
{"date":"2011-08-01","average_temperature":"18.602","city":"Syzran","latitude":"53.84N","longitude":"47.73E"}
{"date":"2012-11-01","average_temperature":"5.497000000000001","city":"Szczecin","latitude":"53.84N","longitude":"15.00E"}
{"date":"2010-11-01","average_temperature":"20.628","city":"Taitung","latitude":"23.31N","longitude":"121.46E"}
{"date":"2011-02-01","average_temperature":"6.405","city":"Takatsuki","latitude":"34.56N","longitude":"136.22E"}
{"date":"2013-05-01","average_temperature":"24.186999999999998","city":"Tali","latitude":"24.92N","longitude":"120.59E"}
{"date":"2013-07-01","average_temperature":"26.791","city":"Tallahassee","latitude":"29.74N","longitude":"84.92W"}
{"date":"2013-08-01","average_temperature":"27.627","city":"Tallahassee","latitude":"29.74N","longitude":"84.92W"}
{"date":"2011-03-01","average_temperature":"31.476000000000006","city":"Tamale","latitude":"8.84N","longitude":"0.81W"}
{"date":"2012-11-01","average_temperature":"28.846","city":"Taman","latitude":"7.23S","longitude":"112.70E"}
{"date":"2010-08-01","average_temperature":"30.081","city":"Tambaram","latitude":"13.66N","longitude":"80.09E"}
{"date":"2012-09-01","average_temperature":"27.674","city":"Tampico","latitude":"21.70N","longitude":"97.79W"}
{"date":"2013-06-01","average_temperature":"26.908","city":"Tanshui","latitude":"24.92N","longitude":"120.59E"}
{"date":"2012-07-01","average_temperature":"28.266","city":"Tanta","latitude":"31.35N","longitude":"30.16E"}
{"date":"2011-09-01","average_temperature":"26.518","city":"Tanza","latitude":"15.27N","longitude":"120.83E"}
{"date":"2012-01-01","average_temperature":"-10.222999999999999","city":"Taraz","latitude":"42.59N","longitude":"72.00E"}
{"date":"2013-05-01","average_temperature":"16.141000000000002","city":"Tarragona","latitude":"40.99N","longitude":"2.13E"}
{"date":"2012-04-01","average_temperature":"18.195","city":"Tartus","latitude":"34.56N","longitude":"35.03E"}
{"date":"2011-11-01","average_temperature":"25.775","city":"Tasikmalaya","latitude":"7.23S","longitude":"107.84E"}
{"date":"2013-04-01","average_temperature":"25.78","city":"Tasikmalaya","latitude":"7.23S","longitude":"107.84E"}
{"date":"2012-05-01","average_temperature":"12.126","city":"Tauranga","latitude":"37.78S","longitude":"176.95E"}
{"date":"2012-01-01","average_temperature":"26.459","city":"Tebingtinggi","latitude":"4.02N","longitude":"98.84E"}
{"date":"2011-04-01","average_temperature":"23.769000000000002","city":"Tepic","latitude":"21.70N","longitude":"104.71W"}
{"date":"2010-11-01","average_temperature":"22.750999999999998","city":"Teresópolis","latitude":"21.70S","longitude":"42.40W"}
{"date":"2011-02-01","average_temperature":"11.748","city":"Terrassa","latitude":"40.99N","longitude":"2.13E"}
{"date":"2011-05-01","average_temperature":"27.999","city":"Teshie","latitude":"5.63N","longitude":"0.00W"}
{"date":"2010-05-01","average_temperature":"30.395000000000003","city":"Thanyaburi","latitude":"13.66N","longitude":"101.56E"}
{"date":"2012-06-01","average_temperature":"27.546","city":"Timon","latitude":"5.63S","longitude":"43.59W"}
{"date":"2013-02-01","average_temperature":"2.046","city":"Toda","latitude":"36.17N","longitude":"139.23E"}
{"date":"2012-10-01","average_temperature":"15.722000000000001","city":"Tokorozawa","latitude":"36.17N","longitude":"139.23E"}
{"date":"2011-10-01","average_temperature":"27.494","city":"Toledo","latitude":"10.45N","longitude":"123.55E"}
{"date":"2011-05-01","average_temperature":"25.552","city":"Toluca","latitude":"18.48N","longitude":"99.72W"}
{"date":"2013-05-01","average_temperature":"18.358","city":"Tondabayashi","latitude":"34.56N","longitude":"136.22E"}
{"date":"2010-11-01","average_temperature":"7.151","city":"Topeka","latitude":"39.38N","longitude":"95.72W"}
{"date":"2011-06-01","average_temperature":"17.215999999999998","city":"Toronto","latitude":"44.20N","longitude":"80.50W"}
{"date":"2012-01-01","average_temperature":"11.581","city":"Torrance","latitude":"34.56N","longitude":"118.70W"}
{"date":"2011-12-01","average_temperature":"18.238","city":"Touliu","latitude":"23.31N","longitude":"119.71E"}
{"date":"2013-09-01","average_temperature":"14.281","city":"Trois Rivières","latitude":"45.81N","longitude":"72.69W"}
{"date":"2012-04-01","average_temperature":"18.266","city":"Tulsa","latitude":"36.17N","longitude":"95.47W"}
{"date":"2010-07-01","average_temperature":"22.15","city":"Tuluá","latitude":"4.02N","longitude":"76.34W"}
{"date":"2010-06-01","average_temperature":"23.033","city":"Tumbes","latitude":"4.02S","longitude":"81.16W"}
{"date":"2010-11-01","average_temperature":"25.291999999999998","city":"Tungi","latitude":"23.31N","longitude":"90.00E"}
{"date":"2013-05-01","average_temperature":"20.773000000000003","city":"Turgutlu","latitude":"37.78N","longitude":"28.47E"}
{"date":"2010-09-01","average_temperature":"14.443","city":"Tuzla","latitude":"44.20N","longitude":"17.89E"}
{"date":"2011-05-01","average_temperature":"14.409","city":"Tuzla","latitude":"44.20N","longitude":"17.89E"}
{"date":"2010-08-01","average_temperature":"24.226999999999997","city":"Udupi","latitude":"13.66N","longitude":"75.14E"}
{"date":"2011-04-01","average_temperature":"12.548","city":"Uji","latitude":"34.56N","longitude":"136.22E"}
{"date":"2010-02-01","average_temperature":"25.615","city":"Ulhasnagar","latitude":"18.48N","longitude":"72.68E"}
{"date":"2010-09-01","average_temperature":"27.587","city":"Ulhasnagar","latitude":"18.48N","longitude":"72.68E"}
{"date":"2011-10-01","average_temperature":"5.662000000000001","city":"Ulyanovsk","latitude":"53.84N","longitude":"47.73E"}
{"date":"2012-09-01","average_temperature":"24.985","city":"Uromi","latitude":"7.23N","longitude":"5.68E"}
{"date":"2011-01-01","average_temperature":"2.609","city":"Usak","latitude":"39.38N","longitude":"29.13E"}
{"date":"2013-05-01","average_temperature":"17.712","city":"Usak","latitude":"39.38N","longitude":"29.13E"}
{"date":"2013-03-01","average_temperature":"0.42800000000000016","city":"Uzhhorod","latitude":"49.03N","longitude":"22.04E"}
{"date":"2011-11-01","average_temperature":"14.802999999999999","city":"Valparaiso","latitude":"32.95S","longitude":"71.81W"}
{"date":"2010-05-01","average_temperature":"13.311","city":"Vereeniging","latitude":"26.52S","longitude":"28.66E"}
{"date":"2011-05-01","average_temperature":"15.638","city":"Viamão","latitude":"29.74S","longitude":"51.69W"}
{"date":"2012-03-01","average_temperature":"22.764","city":"Viamão","latitude":"29.74S","longitude":"51.69W"}
{"date":"2013-01-01","average_temperature":"23.434","city":"Viamão","latitude":"29.74S","longitude":"51.69W"}
{"date":"2011-08-01","average_temperature":"19.78","city":"Vienna","latitude":"49.03N","longitude":"17.14E"}
{"date":"2012-06-01","average_temperature":"21.125","city":"Villa Canales","latitude":"15.27N","longitude":"90.83W"}
{"date":"2010-04-01","average_temperature":"21.766","city":"Villa Nueva","latitude":"15.27N","longitude":"90.83W"}
{"date":"2012-09-01","average_temperature":"13.149000000000001","city":"Vilnius","latitude":"55.45N","longitude":"25.51E"}
{"date":"2011-03-01","average_temperature":"1.097","city":"Vinnytsya","latitude":"49.03N","longitude":"29.39E"}
{"date":"2012-12-01","average_temperature":"21.674","city":"Virar","latitude":"20.09N","longitude":"73.36E"}
{"date":"2013-05-01","average_temperature":"30.941000000000006","city":"Virar","latitude":"20.09N","longitude":"73.36E"}
{"date":"2012-07-01","average_temperature":"26.095","city":"Visalia","latitude":"36.17N","longitude":"119.34W"}
{"date":"2012-02-01","average_temperature":"26.071","city":"Vitória","latitude":"20.09S","longitude":"40.95W"}
{"date":"2010-03-01","average_temperature":"28.31","city":"Vitória De Santo Antão","latitude":"8.84S","longitude":"34.86W"}
{"date":"2010-05-01","average_temperature":"13.165999999999999","city":"Vitoria","latitude":"42.59N","longitude":"2.18W"}
{"date":"2011-06-01","average_temperature":"10.41","city":"Vryheid","latitude":"28.13S","longitude":"30.00E"}
{"date":"2012-09-01","average_temperature":"28.519","city":"Warangal","latitude":"18.48N","longitude":"79.44E"}
{"date":"2011-12-01","average_temperature":"12.491","city":"Warqla","latitude":"31.35N","longitude":"5.65E"}
{"date":"2011-02-01","average_temperature":"-4.475","city":"Warsaw","latitude":"52.24N","longitude":"21.02E"}
{"date":"2012-09-01","average_temperature":"14.775","city":"Warsaw","latitude":"52.24N","longitude":"21.02E"}
{"date":"2012-01-01","average_temperature":"26.756","city":"Waru","latitude":"7.23S","longitude":"112.70E"}
{"date":"2010-06-01","average_temperature":"20.675","city":"Waterbury","latitude":"40.99N","longitude":"72.43W"}
{"date":"2012-08-01","average_temperature":"17.697000000000006","city":"Watford","latitude":"52.24N","longitude":"0.00W"}
{"date":"2011-11-01","average_temperature":"10.748","city":"Wencheng","latitude":"37.78N","longitude":"122.03E"}
{"date":"2012-02-01","average_temperature":"-2.33","city":"Westminster","latitude":"39.38N","longitude":"104.05W"}
{"date":"2010-02-01","average_temperature":"-0.28200000000000003","city":"Wiesbaden","latitude":"50.63N","longitude":"8.87E"}
{"date":"2013-05-01","average_temperature":"16.287","city":"Windsor","latitude":"42.59N","longitude":"82.91W"}
{"date":"2010-09-01","average_temperature":"17.163","city":"Witbank","latitude":"26.52S","longitude":"28.66E"}
{"date":"2012-07-01","average_temperature":"24.265","city":"Wuda","latitude":"39.38N","longitude":"106.13E"}
{"date":"2010-06-01","average_temperature":"10.923","city":"Wuwei","latitude":"37.78N","longitude":"101.69E"}
{"date":"2011-09-01","average_temperature":"16.775","city":"Xian","latitude":"34.56N","longitude":"108.97E"}
{"date":"2011-06-01","average_temperature":"22.021","city":"Yanan","latitude":"36.17N","longitude":"109.39E"}
{"date":"2011-10-01","average_temperature":"23.997","city":"Yangjiang","latitude":"21.70N","longitude":"111.63E"}
{"date":"2012-01-01","average_temperature":"1.9040000000000001","city":"Yangzhou","latitude":"32.95N","longitude":"119.68E"}
{"date":"2012-03-01","average_temperature":"26.47","city":"Yaoundé","latitude":"4.02N","longitude":"12.05E"}
{"date":"2012-05-01","average_temperature":"12.805","city":"Yekaterinburg","latitude":"57.05N","longitude":"60.49E"}
{"date":"2013-08-01","average_temperature":"28.239","city":"Yenangyaung","latitude":"20.09N","longitude":"95.55E"}
{"date":"2010-06-01","average_temperature":"24.588","city":"Yingcheng","latitude":"24.92N","longitude":"113.50E"}
{"date":"2013-02-01","average_temperature":"6.018000000000002","city":"Yingcheng","latitude":"31.35N","longitude":"113.09E"}
{"date":"2010-07-01","average_temperature":"28.229","city":"Yizheng","latitude":"32.95N","longitude":"119.68E"}
{"date":"2010-07-01","average_temperature":"27.496","city":"Yongan","latitude":"26.52N","longitude":"118.21E"}
{"date":"2012-01-01","average_temperature":"7.582000000000002","city":"Yongan","latitude":"26.52N","longitude":"118.21E"}
{"date":"2013-05-01","average_temperature":"22.703000000000003","city":"Yongan","latitude":"26.52N","longitude":"118.21E"}
{"date":"2012-09-01","average_temperature":"27.003","city":"Yulin","latitude":"21.70N","longitude":"109.90E"}
{"date":"2010-03-01","average_temperature":"6.178999999999999","city":"Yuncheng","latitude":"34.56N","longitude":"110.92E"}
{"date":"2012-08-01","average_temperature":"18.224","city":"Zalantun","latitude":"47.42N","longitude":"121.97E"}
{"date":"2011-08-01","average_temperature":"25.201999999999998","city":"Zama","latitude":"36.17N","longitude":"139.23E"}
{"date":"2011-03-01","average_temperature":"10.975","city":"Zaoyang","latitude":"31.35N","longitude":"113.09E"}
{"date":"2013-07-01","average_temperature":"25.834","city":"Zaragoza","latitude":"40.99N","longitude":"0.00W"}
{"date":"2012-03-01","average_temperature":"29.871","city":"Zaria","latitude":"10.45N","longitude":"7.36E"}
{"date":"2012-10-01","average_temperature":"24.988000000000003","city":"Zaria","latitude":"10.45N","longitude":"7.36E"}
{"date":"2010-01-01","average_temperature":"-1.092","city":"Zenica","latitude":"44.20N","longitude":"17.89E"}
{"date":"2010-06-01","average_temperature":"24.991999999999997","city":"Zhangdian","latitude":"36.17N","longitude":"117.35E"}
{"date":"2010-03-01","average_temperature":"-7.641","city":"Zhaodong","latitude":"45.81N","longitude":"125.77E"}
{"date":"2012-07-01","average_temperature":"27.668000000000003","city":"Zigong","latitude":"29.74N","longitude":"105.23E"}
{"date":"2010-10-01","average_temperature":"2.861","city":"Zlatoust","latitude":"55.45N","longitude":"59.53E"}
{"date":"2010-12-01","average_temperature":"-2.841","city":"Zurich","latitude":"47.42N","longitude":"8.29E"}
{"date":"2012-08-01","average_temperature":"17.832","city":"Zurich","latitude":"47.42N","longitude":"8.29E"}
