{"date":"2010-10-01","average_temperature":"8.328","city":"Århus","latitude":"57.05N","longitude":"10.33E"}
{"date":"2011-02-01","average_temperature":"4.562","city":"Çorlu","latitude":"40.99N","longitude":"27.69E"}
{"date":"2012-09-01","average_temperature":"12.713","city":"Öskemen","latitude":"50.63N","longitude":"82.39E"}
{"date":"2010-05-01","average_temperature":"16.337","city":"Abiko","latitude":"36.17N","longitude":"139.23E"}
{"date":"2013-04-01","average_temperature":"11.31","city":"Abiko","latitude":"36.17N","longitude":"139.23E"}
{"date":"2010-03-01","average_temperature":"25.82","city":"Abohar","latitude":"29.74N","longitude":"73.85E"}
{"date":"2010-03-01","average_temperature":"31.116999999999997","city":"Abuja","latitude":"8.84N","longitude":"7.30E"}
{"date":"2010-07-01","average_temperature":"25.896","city":"Accra","latitude":"5.63N","longitude":"0.00W"}
{"date":"2011-08-01","average_temperature":"17.570999999999998","city":"Addis Abeba","latitude":"8.84N","longitude":"38.11E"}
{"date":"2010-03-01","average_temperature":"21.316999999999997","city":"Adelaide","latitude":"34.56S","longitude":"138.16E"}
{"date":"2010-08-01","average_temperature":"26.629","city":"Aizawl","latitude":"23.31N","longitude":"93.50E"}
{"date":"2013-05-01","average_temperature":"13.853000000000002","city":"Akita","latitude":"39.38N","longitude":"139.42E"}
{"date":"2011-10-01","average_temperature":"26.714000000000002","city":"Akola","latitude":"20.09N","longitude":"76.78E"}
{"date":"2011-06-01","average_temperature":"18.961","city":"Aksaray","latitude":"37.78N","longitude":"34.58E"}
{"date":"2011-04-01","average_temperature":"26.79","city":"Alagoinhas","latitude":"12.05S","longitude":"37.81W"}
{"date":"2013-02-01","average_temperature":"27.093000000000004","city":"Alandur","latitude":"13.66N","longitude":"80.09E"}
{"date":"2012-12-01","average_temperature":"14.248","city":"Alanya","latitude":"36.17N","longitude":"31.82E"}
{"date":"2011-08-01","average_temperature":"19.520000000000003","city":"Almaty","latitude":"42.59N","longitude":"76.36E"}
{"date":"2011-08-01","average_temperature":"27.376","city":"Amagasaki","latitude":"34.56N","longitude":"136.22E"}
{"date":"2011-09-01","average_temperature":"22.506999999999998","city":"Amarillo","latitude":"34.56N","longitude":"101.19W"}
{"date":"2012-03-01","average_temperature":"14.338","city":"Amarillo","latitude":"34.56N","longitude":"101.19W"}
{"date":"2013-07-01","average_temperature":"30.77","city":"Ambattur","latitude":"13.66N","longitude":"80.09E"}
{"date":"2011-05-01","average_temperature":"26.587","city":"Ambon","latitude":"4.02S","longitude":"127.77E"}
{"date":"2012-12-01","average_temperature":"25.585","city":"Ambur","latitude":"12.05N","longitude":"78.90E"}
{"date":"2011-01-01","average_temperature":"3.326","city":"Amol","latitude":"36.17N","longitude":"51.71E"}
{"date":"2012-06-01","average_temperature":"35.631","city":"Amroha","latitude":"28.13N","longitude":"79.09E"}
{"date":"2012-09-01","average_temperature":"25.357000000000006","city":"Anápolis","latitude":"16.87S","longitude":"48.56W"}
{"date":"2013-06-01","average_temperature":"22.026999999999997","city":"Anápolis","latitude":"16.87S","longitude":"48.56W"}
{"date":"2013-01-01","average_temperature":"19.645","city":"Anand","latitude":"23.31N","longitude":"72.52E"}
{"date":"2010-11-01","average_temperature":"21.794","city":"Angra Dos Reis","latitude":"23.31S","longitude":"44.56W"}
{"date":"2010-11-01","average_temperature":"9.669","city":"Ankara","latitude":"39.38N","longitude":"33.29E"}
{"date":"2013-05-01","average_temperature":"18.998","city":"Antananarivo","latitude":"18.48S","longitude":"47.32E"}
{"date":"2013-04-01","average_temperature":"15.995999999999999","city":"Antioch","latitude":"37.78N","longitude":"122.03W"}
{"date":"2012-09-01","average_temperature":"27.246","city":"Antipolo","latitude":"15.27N","longitude":"120.83E"}
{"date":"2012-04-01","average_temperature":"8.620000000000001","city":"Antwerp","latitude":"50.63N","longitude":"3.80E"}
{"date":"2010-04-01","average_temperature":"23.002","city":"Apodaca","latitude":"26.52N","longitude":"100.30W"}
{"date":"2011-08-01","average_temperature":"24.719","city":"Aracaju","latitude":"10.45S","longitude":"36.82W"}
{"date":"2011-10-01","average_temperature":"9.329","city":"Arad","latitude":"45.81N","longitude":"21.92E"}
{"date":"2011-09-01","average_temperature":"29.758000000000003","city":"Araguaína","latitude":"7.23S","longitude":"47.84W"}
{"date":"2010-11-01","average_temperature":"13.966","city":"Arlington","latitude":"32.95N","longitude":"96.70W"}
{"date":"2010-04-01","average_temperature":"11.11","city":"Armavir","latitude":"45.81N","longitude":"40.38E"}
{"date":"2011-07-01","average_temperature":"15.440999999999999","city":"Arvada","latitude":"39.38N","longitude":"106.13W"}
{"date":"2010-05-01","average_temperature":"20.789","city":"Aryanah","latitude":"36.17N","longitude":"9.94E"}
{"date":"2010-08-01","average_temperature":"27.295","city":"Asaka","latitude":"36.17N","longitude":"139.23E"}
{"date":"2010-11-01","average_temperature":"21.711","city":"Ashqelon","latitude":"31.35N","longitude":"33.93E"}
{"date":"2012-08-01","average_temperature":"19.681","city":"Astana","latitude":"50.63N","longitude":"72.25E"}
{"date":"2011-12-01","average_temperature":"-0.2609999999999999","city":"Astrakhan","latitude":"45.81N","longitude":"47.31E"}
{"date":"2010-04-01","average_temperature":"16.249000000000002","city":"Atlanta","latitude":"34.56N","longitude":"83.68W"}
{"date":"2011-12-01","average_temperature":"17.798","city":"Auckland","latitude":"36.17S","longitude":"175.03E"}
{"date":"2012-03-01","average_temperature":"12.263000000000002","city":"Aurora","latitude":"40.99N","longitude":"87.34W"}
{"date":"2010-10-01","average_temperature":"19.342","city":"Awassa","latitude":"7.23N","longitude":"38.11E"}
{"date":"2010-10-01","average_temperature":"25.9","city":"Bénin","latitude":"7.23N","longitude":"5.68E"}
{"date":"2013-06-01","average_temperature":"25.64","city":"Babakan","latitude":"7.23S","longitude":"107.84E"}
{"date":"2011-11-01","average_temperature":"29.04","city":"Badlapur","latitude":"18.48N","longitude":"72.68E"}
{"date":"2010-07-01","average_temperature":"26.74","city":"Baguio","latitude":"16.87N","longitude":"120.56E"}
{"date":"2012-06-01","average_temperature":"36.15000000000001","city":"Bahawalpur","latitude":"29.74N","longitude":"72.00E"}
{"date":"2013-01-01","average_temperature":"13.667","city":"Bahawalpur","latitude":"29.74N","longitude":"72.00E"}
{"date":"2012-03-01","average_temperature":"19.54","city":"Bahia Blanca","latitude":"39.38S","longitude":"62.43W"}
{"date":"2013-04-01","average_temperature":"16.457","city":"Bakersfield","latitude":"36.17N","longitude":"119.34W"}
{"date":"2012-12-01","average_temperature":"24.178","city":"Bama","latitude":"12.05N","longitude":"13.15E"}
{"date":"2011-12-01","average_temperature":"24.162000000000006","city":"Bamako","latitude":"12.05N","longitude":"8.22W"}
{"date":"2013-08-01","average_temperature":"27.701999999999998","city":"Barcelona","latitude":"10.45N","longitude":"64.64W"}
{"date":"2012-02-01","average_temperature":"6.516","city":"Bari","latitude":"40.99N","longitude":"17.04E"}
{"date":"2011-06-01","average_temperature":"26.217","city":"Barrancabermeja","latitude":"7.23N","longitude":"73.78W"}
{"date":"2013-07-01","average_temperature":"24.82","city":"Barreiras","latitude":"12.05S","longitude":"44.38W"}
{"date":"2010-10-01","average_temperature":"23.518","city":"Barretos","latitude":"20.09S","longitude":"47.77W"}
{"date":"2013-03-01","average_temperature":"-1.8619999999999999","city":"Barrie","latitude":"44.20N","longitude":"80.50W"}
{"date":"2011-02-01","average_temperature":"24.509","city":"Barsi","latitude":"18.48N","longitude":"76.06E"}
{"date":"2013-01-01","average_temperature":"14.017999999999999","city":"Basti","latitude":"26.52N","longitude":"82.39E"}
{"date":"2011-08-01","average_temperature":"27.337","city":"Batangas","latitude":"13.66N","longitude":"121.38E"}
{"date":"2013-05-01","average_temperature":"20.661","city":"Bataysk","latitude":"47.42N","longitude":"39.08E"}
{"date":"2011-02-01","average_temperature":"12.831","city":"Baton Rouge","latitude":"29.74N","longitude":"90.46W"}
{"date":"2012-01-01","average_temperature":"-5.909","city":"Belgorod","latitude":"50.63N","longitude":"36.76E"}
{"date":"2012-05-01","average_temperature":"9.642","city":"Bellevue","latitude":"47.42N","longitude":"121.97W"}
{"date":"2013-06-01","average_temperature":"13.937999999999999","city":"Bellevue","latitude":"47.42N","longitude":"121.97W"}
{"date":"2011-04-01","average_temperature":"22.529","city":"Belo Horizonte","latitude":"20.09S","longitude":"44.36W"}
{"date":"2010-08-01","average_temperature":"20.865","city":"Benguela","latitude":"12.05S","longitude":"13.15E"}
{"date":"2010-02-01","average_temperature":"17.97","city":"Benha","latitude":"29.74N","longitude":"31.38E"}
{"date":"2013-02-01","average_temperature":"15.931","city":"Benha","latitude":"29.74N","longitude":"31.38E"}
{"date":"2013-07-01","average_temperature":"28.217","city":"Benha","latitude":"29.74N","longitude":"31.38E"}
{"date":"2011-09-01","average_temperature":"27.406999999999996","city":"Beni Suef","latitude":"29.74N","longitude":"31.38E"}
{"date":"2012-10-01","average_temperature":"25.086","city":"Beni Suef","latitude":"29.74N","longitude":"31.38E"}
{"date":"2011-12-01","average_temperature":"1.2429999999999999","city":"Bergamo","latitude":"45.81N","longitude":"10.38E"}
{"date":"2013-09-01","city":"Berlin","latitude":"52.24N","longitude":"13.14E"}
{"date":"2013-03-01","average_temperature":"25.001","city":"Bertoua","latitude":"4.02N","longitude":"13.66E"}
{"date":"2013-06-01","average_temperature":"23.913","city":"Bertoua","latitude":"4.02N","longitude":"13.66E"}
{"date":"2010-08-01","average_temperature":"12.197","city":"Bethal","latitude":"26.52S","longitude":"28.66E"}
{"date":"2012-07-01","average_temperature":"29.381","city":"Bhagalpur","latitude":"24.92N","longitude":"86.90E"}
{"date":"2011-01-01","average_temperature":"19.674","city":"Bhiwandi","latitude":"20.09N","longitude":"73.36E"}
{"date":"2013-02-01","average_temperature":"23.331","city":"Bhiwandi","latitude":"20.09N","longitude":"73.36E"}
{"date":"2012-08-01","average_temperature":"30.114","city":"Bhiwani","latitude":"28.13N","longitude":"75.45E"}
{"date":"2010-07-01","average_temperature":"27.839000000000002","city":"Bhopal","latitude":"23.31N","longitude":"77.77E"}
{"date":"2012-02-01","average_temperature":"-8.754999999999999","city":"Bialystok","latitude":"53.84N","longitude":"23.18E"}
{"date":"2012-11-01","average_temperature":"27.13","city":"Binjai","latitude":"4.02N","longitude":"98.84E"}
{"date":"2013-07-01","average_temperature":"27.972","city":"Binzhou","latitude":"37.78N","longitude":"117.97E"}
{"date":"2012-10-01","average_temperature":"22.928","city":"Biratnagar","latitude":"26.52N","longitude":"87.76E"}
{"date":"2013-04-01","average_temperature":"17.087","city":"Birmingham","latitude":"32.95N","longitude":"87.13W"}
{"date":"2011-02-01","average_temperature":"22.648000000000003","city":"Bisho","latitude":"32.95S","longitude":"27.77E"}
{"date":"2013-07-01","average_temperature":"21.046","city":"Blagoveshchensk","latitude":"50.63N","longitude":"128.03E"}
{"date":"2012-01-01","average_temperature":"26.66","city":"Bobo Dioulasso","latitude":"10.45N","longitude":"4.09W"}
{"date":"2010-02-01","average_temperature":"20.32","city":"Boksburg","latitude":"26.52S","longitude":"28.66E"}
{"date":"2011-03-01","average_temperature":"6.285","city":"Bolton","latitude":"53.84N","longitude":"1.36W"}
{"date":"2013-04-01","average_temperature":"20.991","city":"Botucatu","latitude":"23.31S","longitude":"48.06W"}
{"date":"2010-05-01","average_temperature":"16.214000000000002","city":"Braga","latitude":"40.99N","longitude":"8.52W"}
{"date":"2011-12-01","average_temperature":"2.503","city":"Braila","latitude":"45.81N","longitude":"28.85E"}
{"date":"2013-05-01","average_temperature":"16.22","city":"Brasov","latitude":"45.81N","longitude":"26.54E"}
{"date":"2010-08-01","average_temperature":"16.912000000000006","city":"Breda","latitude":"52.24N","longitude":"5.26E"}
{"date":"2012-04-01","average_temperature":"8.205","city":"Brunswick","latitude":"52.24N","longitude":"10.51E"}
{"date":"2012-05-01","average_temperature":"14.459000000000001","city":"Brunswick","latitude":"52.24N","longitude":"10.51E"}
{"date":"2010-03-01","average_temperature":"6.899","city":"Brussels","latitude":"50.63N","longitude":"3.80E"}
{"date":"2012-12-01","average_temperature":"-7.917999999999999","city":"Bryansk","latitude":"53.84N","longitude":"34.09E"}
{"date":"2012-06-01","average_temperature":"21.158","city":"Budapest","latitude":"47.42N","longitude":"20.13E"}
{"date":"2012-01-01","average_temperature":"3.4590000000000005","city":"Buhe","latitude":"29.74N","longitude":"112.62E"}
{"date":"2010-06-01","average_temperature":"35.165","city":"Bulandshahr","latitude":"28.13N","longitude":"77.27E"}
{"date":"2013-01-01","average_temperature":"4.503","city":"Burgos","latitude":"42.59N","longitude":"4.36W"}
{"date":"2012-03-01","average_temperature":"4.698","city":"Bydgoszcz","latitude":"53.84N","longitude":"17.73E"}
{"date":"2012-12-01","average_temperature":"-3.1100000000000003","city":"Bydgoszcz","latitude":"53.84N","longitude":"17.73E"}
{"date":"2010-10-01","average_temperature":"27.101","city":"Cà Mau","latitude":"8.84N","longitude":"104.59E"}
{"date":"2011-06-01","average_temperature":"26.666999999999998","city":"Córdoba","latitude":"18.48N","longitude":"96.34W"}
{"date":"2012-07-01","average_temperature":"29.051","city":"Cabimas","latitude":"10.45N","longitude":"71.18W"}
{"date":"2013-05-01","average_temperature":"24.443","city":"Cabo Frio","latitude":"23.31S","longitude":"42.82W"}
{"date":"2013-08-01","average_temperature":"25.741","city":"Cabudare","latitude":"10.45N","longitude":"69.55W"}
{"date":"2011-07-01","average_temperature":"19.575","city":"Cachoeiro De Itapemirim","latitude":"20.09S","longitude":"40.95W"}
{"date":"2010-08-01","average_temperature":"27.627","city":"Calamba","latitude":"13.66N","longitude":"121.38E"}
{"date":"2013-05-01","average_temperature":"26.919","city":"Cam Pha","latitude":"21.70N","longitude":"108.17E"}
{"date":"2010-09-01","average_temperature":"25.223000000000006","city":"Camaragibe","latitude":"7.23S","longitude":"34.86W"}
{"date":"2012-09-01","average_temperature":"28.021","city":"Can Tho","latitude":"10.45N","longitude":"105.55E"}
{"date":"2013-09-01","city":"Canberra","latitude":"36.17S","longitude":"149.17E"}
{"date":"2013-04-01","average_temperature":"24.94","city":"Cancún","latitude":"21.70N","longitude":"87.40W"}
{"date":"2010-09-01","average_temperature":"27.927","city":"Carolina","latitude":"18.48N","longitude":"65.92W"}
{"date":"2013-01-01","average_temperature":"25.556","city":"Carrefour","latitude":"18.48N","longitude":"72.68W"}
{"date":"2011-06-01","average_temperature":"29.344","city":"Cartagena","latitude":"10.45N","longitude":"76.09W"}
{"date":"2012-06-01","average_temperature":"26.427","city":"Catia La Mar","latitude":"10.45N","longitude":"66.27W"}
{"date":"2011-10-01","average_temperature":"27.494","city":"Cebu","latitude":"10.45N","longitude":"123.55E"}
{"date":"2012-06-01","average_temperature":"22.02","city":"Cedar Rapids","latitude":"42.59N","longitude":"91.64W"}
{"date":"2010-01-01","average_temperature":"4.586","city":"Chandigarh","latitude":"31.35N","longitude":"77.28E"}
{"date":"2011-10-01","average_temperature":"23.124000000000002","city":"Chaozhou","latitude":"23.31N","longitude":"116.21E"}
{"date":"2010-04-01","average_temperature":"19.711","city":"Chapecó","latitude":"26.52S","longitude":"53.73W"}
{"date":"2010-05-01","average_temperature":"27.111","city":"Charallave","latitude":"10.45N","longitude":"66.27W"}
{"date":"2013-03-01","average_temperature":"3.506","city":"Charleroi","latitude":"50.63N","longitude":"3.80E"}
{"date":"2011-07-01","average_temperature":"28.339","city":"Charlotte","latitude":"34.56N","longitude":"81.73W"}
{"date":"2011-10-01","average_temperature":"12.167","city":"Cheltenham","latitude":"52.24N","longitude":"2.63W"}
{"date":"2010-01-01","average_temperature":"2.434","city":"Chengdu","latitude":"31.35N","longitude":"103.66E"}
{"date":"2012-09-01","average_temperature":"26.897","city":"Chenghai","latitude":"23.31N","longitude":"116.21E"}
{"date":"2011-09-01","average_temperature":"15.114","city":"Cherkessk","latitude":"44.20N","longitude":"42.48E"}
{"date":"2010-09-01","average_temperature":"13.207","city":"Chernihiv","latitude":"52.24N","longitude":"31.53E"}
{"date":"2011-12-01","average_temperature":"1.25","city":"Chernivtsi","latitude":"49.03N","longitude":"26.94E"}
{"date":"2010-05-01","average_temperature":"20.696","city":"Chesapeake","latitude":"36.17N","longitude":"75.58W"}
{"date":"2011-04-01","average_temperature":"16.875999999999998","city":"Chesapeake","latitude":"36.17N","longitude":"75.58W"}
{"date":"2010-06-01","average_temperature":"29.396","city":"Chiang Mai","latitude":"18.48N","longitude":"99.72E"}
{"date":"2011-05-01","average_temperature":"12.133","city":"Chicago","latitude":"42.59N","longitude":"87.27W"}
{"date":"2011-06-01","average_temperature":"6.196000000000001","city":"Chillan","latitude":"36.17S","longitude":"71.60W"}
{"date":"2010-11-01","average_temperature":"19.573","city":"Chilpancingo","latitude":"18.48N","longitude":"99.72W"}
{"date":"2012-08-01","average_temperature":"20.246","city":"Chingola","latitude":"12.05S","longitude":"27.95E"}
{"date":"2010-01-01","average_temperature":"-5.9689999999999985","city":"Chisinau","latitude":"47.42N","longitude":"29.61E"}
{"date":"2012-02-01","average_temperature":"14.387","city":"Chungho","latitude":"24.92N","longitude":"120.59E"}
{"date":"2010-01-01","average_temperature":"15.489","city":"Chupei","latitude":"24.92N","longitude":"120.59E"}
{"date":"2010-05-01","average_temperature":"27.755","city":"Ciego De Ávila","latitude":"21.70N","longitude":"78.75W"}
{"date":"2012-12-01","average_temperature":"25.173","city":"Cienfuegos","latitude":"21.70N","longitude":"80.48W"}
{"date":"2011-07-01","average_temperature":"24.856","city":"Cikampek","latitude":"7.23S","longitude":"107.84E"}
{"date":"2010-01-01","average_temperature":"26.254","city":"Ciomas","latitude":"7.23S","longitude":"106.22E"}
{"date":"2013-04-01","average_temperature":"25.78","city":"Ciparay","latitude":"7.23S","longitude":"107.84E"}
{"date":"2012-04-01","average_temperature":"27.609","city":"Ciputat","latitude":"5.63S","longitude":"106.55E"}
{"date":"2013-04-01","average_temperature":"27.923000000000002","city":"Ciudad Bolívar","latitude":"8.84N","longitude":"64.05W"}
{"date":"2010-02-01","average_temperature":"1.7720000000000002","city":"Clermont Ferrand","latitude":"45.81N","longitude":"3.46E"}
{"date":"2012-11-01","average_temperature":"6.131","city":"Clermont Ferrand","latitude":"45.81N","longitude":"3.46E"}
{"date":"2011-05-01","average_temperature":"28.565","city":"Coatzacoalcos","latitude":"18.48N","longitude":"94.65W"}
{"date":"2012-04-01","average_temperature":"11.098","city":"Coimbra","latitude":"40.99N","longitude":"8.52W"}
{"date":"2013-02-01","average_temperature":"0.121","city":"Cologne","latitude":"50.63N","longitude":"6.34E"}
{"date":"2012-10-01","average_temperature":"17.205","city":"Columbus","latitude":"32.95N","longitude":"85.21W"}
{"date":"2010-05-01","average_temperature":"29.087","city":"Conakry","latitude":"8.84N","longitude":"13.78W"}
{"date":"2012-07-01","average_temperature":"10.634","city":"Concordia","latitude":"31.35S","longitude":"58.43W"}
{"date":"2012-04-01","average_temperature":"20.997","city":"Corrientes","latitude":"28.13S","longitude":"59.09W"}
{"date":"2012-08-01","average_temperature":"25.283","city":"Cotonou","latitude":"7.23N","longitude":"2.43E"}
{"date":"2013-08-01","average_temperature":"19.335","city":"Cottbus","latitude":"52.24N","longitude":"13.14E"}
{"date":"2011-10-01","average_temperature":"18.943","city":"Criciúma","latitude":"28.13S","longitude":"50.00W"}
{"date":"2011-04-01","average_temperature":"13.304","city":"Curico","latitude":"34.56S","longitude":"72.00W"}
{"date":"2012-02-01","average_temperature":"25.038","city":"Dagupan","latitude":"16.87N","longitude":"120.56E"}
{"date":"2010-09-01","average_temperature":"20.036","city":"Dalian","latitude":"39.38N","longitude":"120.69E"}
{"date":"2011-06-01","average_temperature":"20.686999999999998","city":"Dalian","latitude":"39.38N","longitude":"120.69E"}
{"date":"2011-01-01","average_temperature":"9.207999999999998","city":"Daliang","latitude":"23.31N","longitude":"112.72E"}
{"date":"2010-03-01","average_temperature":"28.506999999999998","city":"Daloa","latitude":"7.23N","longitude":"5.68W"}
{"date":"2013-07-01","average_temperature":"25.283","city":"Daloa","latitude":"7.23N","longitude":"5.68W"}
{"date":"2010-03-01","average_temperature":"1.5130000000000001","city":"Dandong","latitude":"39.38N","longitude":"124.86E"}
{"date":"2013-04-01","average_temperature":"6.848000000000001","city":"Dandong","latitude":"39.38N","longitude":"124.86E"}
{"date":"2013-08-01","average_temperature":"25.374000000000002","city":"Dandong","latitude":"39.38N","longitude":"124.86E"}
{"date":"2013-04-01","average_temperature":"4.792","city":"Daugavpils","latitude":"55.45N","longitude":"25.51E"}
{"date":"2013-04-01","average_temperature":"26.825","city":"Delmas","latitude":"18.48N","longitude":"72.68W"}
{"date":"2011-06-01","average_temperature":"25.494","city":"Denpasar","latitude":"8.84S","longitude":"115.95E"}
{"date":"2011-11-01","average_temperature":"27.116","city":"Denpasar","latitude":"8.84S","longitude":"115.95E"}
{"date":"2012-05-01","average_temperature":"26.618","city":"Denpasar","latitude":"8.84S","longitude":"115.95E"}
{"date":"2011-03-01","average_temperature":"5.018000000000002","city":"Denver","latitude":"39.38N","longitude":"104.05W"}
{"date":"2011-01-01","average_temperature":"-6.212999999999999","city":"Detroit","latitude":"42.59N","longitude":"82.91W"}
{"date":"2011-04-01","average_temperature":"15.407","city":"Dezhou","latitude":"37.78N","longitude":"115.93E"}
{"date":"2011-05-01","average_temperature":"21.248","city":"Dezhou","latitude":"37.78N","longitude":"115.93E"}
{"date":"2012-11-01","average_temperature":"5.885","city":"Dijon","latitude":"47.42N","longitude":"5.92E"}
{"date":"2012-01-01","average_temperature":"23.641","city":"Dindigul","latitude":"10.45N","longitude":"77.73E"}
{"date":"2011-04-01","average_temperature":"16.207","city":"Do Rud","latitude":"32.95N","longitude":"48.83E"}
{"date":"2012-12-01","average_temperature":"14.702","city":"Donghai","latitude":"23.31N","longitude":"116.21E"}
{"date":"2013-01-01","average_temperature":"18.638","city":"Dongli","latitude":"20.09N","longitude":"110.90E"}
{"date":"2013-05-01","average_temperature":"20.656","city":"Dongtai","latitude":"32.95N","longitude":"119.68E"}
{"date":"2013-09-01","city":"Dos Hermanas","latitude":"37.78N","longitude":"6.10W"}
{"date":"2011-12-01","average_temperature":"8.867999999999997","city":"Downey","latitude":"34.56N","longitude":"118.70W"}
{"date":"2011-02-01","average_temperature":"25.195","city":"Dumaguete","latitude":"8.84N","longitude":"124.05E"}
{"date":"2011-03-01","average_temperature":"25.535","city":"Dumaguete","latitude":"8.84N","longitude":"124.05E"}
{"date":"2010-07-01","average_temperature":"27.374000000000002","city":"Dumai","latitude":"2.41N","longitude":"102.05E"}
{"date":"2010-03-01","average_temperature":"3.389","city":"Dundee","latitude":"57.05N","longitude":"4.43W"}
{"date":"2010-11-01","average_temperature":"1.829","city":"Dundee","latitude":"57.05N","longitude":"4.43W"}
{"date":"2012-06-01","average_temperature":"15.239","city":"Dunhua","latitude":"42.59N","longitude":"128.73E"}
{"date":"2010-02-01","average_temperature":"9.719","city":"Durrës","latitude":"40.99N","longitude":"19.17E"}
{"date":"2010-06-01","average_temperature":"20.724","city":"East Los Angeles","latitude":"34.56N","longitude":"118.70W"}
{"date":"2010-06-01","average_temperature":"19.589","city":"Ecatepec","latitude":"20.09N","longitude":"98.96W"}
{"date":"2013-01-01","average_temperature":"1.479","city":"Ede","latitude":"52.24N","longitude":"5.26E"}
{"date":"2010-07-01","average_temperature":"24.789","city":"Edison","latitude":"40.99N","longitude":"74.56W"}
{"date":"2013-08-01","average_temperature":"20.42","city":"Ensenada","latitude":"31.35N","longitude":"116.86W"}
{"date":"2010-12-01","average_temperature":"2.451","city":"Esfahan","latitude":"32.95N","longitude":"50.74E"}
{"date":"2010-04-01","average_temperature":"12.724","city":"Eslamshahr","latitude":"36.17N","longitude":"51.71E"}
{"date":"2012-09-01","average_temperature":"13.822","city":"Essen","latitude":"50.63N","longitude":"6.34E"}
{"date":"2012-09-01","average_temperature":"20.752","city":"Evansville","latitude":"37.78N","longitude":"87.46W"}
{"date":"2011-08-01","average_temperature":"19.389","city":"Fairfield","latitude":"37.78N","longitude":"122.03W"}
{"date":"2013-08-01","average_temperature":"29.25","city":"Fatehpur","latitude":"26.52N","longitude":"80.60E"}
{"date":"2011-02-01","average_temperature":"9.793","city":"Fayetteville","latitude":"34.56N","longitude":"79.78W"}
{"date":"2013-09-01","city":"Fengshan","latitude":"23.31N","longitude":"119.71E"}
{"date":"2012-01-01","average_temperature":"13.884","city":"Firozabad","latitude":"26.52N","longitude":"78.81E"}
{"date":"2011-08-01","average_temperature":"27.871","city":"Fortaleza","latitude":"4.02S","longitude":"40.98W"}
{"date":"2010-12-01","average_temperature":"23.216","city":"Francisco Morato","latitude":"23.31S","longitude":"46.31W"}
{"date":"2013-02-01","average_temperature":"23.564","city":"Francisco Morato","latitude":"23.31S","longitude":"46.31W"}
{"date":"2011-05-01","average_temperature":"31.581999999999997","city":"Funtua","latitude":"12.05N","longitude":"6.58E"}
{"date":"2011-04-01","average_temperature":"11.836","city":"Göttingen","latitude":"52.24N","longitude":"10.51E"}
{"date":"2010-02-01","average_temperature":"23.188000000000002","city":"Gandhidham","latitude":"23.31N","longitude":"70.78E"}
{"date":"2011-08-01","average_temperature":"27.802","city":"Gandhinagar","latitude":"23.31N","longitude":"72.52E"}
{"date":"2013-02-01","average_temperature":"18.573","city":"Gangapur","latitude":"26.52N","longitude":"77.01E"}
{"date":"2013-04-01","average_temperature":"29.989","city":"Gangapur","latitude":"26.52N","longitude":"77.01E"}
{"date":"2011-04-01","average_temperature":"19.698","city":"Ganzhou","latitude":"26.52N","longitude":"114.63E"}
{"date":"2012-07-01","average_temperature":"29.246","city":"Gardez","latitude":"32.95N","longitude":"69.89E"}
{"date":"2010-06-01","average_temperature":"16.828","city":"Gdansk","latitude":"53.84N","longitude":"17.73E"}
{"date":"2011-07-01","average_temperature":"18.456","city":"Gdansk","latitude":"53.84N","longitude":"17.73E"}
{"date":"2013-09-01","city":"Gdansk","latitude":"53.84N","longitude":"17.73E"}
{"date":"2012-06-01","average_temperature":"23.074","city":"Gebze","latitude":"40.99N","longitude":"29.82E"}
{"date":"2011-12-01","average_temperature":"2.779","city":"Geneva","latitude":"45.81N","longitude":"5.77E"}
{"date":"2012-11-01","average_temperature":"12.136","city":"Genoa","latitude":"44.20N","longitude":"8.94E"}
{"date":"2012-08-01","average_temperature":"18.584","city":"Gera","latitude":"50.63N","longitude":"11.41E"}
{"date":"2012-03-01","average_temperature":"7.713000000000001","city":"Glasgow","latitude":"55.45N","longitude":"2.83W"}
{"date":"2011-01-01","average_temperature":"3.263","city":"Gloucester","latitude":"52.24N","longitude":"2.63W"}
{"date":"2011-09-01","average_temperature":"26.802","city":"Godhra","latitude":"23.31N","longitude":"74.27E"}
{"date":"2013-06-01","average_temperature":"17.921999999999993","city":"Gorzow Wielkopolski","latitude":"52.24N","longitude":"15.77E"}
{"date":"2012-02-01","average_temperature":"6.8950000000000005","city":"Granada","latitude":"37.78N","longitude":"4.07W"}
{"date":"2012-11-01","average_temperature":"3.674","city":"Grand Rapids","latitude":"42.59N","longitude":"85.09W"}
{"date":"2011-10-01","average_temperature":"7.46","city":"Graz","latitude":"47.42N","longitude":"15.39E"}
{"date":"2010-01-01","average_temperature":"2.13","city":"Greensboro","latitude":"36.17N","longitude":"79.56W"}
{"date":"2012-12-01","average_temperature":"4.748","city":"Groningen","latitude":"53.84N","longitude":"6.82E"}
{"date":"2011-07-01","average_temperature":"29.947","city":"Guadalupe","latitude":"26.52N","longitude":"100.30W"}
{"date":"2010-03-01","average_temperature":"26.218000000000004","city":"Guarapari","latitude":"20.09S","longitude":"40.95W"}
{"date":"2013-08-01","average_temperature":"15.185","city":"Guarapuava","latitude":"24.92S","longitude":"51.43W"}
{"date":"2011-09-01","average_temperature":"27.034000000000002","city":"Gulbarga","latitude":"16.87N","longitude":"77.02E"}
{"date":"2013-09-01","city":"Guntakal","latitude":"15.27N","longitude":"77.50E"}
{"date":"2010-11-01","average_temperature":"27.549","city":"Gusau","latitude":"12.05N","longitude":"6.58E"}
{"date":"2011-07-01","average_temperature":"27.37","city":"Guwahati","latitude":"26.52N","longitude":"91.34E"}
{"date":"2010-04-01","average_temperature":"9.164","city":"Haarlem","latitude":"52.24N","longitude":"5.26E"}
{"date":"2011-12-01","average_temperature":"5.722","city":"Haarlemmermeer","latitude":"52.24N","longitude":"5.26E"}
{"date":"2013-02-01","average_temperature":"15.414000000000001","city":"Hafizabad","latitude":"31.35N","longitude":"73.51E"}
{"date":"2010-09-01","average_temperature":"27.36","city":"Hagonoy","latitude":"15.27N","longitude":"120.83E"}
{"date":"2013-03-01","average_temperature":"10.33","city":"Handa","latitude":"34.56N","longitude":"136.22E"}
{"date":"2011-07-01","average_temperature":"33.302","city":"Hanumangarh","latitude":"29.74N","longitude":"73.85E"}
{"date":"2010-09-01","average_temperature":"20.756999999999998","city":"Hanzhong","latitude":"32.95N","longitude":"106.28E"}
{"date":"2011-04-01","average_temperature":"21.151","city":"Harare","latitude":"18.48S","longitude":"30.42E"}
{"date":"2012-11-01","average_temperature":"23.474","city":"Harare","latitude":"18.48S","longitude":"30.42E"}
{"date":"2013-07-01","average_temperature":"24.519","city":"Hartford","latitude":"40.99N","longitude":"72.43W"}
{"date":"2012-12-01","average_temperature":"16.566","city":"Hathras","latitude":"28.13N","longitude":"77.27E"}
{"date":"2010-09-01","average_temperature":"17.794","city":"Hebi","latitude":"36.17N","longitude":"113.37E"}
{"date":"2011-09-01","average_temperature":"25.997","city":"Henderson","latitude":"36.17N","longitude":"115.36W"}
{"date":"2012-08-01","average_temperature":"30.531","city":"Henderson","latitude":"36.17N","longitude":"115.36W"}
{"date":"2012-11-01","average_temperature":"19.635","city":"Hermosillo","latitude":"29.74N","longitude":"110.77W"}
{"date":"2013-02-01","average_temperature":"13.155","city":"Hermosillo","latitude":"29.74N","longitude":"110.77W"}
{"date":"2013-07-01","average_temperature":"29.206","city":"Heze","latitude":"34.56N","longitude":"114.81E"}
{"date":"2010-04-01","average_temperature":"8.847000000000001","city":"Hildesheim","latitude":"52.24N","longitude":"10.51E"}
{"date":"2011-07-01","average_temperature":"16.602999999999998","city":"Hildesheim","latitude":"52.24N","longitude":"10.51E"}
{"date":"2010-01-01","average_temperature":"2.608","city":"Hino","latitude":"36.17N","longitude":"139.23E"}
{"date":"2013-07-01","average_temperature":"24.645000000000003","city":"Hino","latitude":"36.17N","longitude":"139.23E"}
{"date":"2013-04-01","average_temperature":"12.478000000000002","city":"Hitachi","latitude":"36.17N","longitude":"141.22E"}
{"date":"2010-12-01","average_temperature":"21.822","city":"Holguín","latitude":"20.09N","longitude":"76.78W"}
{"date":"2012-02-01","average_temperature":"25.47","city":"Holguín","latitude":"20.09N","longitude":"76.78W"}
{"date":"2012-10-01","average_temperature":"23.796","city":"Hong Gai","latitude":"21.70N","longitude":"106.44E"}
{"date":"2011-10-01","average_temperature":"18.028","city":"Honghu","latitude":"29.74N","longitude":"112.62E"}
{"date":"2012-05-01","average_temperature":"22.268","city":"Honghu","latitude":"29.74N","longitude":"112.62E"}
{"date":"2012-07-01","average_temperature":"24.1","city":"Horlivka","latitude":"49.03N","longitude":"39.18E"}
{"date":"2013-04-01","average_temperature":"6.0550000000000015","city":"Hrodna","latitude":"53.84N","longitude":"23.18E"}
{"date":"2011-04-01","average_temperature":"16.977","city":"Huaihua","latitude":"28.13N","longitude":"110.00E"}
{"date":"2012-01-01","average_temperature":"3.129","city":"Huaihua","latitude":"28.13N","longitude":"110.00E"}
{"date":"2010-07-01","average_temperature":"18.261","city":"Huambo","latitude":"13.66S","longitude":"15.69E"}
{"date":"2010-11-01","average_temperature":"8.596","city":"Huancayo","latitude":"12.05S","longitude":"75.62W"}
{"date":"2011-11-01","average_temperature":"21.02","city":"Huizhou","latitude":"23.31N","longitude":"114.47E"}
{"date":"2010-02-01","average_temperature":"-16.629","city":"Hulan","latitude":"45.81N","longitude":"125.77E"}
{"date":"2012-06-01","average_temperature":"24.565","city":"Huzhou","latitude":"31.35N","longitude":"120.63E"}
{"date":"2010-09-01","average_temperature":"15.019","city":"Iasi","latitude":"47.42N","longitude":"27.24E"}
{"date":"2010-10-01","average_temperature":"26.311999999999998","city":"Ibadan","latitude":"7.23N","longitude":"4.05E"}
{"date":"2013-01-01","average_temperature":"28.136","city":"Ibadan","latitude":"7.23N","longitude":"4.05E"}
{"date":"2013-04-01","average_temperature":"13.069","city":"Ibaraki","latitude":"34.56N","longitude":"136.22E"}
{"date":"2013-07-01","average_temperature":"26.915000000000006","city":"Ibaraki","latitude":"34.56N","longitude":"136.22E"}
{"date":"2011-01-01","average_temperature":"23.625","city":"Ibirité","latitude":"20.09S","longitude":"44.36W"}
{"date":"2011-04-01","average_temperature":"15.127","city":"Ichihara","latitude":"34.56N","longitude":"140.11E"}
{"date":"2013-03-01","average_temperature":"10.33","city":"Ichinomiya","latitude":"34.56N","longitude":"136.22E"}
{"date":"2010-09-01","average_temperature":"25.626","city":"Igboho","latitude":"8.84N","longitude":"4.05E"}
{"date":"2011-11-01","average_temperature":"26.921999999999997","city":"Ikere","latitude":"7.23N","longitude":"5.68E"}
{"date":"2010-03-01","average_temperature":"18.032","city":"Ilam","latitude":"32.95N","longitude":"46.91E"}
{"date":"2012-01-01","average_temperature":"13.8","city":"Imphal","latitude":"24.92N","longitude":"93.99E"}
{"date":"2011-05-01","average_temperature":"17.607","city":"Independence","latitude":"39.38N","longitude":"93.64W"}
{"date":"2012-03-01","average_temperature":"27.323","city":"Indramayu","latitude":"5.63S","longitude":"108.16E"}
{"date":"2010-12-01","average_temperature":"6.728","city":"Inegol","latitude":"39.38N","longitude":"29.13E"}
{"date":"2012-11-01","average_temperature":"4.612","city":"Ingolstadt","latitude":"49.03N","longitude":"12.24E"}
{"date":"2012-12-01","average_temperature":"-2.826","city":"Innsbruck","latitude":"47.42N","longitude":"10.66E"}
{"date":"2012-04-01","average_temperature":"22.191999999999997","city":"Ipatinga","latitude":"20.09S","longitude":"42.65W"}
{"date":"2011-03-01","average_temperature":"6.862","city":"Ipswich","latitude":"52.24N","longitude":"0.00W"}
{"date":"2012-03-01","average_temperature":"25.734","city":"Iquitos","latitude":"4.02S","longitude":"73.13W"}
{"date":"2010-03-01","average_temperature":"12.285","city":"Irving","latitude":"32.95N","longitude":"96.70W"}
{"date":"2010-05-01","average_temperature":"28.092","city":"Iseyin","latitude":"7.23N","longitude":"4.05E"}
{"date":"2012-11-01","average_temperature":"23.4","city":"Isiro","latitude":"2.41N","longitude":"28.13E"}
{"date":"2012-01-01","average_temperature":"10.700999999999999","city":"Islamabad","latitude":"32.95N","longitude":"73.72E"}
{"date":"2011-01-01","average_temperature":"24.914","city":"Itaguaí","latitude":"23.31S","longitude":"44.56W"}
{"date":"2011-05-01","average_temperature":"18.359","city":"Itapetininga","latitude":"23.31S","longitude":"48.06W"}
{"date":"2011-06-01","average_temperature":"16.362000000000002","city":"Itapetininga","latitude":"23.31S","longitude":"48.06W"}
{"date":"2013-07-01","average_temperature":"17.104000000000006","city":"Itapetininga","latitude":"23.31S","longitude":"48.06W"}
{"date":"2012-11-01","average_temperature":"21.97","city":"Itarsi","latitude":"23.31N","longitude":"77.77E"}
{"date":"2013-07-01","average_temperature":"18.313","city":"Ivanovo","latitude":"57.05N","longitude":"39.84E"}
{"date":"2012-10-01","average_temperature":"15.722000000000001","city":"Iwatsuki","latitude":"36.17N","longitude":"139.23E"}
{"date":"2010-03-01","average_temperature":"11.728","city":"Jaén","latitude":"37.78N","longitude":"4.07W"}
{"date":"2010-06-01","average_temperature":"20.282","city":"Jaú","latitude":"21.70S","longitude":"49.33W"}
{"date":"2011-03-01","average_temperature":"25.171","city":"Jacobabad","latitude":"28.13N","longitude":"68.18E"}
{"date":"2013-09-01","city":"Jahrom","latitude":"28.13N","longitude":"53.64E"}
{"date":"2012-05-01","average_temperature":"28.596999999999998","city":"Jalingo","latitude":"8.84N","longitude":"12.16E"}
{"date":"2010-04-01","average_temperature":"32.134","city":"Jalna","latitude":"20.09N","longitude":"75.07E"}
{"date":"2011-08-01","average_temperature":"27.812","city":"Jambi","latitude":"0.80S","longitude":"103.66E"}
{"date":"2013-08-01","average_temperature":"18.215","city":"Jandira","latitude":"23.31S","longitude":"46.31W"}
{"date":"2013-05-01","average_temperature":"33.315999999999995","city":"Jaunpur","latitude":"26.52N","longitude":"82.39E"}
{"date":"2011-04-01","average_temperature":"27.118000000000002","city":"Jember","latitude":"8.84S","longitude":"114.32E"}
{"date":"2011-05-01","average_temperature":"27.176","city":"Jember","latitude":"8.84S","longitude":"114.32E"}
{"date":"2011-10-01","average_temperature":"28.21","city":"Jetpur","latitude":"21.70N","longitude":"70.10E"}
{"date":"2012-09-01","average_temperature":"27.639","city":"Jetpur","latitude":"21.70N","longitude":"70.10E"}
{"date":"2013-07-01","average_temperature":"22.236","city":"Jiamusi","latitude":"47.42N","longitude":"131.45E"}
{"date":"2010-06-01","average_temperature":"25.888","city":"Jiaozuo","latitude":"34.56N","longitude":"112.86E"}
{"date":"2012-06-01","average_temperature":"26.465999999999998","city":"Jiaozuo","latitude":"34.56N","longitude":"112.86E"}
{"date":"2011-12-01","average_temperature":"5.606","city":"Jiaxing","latitude":"31.35N","longitude":"120.63E"}
{"date":"2011-06-01","average_temperature":"13.44","city":"Jiayuguan","latitude":"39.38N","longitude":"97.80E"}
{"date":"2012-09-01","average_temperature":"25.632","city":"Jimeta","latitude":"8.84N","longitude":"12.16E"}
{"date":"2010-11-01","average_temperature":"-5.023","city":"Jishu","latitude":"44.20N","longitude":"127.45E"}
{"date":"2010-02-01","average_temperature":"3.3480000000000003","city":"Joetsu","latitude":"37.78N","longitude":"138.31E"}
{"date":"2010-04-01","average_temperature":"9.02","city":"Joetsu","latitude":"37.78N","longitude":"138.31E"}
{"date":"2013-02-01","average_temperature":"26.563","city":"Johor Bahru","latitude":"0.80N","longitude":"103.66E"}
{"date":"2011-03-01","average_temperature":"23.651","city":"Joinville","latitude":"26.52S","longitude":"48.36W"}
{"date":"2012-06-01","average_temperature":"27.218000000000004","city":"Jombang","latitude":"7.23S","longitude":"112.70E"}
{"date":"2012-05-01","average_temperature":"3.941","city":"Juliaca","latitude":"15.27S","longitude":"70.83W"}
{"date":"2012-03-01","average_temperature":"22.254","city":"Kadoma","latitude":"18.48S","longitude":"30.42E"}
{"date":"2010-03-01","average_temperature":"29.593","city":"Kalol","latitude":"23.31N","longitude":"72.52E"}
{"date":"2010-12-01","average_temperature":"-14.075","city":"Kamensk Uralskiy","latitude":"55.45N","longitude":"62.36E"}
{"date":"2012-09-01","average_temperature":"29.956","city":"Kamoke","latitude":"31.35N","longitude":"73.51E"}
{"date":"2012-06-01","average_temperature":"31.891","city":"Karachi","latitude":"24.92N","longitude":"67.39E"}
{"date":"2010-07-01","average_temperature":"25.156999999999996","city":"Karamay","latitude":"45.81N","longitude":"84.23E"}
{"date":"2013-09-01","city":"Karamay","latitude":"45.81N","longitude":"84.23E"}
{"date":"2011-04-01","average_temperature":"12.548","city":"Kashihara","latitude":"34.56N","longitude":"136.22E"}
{"date":"2012-04-01","average_temperature":"13.708","city":"Kawanishi","latitude":"34.56N","longitude":"136.22E"}
{"date":"2011-08-01","average_temperature":"25.978","city":"Kebumen","latitude":"7.23S","longitude":"109.46E"}
{"date":"2012-02-01","average_temperature":"26.585","city":"Kebumen","latitude":"7.23S","longitude":"109.46E"}
{"date":"2012-05-01","average_temperature":"27.262","city":"Kemang","latitude":"7.23S","longitude":"106.22E"}
{"date":"2012-12-01","average_temperature":"27.872","city":"Kendari","latitude":"4.02S","longitude":"122.95E"}
{"date":"2010-02-01","average_temperature":"6.087999999999999","city":"Kermanshah","latitude":"34.56N","longitude":"46.70E"}
{"date":"2012-01-01","average_temperature":"20.305","city":"Kharagpur","latitude":"21.70N","longitude":"87.40E"}
{"date":"2010-03-01","average_temperature":"5.9510000000000005","city":"Khoy","latitude":"37.78N","longitude":"44.75E"}
{"date":"2010-10-01","average_temperature":"28.201","city":"Khulna","latitude":"23.31N","longitude":"90.00E"}
{"date":"2010-07-01","average_temperature":"21.27","city":"Kielce","latitude":"50.63N","longitude":"21.55E"}
{"date":"2013-06-01","average_temperature":"10.915","city":"Kimberley","latitude":"28.13S","longitude":"24.55E"}
{"date":"2012-03-01","average_temperature":"5.617000000000001","city":"Kiryu","latitude":"36.17N","longitude":"139.23E"}
{"date":"2010-04-01","average_temperature":"13.765","city":"Kisarazu","latitude":"34.56N","longitude":"140.11E"}
{"date":"2013-08-01","average_temperature":"26.998","city":"Kluang","latitude":"2.41N","longitude":"103.66E"}
{"date":"2013-06-01","average_temperature":"25.500999999999998","city":"Koidu","latitude":"8.84N","longitude":"10.54W"}
{"date":"2010-06-01","average_temperature":"21.521","city":"Kokubunji","latitude":"36.17N","longitude":"139.23E"}
{"date":"2011-03-01","average_temperature":"28.878","city":"Kollam","latitude":"8.84N","longitude":"77.03E"}
{"date":"2012-05-01","average_temperature":"28.489","city":"Kollam","latitude":"8.84N","longitude":"77.03E"}
{"date":"2010-09-01","average_temperature":"11.668","city":"Kolpino","latitude":"60.27N","longitude":"29.19E"}
{"date":"2010-10-01","average_temperature":"15.366","city":"Komatsu","latitude":"36.17N","longitude":"137.24E"}
{"date":"2010-05-01","average_temperature":"16.454","city":"Konya","latitude":"37.78N","longitude":"32.54E"}
{"date":"2013-01-01","average_temperature":"-0.611","city":"Koriyama","latitude":"37.78N","longitude":"140.34E"}
{"date":"2011-03-01","average_temperature":"26.12","city":"Kuantan","latitude":"4.02N","longitude":"103.66E"}
{"date":"2011-10-01","average_temperature":"26.71","city":"Kuantan","latitude":"4.02N","longitude":"103.66E"}
{"date":"2011-10-01","average_temperature":"27.427","city":"Kulim","latitude":"5.63N","longitude":"100.09E"}
{"date":"2012-11-01","average_temperature":"27.627","city":"Kumasi","latitude":"7.23N","longitude":"0.81W"}
{"date":"2011-05-01","average_temperature":"18.11","city":"Kuwana","latitude":"34.56N","longitude":"136.22E"}
{"date":"2012-02-01","average_temperature":"24.218000000000004","city":"La Plata","latitude":"34.56S","longitude":"58.38W"}
{"date":"2012-05-01","average_temperature":"27.859","city":"Lafiagi","latitude":"8.84N","longitude":"5.68E"}
{"date":"2010-03-01","average_temperature":"22.438000000000002","city":"Lages","latitude":"28.13S","longitude":"50.00W"}
{"date":"2010-02-01","average_temperature":"28.792","city":"Lagos","latitude":"5.63N","longitude":"3.23E"}
{"date":"2010-04-01","average_temperature":"30.534000000000002","city":"Lahore","latitude":"31.35N","longitude":"73.51E"}
{"date":"2011-05-01","average_temperature":"33.21","city":"Lakhnau","latitude":"26.52N","longitude":"80.60E"}
{"date":"2011-06-01","average_temperature":"19.339000000000002","city":"Lancaster","latitude":"34.56N","longitude":"118.70W"}
{"date":"2012-09-01","average_temperature":"24.745","city":"Lancaster","latitude":"34.56N","longitude":"118.70W"}
{"date":"2013-04-01","average_temperature":"29.459000000000003","city":"Lapu Lapu","latitude":"10.45N","longitude":"123.55E"}
{"date":"2011-05-01","average_temperature":"18.853","city":"Las Vegas","latitude":"36.17N","longitude":"115.36W"}
{"date":"2012-05-01","average_temperature":"13.682","city":"Le Havre","latitude":"49.03N","longitude":"0.00W"}
{"date":"2010-04-01","average_temperature":"9.292","city":"Leicester","latitude":"52.24N","longitude":"0.00W"}
{"date":"2010-06-01","average_temperature":"16.13","city":"Leicester","latitude":"52.24N","longitude":"0.00W"}
{"date":"2011-04-01","average_temperature":"18.616","city":"Leiyang","latitude":"26.52N","longitude":"112.84E"}
{"date":"2013-01-01","average_temperature":"4.73","city":"Lengshuijiang","latitude":"28.13N","longitude":"111.82E"}
{"date":"2013-07-01","average_temperature":"17.584","city":"Leninsk Kuznetskiy","latitude":"53.84N","longitude":"85.91E"}
{"date":"2010-07-01","average_temperature":"20.56","city":"Liège","latitude":"50.63N","longitude":"6.34E"}
{"date":"2012-06-01","average_temperature":"15.101","city":"Liège","latitude":"50.63N","longitude":"6.34E"}
{"date":"2012-11-01","average_temperature":"26.447","city":"Libreville","latitude":"0.80N","longitude":"8.84E"}
{"date":"2013-03-01","average_temperature":"19.825","city":"Licheng","latitude":"23.31N","longitude":"114.47E"}
{"date":"2010-02-01","average_temperature":"-0.7150000000000001","city":"Linshui","latitude":"36.17N","longitude":"113.37E"}
{"date":"2010-07-01","average_temperature":"25.230999999999998","city":"Linshui","latitude":"36.17N","longitude":"113.37E"}
{"date":"2011-06-01","average_temperature":"23.777","city":"Linxi","latitude":"39.38N","longitude":"118.61E"}
{"date":"2013-02-01","average_temperature":"-4.921","city":"Lipetsk","latitude":"52.24N","longitude":"39.42E"}
{"date":"2011-12-01","average_temperature":"8.543","city":"Lleida","latitude":"40.99N","longitude":"0.00W"}
{"date":"2013-04-01","average_temperature":"22.290000000000006","city":"Londrina","latitude":"23.31S","longitude":"51.55W"}
{"date":"2013-02-01","average_temperature":"-13.760000000000002","city":"Longjing","latitude":"42.59N","longitude":"128.73E"}
{"date":"2012-05-01","average_temperature":"34.448","city":"Loni","latitude":"28.13N","longitude":"77.27E"}
{"date":"2011-09-01","average_temperature":"22.92","city":"Loum","latitude":"5.63N","longitude":"9.69E"}
{"date":"2011-04-01","average_temperature":"14.21","city":"Luancheng","latitude":"37.78N","longitude":"113.90E"}
{"date":"2012-09-01","average_temperature":"27.61","city":"Lucena","latitude":"13.66N","longitude":"121.38E"}
{"date":"2011-08-01","average_temperature":"19.002","city":"Ludwigshafen","latitude":"49.03N","longitude":"7.35E"}
{"date":"2011-06-01","average_temperature":"28.231","city":"Luoyang","latitude":"23.31N","longitude":"114.47E"}
{"date":"2013-06-01","average_temperature":"28.005","city":"Luoyang","latitude":"23.31N","longitude":"114.47E"}
{"date":"2010-11-01","average_temperature":"24.581999999999997","city":"Lusaka","latitude":"15.27S","longitude":"27.50E"}
{"date":"2011-07-01","average_temperature":"15.876","city":"Lusaka","latitude":"15.27S","longitude":"27.50E"}
{"date":"2012-09-01","average_temperature":"22.629","city":"Lusaka","latitude":"15.27S","longitude":"27.50E"}
{"date":"2011-10-01","average_temperature":"12.774","city":"Luton","latitude":"52.24N","longitude":"0.00W"}
{"date":"2010-07-01","average_temperature":"20.56","city":"Mönchengladbach","latitude":"50.63N","longitude":"6.34E"}
{"date":"2011-04-01","average_temperature":"12.726","city":"Mönchengladbach","latitude":"50.63N","longitude":"6.34E"}
{"date":"2013-07-01","average_temperature":"18.711","city":"Macaé","latitude":"21.70S","longitude":"42.40W"}
{"date":"2013-08-01","average_temperature":"29.539","city":"Madhyamgram","latitude":"23.31N","longitude":"88.25E"}
{"date":"2012-08-01","average_temperature":"24.778000000000002","city":"Makhachkala","latitude":"42.59N","longitude":"48.00E"}
{"date":"2010-04-01","average_temperature":"10.536","city":"Makiyivka","latitude":"47.42N","longitude":"39.08E"}
{"date":"2010-06-01","average_temperature":"14.173","city":"Malmö","latitude":"55.45N","longitude":"14.17E"}
{"date":"2010-02-01","average_temperature":"27.211","city":"Man","latitude":"7.23N","longitude":"7.30W"}
{"date":"2012-02-01","average_temperature":"26.434","city":"Managua","latitude":"12.05N","longitude":"85.48W"}
{"date":"2012-02-01","average_temperature":"-0.3630000000000004","city":"Manchester","latitude":"42.59N","longitude":"72.00W"}
{"date":"2012-07-01","average_temperature":"22.683000000000003","city":"Manchester","latitude":"42.59N","longitude":"72.00W"}
{"date":"2013-04-01","average_temperature":"29.956000000000003","city":"Mandsaur","latitude":"24.92N","longitude":"74.48E"}
{"date":"2012-06-01","average_temperature":"16.538","city":"Mannheim","latitude":"49.03N","longitude":"7.35E"}
{"date":"2013-09-01","city":"Marília","latitude":"21.70S","longitude":"49.33W"}
{"date":"2012-08-01","average_temperature":"13.019","city":"Mar Del Plata","latitude":"37.78S","longitude":"56.95W"}
{"date":"2011-03-01","average_temperature":"26.711","city":"Maracanaú","latitude":"4.02S","longitude":"39.38W"}
{"date":"2011-05-01","average_temperature":"26.471999999999998","city":"Maracanaú","latitude":"4.02S","longitude":"39.38W"}
{"date":"2011-08-01","average_temperature":"27.224","city":"Maracay","latitude":"10.45N","longitude":"67.91W"}
{"date":"2012-01-01","average_temperature":"25.033","city":"Maracay","latitude":"10.45N","longitude":"67.91W"}
{"date":"2011-10-01","average_temperature":"11.168","city":"Maragheh","latitude":"37.78N","longitude":"46.78E"}
{"date":"2012-03-01","average_temperature":"9.769","city":"Marv Dasht","latitude":"29.74N","longitude":"53.54E"}
{"date":"2011-05-01","average_temperature":"28.6","city":"Masaya","latitude":"12.05N","longitude":"85.48W"}
{"date":"2012-04-01","average_temperature":"29.340999999999998","city":"Mathura","latitude":"28.13N","longitude":"77.27E"}
{"date":"2013-04-01","average_temperature":"11.31","city":"Matsudo","latitude":"36.17N","longitude":"139.23E"}
{"date":"2012-03-01","average_temperature":"28.787","city":"Mawlamyine","latitude":"16.87N","longitude":"97.12E"}
{"date":"2010-09-01","average_temperature":"19.738000000000003","city":"Maykop","latitude":"44.20N","longitude":"40.25E"}
{"date":"2010-08-01","average_temperature":"33.910000000000004","city":"Mecca","latitude":"21.70N","longitude":"40.67E"}
{"date":"2011-02-01","average_temperature":"26.713","city":"Medan","latitude":"4.02N","longitude":"98.84E"}
{"date":"2012-11-01","average_temperature":"27.341","city":"Meiktila","latitude":"20.09N","longitude":"95.55E"}
{"date":"2013-04-01","average_temperature":"23.45","city":"Meilu","latitude":"21.70N","longitude":"109.90E"}
{"date":"2013-04-01","average_temperature":"27.956999999999997","city":"Melaka","latitude":"2.41N","longitude":"102.05E"}
{"date":"2012-02-01","average_temperature":"25.141","city":"Mendoza","latitude":"32.95S","longitude":"67.98W"}
{"date":"2012-10-01","average_temperature":"18.671","city":"Mercedes","latitude":"32.95S","longitude":"66.06W"}
{"date":"2012-06-01","average_temperature":"31.494","city":"Mesa","latitude":"32.95N","longitude":"112.02W"}
{"date":"2013-05-01","average_temperature":"25.926","city":"Mesa","latitude":"32.95N","longitude":"112.02W"}
{"date":"2010-04-01","average_temperature":"21.005","city":"Metairie","latitude":"29.74N","longitude":"90.46W"}
{"date":"2013-05-01","average_temperature":"33.783","city":"Mirpur Khas","latitude":"24.92N","longitude":"69.16E"}
{"date":"2011-12-01","average_temperature":"3.25","city":"Misato","latitude":"36.17N","longitude":"139.23E"}
{"date":"2010-02-01","average_temperature":"19.108","city":"Mixco","latitude":"15.27N","longitude":"90.83W"}
{"date":"2010-10-01","average_temperature":"26.311999999999998","city":"Modakeke","latitude":"7.23N","longitude":"4.05E"}
{"date":"2011-08-01","average_temperature":"24.305","city":"Modena","latitude":"44.20N","longitude":"11.18E"}
{"date":"2012-10-01","average_temperature":"26.323","city":"Mombasa","latitude":"4.02S","longitude":"39.38E"}
{"date":"2011-10-01","average_temperature":"27.276","city":"Montería","latitude":"8.84N","longitude":"75.41W"}
{"date":"2011-03-01","average_temperature":"6.9849999999999985","city":"Moriguchi","latitude":"34.56N","longitude":"136.22E"}
{"date":"2013-01-01","average_temperature":"-3.4019999999999997","city":"Munich","latitude":"47.42N","longitude":"10.66E"}
{"date":"2010-12-01","average_temperature":"21.168000000000003","city":"Mutare","latitude":"18.48S","longitude":"32.11E"}
{"date":"2011-01-01","average_temperature":"11.997","city":"Muzaffarnagar","latitude":"29.74N","longitude":"77.54E"}
{"date":"2010-02-01","average_temperature":"18.901","city":"Muzaffarpur","latitude":"26.52N","longitude":"85.97E"}
{"date":"2011-08-01","average_temperature":"27.376","city":"Nagoya","latitude":"34.56N","longitude":"136.22E"}
{"date":"2013-04-01","average_temperature":"13.069","city":"Nagoya","latitude":"34.56N","longitude":"136.22E"}
{"date":"2012-12-01","average_temperature":"19.621","city":"Naihati","latitude":"23.31N","longitude":"88.25E"}
{"date":"2011-09-01","average_temperature":"27.87","city":"Nakhon Pathom","latitude":"13.66N","longitude":"99.91E"}
{"date":"2012-07-01","average_temperature":"28.606","city":"Nakhon Ratchasima","latitude":"15.27N","longitude":"102.50E"}
{"date":"2012-12-01","average_temperature":"-4.142","city":"Namangan","latitude":"40.99N","longitude":"72.43E"}
{"date":"2013-06-01","average_temperature":"22.861","city":"Namangan","latitude":"40.99N","longitude":"72.43E"}
{"date":"2012-10-01","average_temperature":"10.984000000000002","city":"Namur","latitude":"50.63N","longitude":"3.80E"}
{"date":"2010-11-01","average_temperature":"21.756999999999998","city":"Nangloi Jat","latitude":"28.13N","longitude":"77.27E"}
{"date":"2010-02-01","average_temperature":"6.567","city":"Nanjing","latitude":"31.35N","longitude":"118.74E"}
{"date":"2013-02-01","average_temperature":"16.901","city":"Nanning","latitude":"23.31N","longitude":"107.48E"}
{"date":"2011-10-01","average_temperature":"28.154","city":"Narsingdi","latitude":"23.31N","longitude":"90.00E"}
{"date":"2010-03-01","average_temperature":"28.634","city":"Natal","latitude":"5.63S","longitude":"35.52W"}
{"date":"2013-06-01","average_temperature":"30.469","city":"Nawabganj","latitude":"24.92N","longitude":"88.67E"}
{"date":"2010-07-01","average_temperature":"34.395","city":"Nawabshah","latitude":"26.52N","longitude":"68.06E"}
{"date":"2011-09-01","average_temperature":"19.301","city":"Newark","latitude":"40.99N","longitude":"74.56W"}
{"date":"2010-01-01","average_temperature":"0.08800000000000008","city":"Newcastle Upon Tyne","latitude":"55.45N","longitude":"2.83W"}
{"date":"2012-01-01","average_temperature":"5.2139999999999995","city":"Newport","latitude":"52.24N","longitude":"2.63W"}
{"date":"2011-01-01","average_temperature":"0.6829999999999999","city":"Newport News","latitude":"37.78N","longitude":"77.29W"}
{"date":"2012-03-01","average_temperature":"16.609","city":"Nezahualcóyotl","latitude":"20.09N","longitude":"98.96W"}
{"date":"2012-07-01","average_temperature":"21.58","city":"Ngaoundéré","latitude":"7.23N","longitude":"13.78E"}
{"date":"2012-08-01","average_temperature":"28.147","city":"Ningbo","latitude":"29.74N","longitude":"121.85E"}
{"date":"2011-10-01","average_temperature":"3.786000000000001","city":"Nizhnevartovsk","latitude":"60.27N","longitude":"77.84E"}
{"date":"2011-09-01","average_temperature":"25.4","city":"Nogales","latitude":"31.35N","longitude":"111.20W"}
{"date":"2010-05-01","average_temperature":"18.696","city":"North Las Vegas","latitude":"36.17N","longitude":"115.36W"}
{"date":"2010-03-01","average_temperature":"12.437000000000001","city":"Norwalk","latitude":"34.56N","longitude":"118.70W"}
{"date":"2012-07-01","average_temperature":"15.168","city":"Nottingham","latitude":"53.84N","longitude":"1.36W"}
{"date":"2012-04-01","average_temperature":"6.17","city":"Novokuznetsk","latitude":"53.84N","longitude":"85.91E"}
{"date":"2013-09-01","city":"Novokuznetsk","latitude":"53.84N","longitude":"85.91E"}
{"date":"2012-02-01","average_temperature":"15.327","city":"Nuevo Laredo","latitude":"28.13N","longitude":"99.09W"}
{"date":"2010-10-01","average_temperature":"12.618","city":"Nukus","latitude":"42.59N","longitude":"58.91E"}
{"date":"2010-10-01","average_temperature":"11.477","city":"Obihiro","latitude":"42.59N","longitude":"144.00E"}
{"date":"2012-07-01","average_temperature":"20.000999999999998","city":"Obninsk","latitude":"55.45N","longitude":"36.85E"}
{"date":"2013-09-01","city":"Obosi","latitude":"5.63N","longitude":"6.46E"}
{"date":"2012-09-01","average_temperature":"30.009","city":"Obregon","latitude":"28.13N","longitude":"110.00W"}
{"date":"2010-02-01","average_temperature":"26.105","city":"Ocumare Del Tuy","latitude":"10.45N","longitude":"66.27W"}
{"date":"2010-01-01","average_temperature":"2.608","city":"Odawara","latitude":"36.17N","longitude":"139.23E"}
{"date":"2011-10-01","average_temperature":"15.488","city":"Odawara","latitude":"36.17N","longitude":"139.23E"}
{"date":"2011-12-01","average_temperature":"-0.8680000000000003","city":"Odintsovo","latitude":"55.45N","longitude":"36.85E"}
{"date":"2012-08-01","average_temperature":"17.395","city":"Odintsovo","latitude":"55.45N","longitude":"36.85E"}
{"date":"2011-08-01","average_temperature":"17.472","city":"Oktyabrskiy","latitude":"53.84N","longitude":"53.18E"}
{"date":"2010-04-01","average_temperature":"9.498","city":"Oldenburg","latitude":"52.24N","longitude":"7.88E"}
{"date":"2010-01-01","average_temperature":"2.608","city":"Ome","latitude":"36.17N","longitude":"139.23E"}
{"date":"2011-07-01","average_temperature":"19.447","city":"Orange","latitude":"32.95N","longitude":"117.77W"}
{"date":"2011-01-01","average_temperature":"5.531000000000001","city":"Ordu","latitude":"40.99N","longitude":"38.34E"}
{"date":"2013-01-01","average_temperature":"27.628","city":"Oron","latitude":"5.63N","longitude":"8.07E"}
{"date":"2012-11-01","average_temperature":"12.303","city":"Oruro","latitude":"18.48S","longitude":"67.61W"}
{"date":"2011-07-01","average_temperature":"19.679000000000002","city":"Otaru","latitude":"42.59N","longitude":"141.82E"}
{"date":"2010-03-01","average_temperature":"7.616","city":"Oviedo","latitude":"42.59N","longitude":"6.55W"}
{"date":"2010-06-01","average_temperature":"20.724","city":"Oxnard","latitude":"34.56N","longitude":"118.70W"}
{"date":"2010-07-01","average_temperature":"17.668","city":"Pachuca","latitude":"20.09N","longitude":"98.96W"}
{"date":"2011-06-01","average_temperature":"25.885","city":"Padang","latitude":"0.80S","longitude":"100.45E"}
{"date":"2011-07-01","average_temperature":"26.893","city":"Pagadian","latitude":"7.23N","longitude":"124.05E"}
{"date":"2011-05-01","average_temperature":"20.49","city":"Palhoça","latitude":"28.13S","longitude":"48.18W"}
{"date":"2011-02-01","average_temperature":"26.006","city":"Pallavaram","latitude":"13.66N","longitude":"80.09E"}
{"date":"2010-07-01","average_temperature":"26.337","city":"Palma","latitude":"39.38N","longitude":"2.08E"}
{"date":"2010-05-01","average_temperature":"28.304000000000002","city":"Palma Soriano","latitude":"20.09N","longitude":"76.78W"}
{"date":"2010-08-01","average_temperature":"26.276","city":"Palu","latitude":"0.80S","longitude":"119.73E"}
{"date":"2013-04-01","average_temperature":"27.62","city":"Pamanukan","latitude":"5.63S","longitude":"108.16E"}
{"date":"2010-04-01","average_temperature":"28.607","city":"Pamulang","latitude":"5.63S","longitude":"106.55E"}
{"date":"2012-03-01","average_temperature":"13.005","city":"Paradise","latitude":"36.17N","longitude":"115.36W"}
{"date":"2010-09-01","average_temperature":"25.296","city":"Parakou","latitude":"8.84N","longitude":"2.43E"}
{"date":"2010-05-01","average_temperature":"27.469","city":"Parnamirim","latitude":"5.63S","longitude":"35.52W"}
{"date":"2010-06-01","average_temperature":"27.388","city":"Parung","latitude":"5.63S","longitude":"106.55E"}
{"date":"2012-05-01","average_temperature":"28.129","city":"Parung","latitude":"5.63S","longitude":"106.55E"}
{"date":"2013-04-01","average_temperature":"27.642","city":"Pasarkemis","latitude":"5.63S","longitude":"106.55E"}
{"date":"2012-04-01","average_temperature":"27.278","city":"Pasir Gudang","latitude":"0.80N","longitude":"103.66E"}
{"date":"2012-07-01","average_temperature":"27.445","city":"Pasir Gudang","latitude":"0.80N","longitude":"103.66E"}
{"date":"2010-01-01","average_temperature":"26.294","city":"Pathein","latitude":"16.87N","longitude":"95.44E"}
{"date":"2013-01-01","average_temperature":"12.57","city":"Patiala","latitude":"29.74N","longitude":"75.69E"}
{"date":"2011-12-01","average_temperature":"22.503","city":"Patos De Minas","latitude":"18.48S","longitude":"47.32W"}
{"date":"2013-09-01","city":"Paulista","latitude":"7.23S","longitude":"34.86W"}
{"date":"2012-12-01","average_temperature":"26.736","city":"Pekalongan","latitude":"7.23S","longitude":"109.46E"}
{"date":"2013-06-01","average_temperature":"26.935","city":"Pekalongan","latitude":"7.23S","longitude":"109.46E"}
{"date":"2013-04-01","average_temperature":"16.953","city":"Peristérion","latitude":"37.78N","longitude":"24.41E"}
{"date":"2013-04-01","average_temperature":"4.248","city":"Pervouralsk","latitude":"57.05N","longitude":"60.49E"}
{"date":"2010-06-01","average_temperature":"21.694000000000003","city":"Pescara","latitude":"42.59N","longitude":"15.27E"}
{"date":"2011-01-01","average_temperature":"27.229","city":"Petrópolis","latitude":"23.31S","longitude":"42.82W"}
{"date":"2013-02-01","average_temperature":"24.594","city":"Phalaborwa","latitude":"23.31S","longitude":"30.58E"}
{"date":"2012-01-01","average_temperature":"26.636999999999997","city":"Phan Thiet","latitude":"10.45N","longitude":"107.18E"}
{"date":"2011-10-01","average_temperature":"23.299","city":"Phoenix","latitude":"32.95N","longitude":"112.02W"}
{"date":"2012-08-01","average_temperature":"21.99","city":"Piatra Neamt","latitude":"47.42N","longitude":"27.24E"}
{"date":"2012-01-01","average_temperature":"23.864","city":"Pindiga","latitude":"10.45N","longitude":"10.64E"}
{"date":"2011-08-01","average_temperature":"28.915","city":"Pingtung","latitude":"23.31N","longitude":"119.71E"}
{"date":"2012-07-01","average_temperature":"19.22","city":"Plzen","latitude":"50.63N","longitude":"13.94E"}
{"date":"2013-08-01","average_temperature":"21.541","city":"Pokhara","latitude":"28.13N","longitude":"84.55E"}
{"date":"2012-07-01","average_temperature":"14.093","city":"Ponta Grossa","latitude":"24.92S","longitude":"49.66W"}
{"date":"2013-04-01","average_temperature":"29.603","city":"Port Blair","latitude":"12.05N","longitude":"92.05E"}
{"date":"2012-04-01","average_temperature":"27.78","city":"Port Harcourt","latitude":"4.02N","longitude":"7.23E"}
{"date":"2013-03-01","average_temperature":"19.041","city":"Port Said","latitude":"31.35N","longitude":"32.04E"}
{"date":"2011-11-01","average_temperature":"22.369","city":"Port Saint Lucie","latitude":"26.52N","longitude":"80.60W"}
{"date":"2012-07-01","average_temperature":"19.22","city":"Prague","latitude":"50.63N","longitude":"13.94E"}
{"date":"2010-02-01","average_temperature":"27.006999999999998","city":"Pringsewu","latitude":"5.63S","longitude":"104.93E"}
{"date":"2010-05-01","average_temperature":"15.417","city":"Prizren","latitude":"42.59N","longitude":"21.82E"}
{"date":"2013-06-01","average_temperature":"31.476","city":"Proddatur","latitude":"15.27N","longitude":"79.17E"}
{"date":"2013-05-01","average_temperature":"14.309","city":"Providence","latitude":"42.59N","longitude":"72.00W"}
{"date":"2011-08-01","average_temperature":"17.195999999999998","city":"Pskov","latitude":"57.05N","longitude":"28.03E"}
{"date":"2010-11-01","average_temperature":"26.743000000000002","city":"Pucallpa","latitude":"8.84S","longitude":"73.78W"}
{"date":"2013-03-01","average_temperature":"10.802999999999999","city":"Puerto Montt","latitude":"40.99S","longitude":"72.43W"}
{"date":"2011-12-01","average_temperature":"6.678","city":"Puno","latitude":"15.27S","longitude":"70.83W"}
{"date":"2013-06-01","average_temperature":"2.309","city":"Puno","latitude":"15.27S","longitude":"70.83W"}
{"date":"2010-11-01","average_temperature":"27.853","city":"Punto Fijo","latitude":"12.05N","longitude":"70.68W"}
{"date":"2010-03-01","average_temperature":"11.515999999999998","city":"Puqi","latitude":"29.74N","longitude":"114.46E"}
{"date":"2011-01-01","average_temperature":"24.927","city":"Purwakarta","latitude":"7.23S","longitude":"107.84E"}
{"date":"2012-04-01","average_temperature":"30.231","city":"Pyay","latitude":"18.48N","longitude":"94.65E"}
{"date":"2011-04-01","average_temperature":"19.969","city":"Qabis","latitude":"34.56N","longitude":"9.73E"}
{"date":"2011-06-01","average_temperature":"26.737","city":"Qabis","latitude":"34.56N","longitude":"9.73E"}
{"date":"2012-11-01","average_temperature":"19.45","city":"Queenstown","latitude":"31.35S","longitude":"26.39E"}
{"date":"2013-02-01","average_temperature":"27.928","city":"Quelimane","latitude":"18.48S","longitude":"37.18E"}
{"date":"2011-08-01","average_temperature":"21.153000000000002","city":"Quetzaltenango","latitude":"15.27N","longitude":"90.83W"}
{"date":"2010-03-01","average_temperature":"23.756999999999998","city":"Quevedo","latitude":"0.80S","longitude":"79.55W"}
{"date":"2010-07-01","average_temperature":"10.555","city":"Quilpue","latitude":"32.95S","longitude":"71.81W"}
{"date":"2011-10-01","average_temperature":"17.585","city":"Quito","latitude":"0.80S","longitude":"77.95W"}
{"date":"2010-02-01","average_temperature":"-0.0060000000000000045","city":"Qunduz","latitude":"36.17N","longitude":"69.61E"}
{"date":"2010-12-01","average_temperature":"22.546999999999997","city":"Raichur","latitude":"16.87N","longitude":"77.02E"}
{"date":"2010-03-01","average_temperature":"29.845","city":"Raipur","latitude":"21.70N","longitude":"82.21E"}
{"date":"2011-08-01","average_temperature":"28.627","city":"Rajamahendri","latitude":"16.87N","longitude":"82.05E"}
{"date":"2011-01-01","average_temperature":"20.244","city":"Rajkot","latitude":"21.70N","longitude":"70.10E"}
{"date":"2011-11-01","average_temperature":"11.169","city":"Raleigh","latitude":"36.17N","longitude":"79.56W"}
{"date":"2012-12-01","average_temperature":"21.840999999999998","city":"Randfontein","latitude":"26.52S","longitude":"26.87E"}
{"date":"2010-08-01","average_temperature":"29.0","city":"Rawalpindi","latitude":"32.95N","longitude":"73.72E"}
{"date":"2012-09-01","average_temperature":"27.883000000000006","city":"Rawalpindi","latitude":"32.95N","longitude":"73.72E"}
{"date":"2013-08-01","average_temperature":"28.687","city":"Rayong","latitude":"12.05N","longitude":"101.92E"}
{"date":"2013-06-01","average_temperature":"16.505","city":"Reims","latitude":"49.03N","longitude":"4.90E"}
{"date":"2011-02-01","average_temperature":"18.136","city":"Rewari","latitude":"28.13N","longitude":"77.27E"}
{"date":"2011-06-01","average_temperature":"32.96700000000001","city":"Rewari","latitude":"28.13N","longitude":"77.27E"}
{"date":"2012-10-01","average_temperature":"17.294999999999998","city":"Richmond","latitude":"37.78N","longitude":"122.03W"}
{"date":"2012-03-01","average_temperature":"2.9589999999999996","city":"Rivne","latitude":"50.63N","longitude":"26.62E"}
{"date":"2010-12-01","average_temperature":"15.380999999999998","city":"Riyadh","latitude":"24.92N","longitude":"46.11E"}
{"date":"2012-10-01","average_temperature":"15.557","city":"Rizhao","latitude":"36.17N","longitude":"119.34E"}
{"date":"2011-09-01","average_temperature":"20.989","city":"Rome","latitude":"42.59N","longitude":"13.09E"}
{"date":"2012-12-01","average_temperature":"4.15","city":"Rome","latitude":"42.59N","longitude":"13.09E"}
{"date":"2010-11-01","average_temperature":"28.14","city":"Roxas","latitude":"12.05N","longitude":"123.29E"}
{"date":"2013-03-01","average_temperature":"-4.651","city":"Rubtsovsk","latitude":"52.24N","longitude":"81.46E"}
{"date":"2011-02-01","average_temperature":"-1.401","city":"Ruse","latitude":"44.20N","longitude":"26.83E"}
{"date":"2011-09-01","average_temperature":"19.023","city":"São Caetano Do Sul","latitude":"23.31S","longitude":"46.31W"}
{"date":"2010-07-01","average_temperature":"27.035","city":"Sabratah","latitude":"32.95N","longitude":"12.45E"}
{"date":"2011-02-01","average_temperature":"17.977","city":"Sadiqabad","latitude":"28.13N","longitude":"70.00E"}
{"date":"2012-09-01","average_temperature":"14.661","city":"Saint Étienne","latitude":"45.81N","longitude":"3.46E"}
{"date":"2010-03-01","average_temperature":"-6.296","city":"Salavat","latitude":"53.84N","longitude":"55.91E"}
{"date":"2013-02-01","average_temperature":"17.964000000000002","city":"Sambhal","latitude":"28.13N","longitude":"79.09E"}
{"date":"2011-08-01","average_temperature":"22.197000000000006","city":"Samsun","latitude":"40.99N","longitude":"36.21E"}
{"date":"2010-02-01","average_temperature":"8.527000000000001","city":"San Antonio","latitude":"29.74N","longitude":"97.85W"}
{"date":"2012-03-01","average_temperature":"11.758","city":"San Bernardo","latitude":"32.95S","longitude":"69.89W"}
{"date":"2010-04-01","average_temperature":"13.755","city":"San Diego","latitude":"32.95N","longitude":"117.77W"}
{"date":"2012-04-01","average_temperature":"29.293000000000003","city":"San Fernando","latitude":"15.27N","longitude":"120.83E"}
{"date":"2011-04-01","average_temperature":"13.357999999999999","city":"San Jose","latitude":"37.78N","longitude":"122.03W"}
{"date":"2012-03-01","average_temperature":"19.611","city":"San Juan Sacatepéquez","latitude":"15.27N","longitude":"90.83W"}
{"date":"2011-06-01","average_temperature":"27.546","city":"San Pedro","latitude":"13.66N","longitude":"121.38E"}
{"date":"2011-02-01","average_temperature":"25.622","city":"San Salvador","latitude":"13.66N","longitude":"90.00W"}
{"date":"2012-07-01","average_temperature":"26.394","city":"San Salvador","latitude":"13.66N","longitude":"90.00W"}
{"date":"2013-02-01","average_temperature":"6.21","city":"Sanandaj","latitude":"34.56N","longitude":"46.70E"}
{"date":"2012-07-01","average_temperature":"26.844","city":"Sandakan","latitude":"5.63N","longitude":"117.85E"}
{"date":"2011-04-01","average_temperature":"18.977","city":"Sanming","latitude":"26.52N","longitude":"118.21E"}
{"date":"2013-01-01","average_temperature":"25.357","city":"Santa Ana","latitude":"13.66N","longitude":"90.00W"}
{"date":"2011-02-01","average_temperature":"8.759","city":"Santa Clarita","latitude":"34.56N","longitude":"118.70W"}
{"date":"2010-04-01","average_temperature":"28.113000000000003","city":"Santa Rosa","latitude":"13.66N","longitude":"121.38E"}
{"date":"2011-11-01","average_temperature":"9.986999999999998","city":"Santiago","latitude":"32.95S","longitude":"69.89W"}
{"date":"2013-07-01","average_temperature":"-0.521","city":"Santiago","latitude":"32.95S","longitude":"69.89W"}
{"date":"2010-09-01","average_temperature":"29.795","city":"Sargodha","latitude":"31.35N","longitude":"73.51E"}
{"date":"2011-02-01","average_temperature":"15.970999999999998","city":"Sargodha","latitude":"31.35N","longitude":"73.51E"}
{"date":"2010-05-01","average_temperature":"30.341","city":"Sarh","latitude":"8.84N","longitude":"18.65E"}
{"date":"2013-08-01","average_temperature":"29.539","city":"Satkhira","latitude":"23.31N","longitude":"88.25E"}
{"date":"2011-03-01","average_temperature":"9.043","city":"Saveh","latitude":"34.56N","longitude":"50.59E"}
{"date":"2012-04-01","average_temperature":"30.449","city":"Sawai Madhopur","latitude":"26.52N","longitude":"77.01E"}
{"date":"2013-05-01","average_temperature":"35.463","city":"Sawai Madhopur","latitude":"26.52N","longitude":"77.01E"}
{"date":"2010-06-01","average_temperature":"30.185","city":"Scottsdale","latitude":"32.95N","longitude":"112.02W"}
{"date":"2012-03-01","average_temperature":"16.227999999999998","city":"Scottsdale","latitude":"32.95N","longitude":"112.02W"}
{"date":"2012-12-01","average_temperature":"1.517","city":"Seattle","latitude":"47.42N","longitude":"121.97W"}
{"date":"2011-07-01","average_temperature":"21.131","city":"Semey","latitude":"50.63N","longitude":"79.86E"}
{"date":"2010-01-01","average_temperature":"18.679000000000002","city":"Seoni","latitude":"21.70N","longitude":"78.75E"}
{"date":"2010-03-01","average_temperature":"28.861","city":"Seoni","latitude":"21.70N","longitude":"78.75E"}
{"date":"2010-12-01","average_temperature":"19.12","city":"Seoni","latitude":"21.70N","longitude":"78.75E"}
{"date":"2010-04-01","average_temperature":"28.607","city":"Sepatan","latitude":"5.63S","longitude":"106.55E"}
{"date":"2011-01-01","average_temperature":"26.558000000000003","city":"Serang","latitude":"5.63S","longitude":"106.55E"}
{"date":"2011-11-01","average_temperature":"-0.3440000000000001","city":"Serpukhov","latitude":"55.45N","longitude":"36.85E"}
{"date":"2011-09-01","average_temperature":"10.467","city":"Seversk","latitude":"57.05N","longitude":"84.10E"}
{"date":"2010-06-01","average_temperature":"23.495","city":"Sevilla","latitude":"37.78N","longitude":"6.10W"}
{"date":"2010-03-01","average_temperature":"9.012","city":"Shahr E Kord","latitude":"32.95N","longitude":"50.74E"}
{"date":"2012-08-01","average_temperature":"24.639","city":"Shakhty","latitude":"47.42N","longitude":"39.08E"}
{"date":"2013-08-01","average_temperature":"24.264","city":"Shaki","latitude":"8.84N","longitude":"4.05E"}
{"date":"2012-06-01","average_temperature":"24.565","city":"Shanghai","latitude":"31.35N","longitude":"120.63E"}
{"date":"2011-03-01","average_temperature":"23.351","city":"Sharjah","latitude":"24.92N","longitude":"54.98E"}
{"date":"2012-07-01","average_temperature":"24.264","city":"Shenyang","latitude":"40.99N","longitude":"123.55E"}
{"date":"2012-05-01","average_temperature":"18.268","city":"Shimonoseki","latitude":"34.56N","longitude":"130.38E"}
{"date":"2011-11-01","average_temperature":"14.734000000000002","city":"Shishou","latitude":"29.74N","longitude":"112.62E"}
{"date":"2010-01-01","average_temperature":"-18.555","city":"Shuangcheng","latitude":"45.81N","longitude":"125.77E"}
{"date":"2010-01-01","average_temperature":"-18.585","city":"Shuangyashan","latitude":"47.42N","longitude":"131.45E"}
{"date":"2012-02-01","average_temperature":"14.387","city":"Shulin","latitude":"24.92N","longitude":"120.59E"}
{"date":"2012-08-01","average_temperature":"29.509","city":"Sialkot","latitude":"32.95N","longitude":"73.72E"}
{"date":"2013-07-01","average_temperature":"31.053","city":"Sialkot","latitude":"32.95N","longitude":"73.72E"}
{"date":"2010-10-01","average_temperature":"4.973","city":"Siauliai","latitude":"55.45N","longitude":"22.68E"}
{"date":"2012-10-01","average_temperature":"27.166","city":"Singaraja","latitude":"8.84S","longitude":"114.32E"}
{"date":"2010-10-01","average_temperature":"10.466","city":"Slough","latitude":"52.24N","longitude":"0.00W"}
{"date":"2013-03-01","average_temperature":"27.708","city":"Soc Trang","latitude":"8.84N","longitude":"106.22E"}
{"date":"2012-12-01","average_temperature":"15.501","city":"Sohag","latitude":"26.52N","longitude":"32.24E"}
{"date":"2013-04-01","average_temperature":"21.944000000000003","city":"Songea","latitude":"10.45S","longitude":"35.18E"}
{"date":"2012-12-01","average_temperature":"26.691000000000006","city":"Soubré","latitude":"5.63N","longitude":"6.46W"}
{"date":"2010-10-01","average_temperature":"18.264","city":"Spring Valley","latitude":"36.17N","longitude":"115.36W"}
{"date":"2010-07-01","average_temperature":"27.308000000000003","city":"Springfield","latitude":"37.78N","longitude":"93.56W"}
{"date":"2010-08-01","average_temperature":"28.849","city":"Srikakulam","latitude":"18.48N","longitude":"84.51E"}
{"date":"2010-12-01","average_temperature":"0.927","city":"Srinagar","latitude":"34.56N","longitude":"73.95E"}
{"date":"2011-05-01","average_temperature":"16.155","city":"Suceava","latitude":"47.42N","longitude":"27.24E"}
{"date":"2011-03-01","average_temperature":"12.815","city":"Sucre","latitude":"18.48S","longitude":"65.92W"}
{"date":"2013-09-01","city":"Sujiatun","latitude":"40.99N","longitude":"123.55E"}
{"date":"2010-08-01","average_temperature":"25.756999999999998","city":"Sumedang","latitude":"7.23S","longitude":"107.84E"}
{"date":"2011-01-01","average_temperature":"6.966","city":"Sunrise Manor","latitude":"36.17N","longitude":"115.36W"}
{"date":"2013-03-01","average_temperature":"15.52","city":"Sur","latitude":"32.95N","longitude":"35.43E"}
{"date":"2013-05-01","average_temperature":"13.669","city":"Szczecin","latitude":"53.84N","longitude":"15.00E"}
{"date":"2010-02-01","average_temperature":"16.175","city":"Tabuk","latitude":"28.13N","longitude":"37.27E"}
{"date":"2010-01-01","average_temperature":"-1.253","city":"Taian","latitude":"36.17N","longitude":"117.35E"}
{"date":"2013-03-01","average_temperature":"18.025","city":"Taichung","latitude":"24.92N","longitude":"120.59E"}
{"date":"2011-04-01","average_temperature":"12.548","city":"Takatsuki","latitude":"34.56N","longitude":"136.22E"}
{"date":"2011-12-01","average_temperature":"19.699","city":"Tampico","latitude":"21.70N","longitude":"97.79W"}
{"date":"2012-01-01","average_temperature":"19.714000000000002","city":"Tampico","latitude":"21.70N","longitude":"97.79W"}
{"date":"2012-12-01","average_temperature":"-6.072","city":"Tanggu","latitude":"39.38N","longitude":"118.61E"}
{"date":"2012-07-01","average_temperature":"27.388","city":"Taranto","latitude":"40.99N","longitude":"17.04E"}
{"date":"2011-03-01","average_temperature":"3.1460000000000004","city":"Targu Mures","latitude":"45.81N","longitude":"24.23E"}
{"date":"2011-04-01","average_temperature":"27.843000000000004","city":"Tarlac","latitude":"15.27N","longitude":"120.83E"}
{"date":"2011-09-01","average_temperature":"23.987","city":"Tarragona","latitude":"40.99N","longitude":"2.13E"}
{"date":"2012-04-01","average_temperature":"4.763999999999999","city":"Tartu","latitude":"58.66N","longitude":"27.69E"}
{"date":"2012-10-01","average_temperature":"11.591","city":"Tashkent","latitude":"40.99N","longitude":"70.30E"}
{"date":"2012-08-01","average_temperature":"11.03","city":"Tauranga","latitude":"37.78S","longitude":"176.95E"}
{"date":"2010-12-01","average_temperature":"25.162","city":"Teófilo Otoni","latitude":"18.48S","longitude":"42.25W"}
{"date":"2010-09-01","average_temperature":"26.824","city":"Tegal","latitude":"7.23S","longitude":"109.46E"}
{"date":"2012-10-01","average_temperature":"27.669","city":"Tegal","latitude":"7.23S","longitude":"109.46E"}
{"date":"2013-09-01","city":"Tekirdag","latitude":"40.99N","longitude":"27.69E"}
{"date":"2011-07-01","average_temperature":"32.96","city":"Tempe","latitude":"32.95N","longitude":"112.02W"}
{"date":"2013-02-01","average_temperature":"24.936999999999998","city":"Teresópolis","latitude":"21.70S","longitude":"42.40W"}
{"date":"2010-09-01","average_temperature":"21.996","city":"Terrassa","latitude":"40.99N","longitude":"2.13E"}
{"date":"2011-02-01","average_temperature":"17.622999999999994","city":"Thanh Hóa","latitude":"20.09N","longitude":"105.78E"}
{"date":"2011-05-01","average_temperature":"26.524","city":"Thanh Hóa","latitude":"20.09N","longitude":"105.78E"}
{"date":"2010-10-01","average_temperature":"27.112","city":"Thanyaburi","latitude":"13.66N","longitude":"101.56E"}
{"date":"2012-04-01","average_temperature":"8.101","city":"The Hague","latitude":"52.24N","longitude":"5.26E"}
{"date":"2012-12-01","average_temperature":"3.415","city":"Thessaloníki","latitude":"40.99N","longitude":"23.43E"}
{"date":"2012-04-01","average_temperature":"10.807","city":"Thornton","latitude":"39.38N","longitude":"104.05W"}
{"date":"2011-10-01","average_temperature":"8.488999999999999","city":"Tighina","latitude":"47.42N","longitude":"29.61E"}
{"date":"2012-04-01","average_temperature":"8.101","city":"Tilburg","latitude":"52.24N","longitude":"5.26E"}
{"date":"2010-09-01","average_temperature":"26.366999999999997","city":"Tirunelveli","latitude":"8.84N","longitude":"77.03E"}
{"date":"2013-04-01","average_temperature":"30.026","city":"Tirunelveli","latitude":"8.84N","longitude":"77.03E"}
{"date":"2010-01-01","average_temperature":"17.694000000000003","city":"Tlaquepaque","latitude":"20.09N","longitude":"104.08W"}
{"date":"2010-12-01","average_temperature":"5.7189999999999985","city":"Toda","latitude":"36.17N","longitude":"139.23E"}
{"date":"2010-03-01","average_temperature":"-8.120999999999999","city":"Tomsk","latitude":"57.05N","longitude":"84.10E"}
{"date":"2011-02-01","average_temperature":"5.585","city":"Tongling","latitude":"31.35N","longitude":"118.74E"}
{"date":"2013-05-01","average_temperature":"22.101999999999997","city":"Tongzhou","latitude":"39.38N","longitude":"116.53E"}
{"date":"2012-10-01","average_temperature":"26.354","city":"Tonk","latitude":"26.52N","longitude":"75.22E"}
{"date":"2010-01-01","average_temperature":"-5.388","city":"Topeka","latitude":"39.38N","longitude":"95.72W"}
{"date":"2011-05-01","average_temperature":"14.767000000000001","city":"Torun","latitude":"52.24N","longitude":"18.39E"}
{"date":"2011-10-01","average_temperature":"17.753","city":"Tottori","latitude":"34.56N","longitude":"134.27E"}
{"date":"2011-12-01","average_temperature":"24.203000000000003","city":"Toungoo","latitude":"18.48N","longitude":"96.34E"}
{"date":"2012-08-01","average_temperature":"27.331","city":"Toyokawa","latitude":"34.56N","longitude":"138.16E"}
{"date":"2012-08-01","average_temperature":"23.421999999999997","city":"Tuluá","latitude":"4.02N","longitude":"76.34W"}
{"date":"2013-03-01","average_temperature":"28.363000000000003","city":"Tumkur","latitude":"13.66N","longitude":"76.79E"}
{"date":"2012-10-01","average_temperature":"26.787","city":"Turmero","latitude":"10.45N","longitude":"67.91W"}
{"date":"2012-01-01","average_temperature":"-18.108","city":"Tyumen","latitude":"57.05N","longitude":"66.39E"}
{"date":"2013-08-01","average_temperature":"21.562","city":"Uberaba","latitude":"20.09S","longitude":"47.77W"}
{"date":"2013-06-01","average_temperature":"20.927","city":"Ueda","latitude":"36.17N","longitude":"139.23E"}
{"date":"2011-01-01","average_temperature":"2.86","city":"Uji","latitude":"34.56N","longitude":"136.22E"}
{"date":"2012-03-01","average_temperature":"25.574","city":"Ulhasnagar","latitude":"18.48N","longitude":"72.68E"}
{"date":"2012-05-01","average_temperature":"32.232","city":"Ulubaria","latitude":"23.31N","longitude":"88.25E"}
{"date":"2012-12-01","average_temperature":"-6.837999999999999","city":"Uppsala","latitude":"60.27N","longitude":"16.22E"}
{"date":"2013-01-01","average_temperature":"25.497","city":"Urdaneta","latitude":"15.27N","longitude":"120.83E"}
{"date":"2012-09-01","average_temperature":"9.9","city":"Ust Ilimsk","latitude":"58.66N","longitude":"101.54E"}
{"date":"2013-08-01","average_temperature":"15.501","city":"Ust Ilimsk","latitude":"58.66N","longitude":"101.54E"}
{"date":"2010-04-01","average_temperature":"20.855","city":"Várzea Paulista","latitude":"23.31S","longitude":"46.31W"}
{"date":"2010-08-01","average_temperature":"25.765","city":"Valencia","latitude":"39.38N","longitude":"0.00W"}
{"date":"2010-06-01","average_temperature":"13.292","city":"Vancouver","latitude":"45.81N","longitude":"123.46W"}
{"date":"2010-09-01","average_temperature":"22.498","city":"Varginha","latitude":"21.70S","longitude":"45.87W"}
{"date":"2011-06-01","average_temperature":"17.633000000000006","city":"Varginha","latitude":"21.70S","longitude":"45.87W"}
{"date":"2011-07-01","average_temperature":"19.363","city":"Varginha","latitude":"21.70S","longitude":"45.87W"}
{"date":"2013-02-01","average_temperature":"21.5","city":"Vejalpur","latitude":"23.31N","longitude":"74.27E"}
{"date":"2010-05-01","average_temperature":"13.84","city":"Velikiy Novgorod","latitude":"58.66N","longitude":"30.77E"}
{"date":"2013-03-01","average_temperature":"-7.850999999999999","city":"Velikiy Novgorod","latitude":"58.66N","longitude":"30.77E"}
{"date":"2013-04-01","average_temperature":"12.489999999999998","city":"Venice","latitude":"45.81N","longitude":"12.69E"}
{"date":"2013-03-01","average_temperature":"23.046","city":"Veracruz","latitude":"18.48N","longitude":"96.34W"}
{"date":"2011-12-01","average_temperature":"19.751","city":"Vereeniging","latitude":"26.52S","longitude":"28.66E"}
{"date":"2010-11-01","average_temperature":"20.768","city":"Viamão","latitude":"29.74S","longitude":"51.69W"}
{"date":"2012-12-01","average_temperature":"22.42","city":"Vientiane","latitude":"18.48N","longitude":"103.10E"}
{"date":"2012-05-01","average_temperature":"21.031999999999996","city":"Vila Velha","latitude":"20.09S","longitude":"40.95W"}
{"date":"2013-09-01","average_temperature":"21.815","city":"Villa Canales","latitude":"15.27N","longitude":"90.83W"}
{"date":"2011-12-01","average_temperature":"2.779","city":"Villeurbanne","latitude":"45.81N","longitude":"5.77E"}
{"date":"2010-07-01","average_temperature":"26.421","city":"Visakhapatnam","latitude":"18.48N","longitude":"82.82E"}
{"date":"2012-09-01","average_temperature":"26.636999999999997","city":"Visakhapatnam","latitude":"18.48N","longitude":"82.82E"}
{"date":"2013-01-01","average_temperature":"27.265","city":"Vitória De Santo Antão","latitude":"8.84S","longitude":"34.86W"}
{"date":"2013-04-01","average_temperature":"5.735","city":"Vladimir","latitude":"55.45N","longitude":"39.69E"}
{"date":"2011-03-01","average_temperature":"-2.898","city":"Volzhskiy","latitude":"49.03N","longitude":"44.08E"}
{"date":"2011-02-01","average_temperature":"-12.834000000000001","city":"Voronezh","latitude":"52.24N","longitude":"39.42E"}
{"date":"2013-01-01","average_temperature":"3.7110000000000003","city":"Walsall","latitude":"52.24N","longitude":"2.63W"}
{"date":"2013-08-01","average_temperature":"27.459","city":"Warangal","latitude":"18.48N","longitude":"79.44E"}
{"date":"2010-08-01","average_temperature":"19.838","city":"Warsaw","latitude":"52.24N","longitude":"21.02E"}
{"date":"2010-06-01","average_temperature":"31.706000000000003","city":"Wazirabad","latitude":"32.95N","longitude":"73.72E"}
{"date":"2010-01-01","average_temperature":"-2.765","city":"Weifang","latitude":"36.17N","longitude":"119.34E"}
{"date":"2012-01-01","average_temperature":"-1.535","city":"Weihai","latitude":"37.78N","longitude":"122.03E"}
{"date":"2012-10-01","average_temperature":"12.399000000000001","city":"Weinan","latitude":"34.56N","longitude":"108.97E"}
{"date":"2013-09-01","city":"Wenzhou","latitude":"28.13N","longitude":"120.91E"}
{"date":"2010-09-01","average_temperature":"19.154","city":"West Jordan","latitude":"40.99N","longitude":"112.90W"}
{"date":"2012-12-01","average_temperature":"-1.55","city":"Westminster","latitude":"39.38N","longitude":"104.05W"}
{"date":"2013-08-01","average_temperature":"18.192","city":"Wiesbaden","latitude":"50.63N","longitude":"8.87E"}
{"date":"2013-07-01","average_temperature":"10.644","city":"Worcester","latitude":"32.95S","longitude":"20.11E"}
{"date":"2010-02-01","average_temperature":"-1.3290000000000002","city":"Wroclaw","latitude":"50.63N","longitude":"16.48E"}
{"date":"2012-02-01","average_temperature":"12.482999999999999","city":"Wuzhou","latitude":"23.31N","longitude":"110.97E"}
{"date":"2011-03-01","average_temperature":"10.958","city":"Xiantao","latitude":"29.74N","longitude":"112.62E"}
{"date":"2012-11-01","average_temperature":"11.284","city":"Xiantao","latitude":"29.74N","longitude":"112.62E"}
{"date":"2011-10-01","average_temperature":"12.587","city":"Xianyang","latitude":"34.56N","longitude":"108.97E"}
{"date":"2012-07-01","average_temperature":"27.57","city":"Xintai","latitude":"36.17N","longitude":"117.35E"}
{"date":"2012-10-01","average_temperature":"9.13","city":"Xinzhou","latitude":"37.78N","longitude":"111.86E"}
{"date":"2013-07-01","average_temperature":"18.313","city":"Yaroslavl","latitude":"57.05N","longitude":"39.84E"}
{"date":"2010-05-01","average_temperature":"19.506","city":"Yichang","latitude":"31.35N","longitude":"111.20E"}
{"date":"2013-01-01","average_temperature":"4.954999999999999","city":"Yichun","latitude":"28.13N","longitude":"113.64E"}
{"date":"2011-06-01","average_temperature":"17.759","city":"Yichun","latitude":"47.42N","longitude":"129.08E"}
{"date":"2010-10-01","average_temperature":"6.2269999999999985","city":"Zabrze","latitude":"50.63N","longitude":"19.01E"}
{"date":"2013-09-01","city":"Zabrze","latitude":"50.63N","longitude":"19.01E"}
{"date":"2012-01-01","average_temperature":"2.608","city":"Zaoyang","latitude":"31.35N","longitude":"113.09E"}
{"date":"2012-08-01","average_temperature":"27.595","city":"Zhaoyang","latitude":"32.95N","longitude":"119.68E"}
{"date":"2013-03-01","average_temperature":"0.15200000000000016","city":"Zhezkazgan","latitude":"47.42N","longitude":"67.50E"}
{"date":"2011-12-01","average_temperature":"15.991","city":"Zhuhai","latitude":"21.70N","longitude":"113.37E"}
{"date":"2012-03-01","average_temperature":"5.502000000000002","city":"Zhuozhou","latitude":"39.38N","longitude":"116.53E"}
{"date":"2011-03-01","average_temperature":"10.527000000000001","city":"Zhuzhou","latitude":"28.13N","longitude":"113.64E"}
{"date":"2010-08-01","average_temperature":"19.312","city":"Zielona Gora","latitude":"52.24N","longitude":"15.77E"}
{"date":"2011-10-01","average_temperature":"30.711","city":"Zinder","latitude":"13.66N","longitude":"9.08E"}
{"date":"2013-05-01","average_temperature":"10.687999999999999","city":"Zlatoust","latitude":"55.45N","longitude":"59.53E"}
