{"date":"2013-02-01","average_temperature":"17.464000000000002","city":"Abadan","latitude":"29.74N","longitude":"48.00E"}
{"date":"2011-01-01","average_temperature":"26.789","city":"Abakaliki","latitude":"5.63N","longitude":"8.07E"}
{"date":"2013-03-01","average_temperature":"29.605","city":"Abengourou","latitude":"7.23N","longitude":"4.05W"}
{"date":"2011-07-01","average_temperature":"26.095","city":"Abomey Calavi","latitude":"7.23N","longitude":"2.43E"}
{"date":"2012-07-01","average_temperature":"28.566999999999997","city":"Adana","latitude":"36.17N","longitude":"35.80E"}
{"date":"2010-08-01","average_temperature":"26.015","city":"Afyonkarahisar","latitude":"39.38N","longitude":"31.21E"}
{"date":"2013-02-01","average_temperature":"16.418","city":"Aguascalientes","latitude":"21.70N","longitude":"102.98W"}
{"date":"2010-03-01","average_temperature":"8.325","city":"Akashi","latitude":"34.56N","longitude":"134.27E"}
{"date":"2010-01-01","average_temperature":"21.254","city":"Akola","latitude":"20.09N","longitude":"76.78E"}
{"date":"2011-06-01","average_temperature":"8.582","city":"Alberton","latitude":"26.52S","longitude":"28.66E"}
{"date":"2012-11-01","average_temperature":"7.6099999999999985","city":"Alcalá De Henares","latitude":"40.99N","longitude":"4.26W"}
{"date":"2013-07-01","average_temperature":"24.765","city":"Algeciras","latitude":"36.17N","longitude":"5.97W"}
{"date":"2013-08-01","average_temperature":"28.781","city":"Allahabad","latitude":"24.92N","longitude":"81.58E"}
{"date":"2011-11-01","average_temperature":"22.484","city":"Alwar","latitude":"28.13N","longitude":"77.27E"}
{"date":"2011-11-01","average_temperature":"12.972000000000001","city":"Amadora","latitude":"39.38N","longitude":"8.32W"}
{"date":"2012-12-01","average_temperature":"26.222","city":"Ambattur","latitude":"13.66N","longitude":"80.09E"}
{"date":"2010-08-01","average_temperature":"18.169","city":"Amiens","latitude":"49.03N","longitude":"2.45E"}
{"date":"2010-08-01","average_temperature":"29.494","city":"Amroha","latitude":"28.13N","longitude":"79.09E"}
{"date":"2012-12-01","average_temperature":"13.530999999999999","city":"Anaheim","latitude":"32.95N","longitude":"117.77W"}
{"date":"2012-09-01","average_temperature":"28.090999999999998","city":"Anantapur","latitude":"15.27N","longitude":"77.50E"}
{"date":"2012-04-01","average_temperature":"0.4289999999999998","city":"Anchorage","latitude":"61.88N","longitude":"151.13W"}
{"date":"2010-07-01","average_temperature":"23.84","city":"Andijon","latitude":"40.99N","longitude":"72.43E"}
{"date":"2010-11-01","average_temperature":"26.546","city":"Angeles","latitude":"15.27N","longitude":"120.83E"}
{"date":"2012-02-01","average_temperature":"-4.43","city":"Angren","latitude":"40.99N","longitude":"70.30E"}
{"date":"2010-02-01","average_temperature":"-3.2889999999999997","city":"Ann Arbor","latitude":"42.59N","longitude":"82.91W"}
{"date":"2013-05-01","average_temperature":"22.549","city":"Antakya","latitude":"36.17N","longitude":"35.80E"}
{"date":"2012-04-01","average_temperature":"12.293","city":"Antalya","latitude":"37.78N","longitude":"30.51E"}
{"date":"2011-11-01","average_temperature":"22.430000000000003","city":"Antananarivo","latitude":"18.48S","longitude":"47.32E"}
{"date":"2010-06-01","average_temperature":"17.863","city":"Antsirabe","latitude":"20.09S","longitude":"47.77E"}
{"date":"2012-07-01","average_temperature":"18.37","city":"Apucarana","latitude":"23.31S","longitude":"51.55W"}
{"date":"2012-07-01","average_temperature":"24.478","city":"Aracaju","latitude":"10.45S","longitude":"36.82W"}
{"date":"2013-02-01","average_temperature":"27.925","city":"Aracaju","latitude":"10.45S","longitude":"36.82W"}
{"date":"2011-01-01","average_temperature":"25.697000000000006","city":"Araguaína","latitude":"7.23S","longitude":"47.84W"}
{"date":"2012-05-01","average_temperature":"23.136999999999997","city":"Arak","latitude":"34.56N","longitude":"50.59E"}
{"date":"2010-02-01","average_temperature":"27.921999999999997","city":"Arapiraca","latitude":"10.45S","longitude":"36.82W"}
{"date":"2010-12-01","average_temperature":"27.17","city":"Arapiraca","latitude":"10.45S","longitude":"36.82W"}
{"date":"2010-01-01","average_temperature":"24.969","city":"Arjawinangun","latitude":"7.23S","longitude":"107.84E"}
{"date":"2010-11-01","average_temperature":"25.781","city":"Arjawinangun","latitude":"7.23S","longitude":"107.84E"}
{"date":"2011-07-01","average_temperature":"29.593","city":"Aryanah","latitude":"36.17N","longitude":"9.94E"}
{"date":"2012-02-01","average_temperature":"13.073","city":"Ashdod","latitude":"31.35N","longitude":"33.93E"}
{"date":"2013-06-01","average_temperature":"24.206999999999997","city":"Ashdod","latitude":"31.35N","longitude":"33.93E"}
{"date":"2011-02-01","average_temperature":"3.734","city":"Ashikaga","latitude":"36.17N","longitude":"139.23E"}
{"date":"2012-10-01","average_temperature":"5.037","city":"Astana","latitude":"50.63N","longitude":"72.25E"}
{"date":"2011-04-01","average_temperature":"8.052999999999999","city":"Aurora","latitude":"39.38N","longitude":"104.05W"}
{"date":"2011-11-01","average_temperature":"3.475","city":"Aurora","latitude":"39.38N","longitude":"104.05W"}
{"date":"2013-01-01","average_temperature":"25.076","city":"Babakan","latitude":"7.23S","longitude":"107.84E"}
{"date":"2010-02-01","average_temperature":"25.615","city":"Badlapur","latitude":"18.48N","longitude":"72.68E"}
{"date":"2013-04-01","average_temperature":"27.335","city":"Badlapur","latitude":"18.48N","longitude":"72.68E"}
{"date":"2013-06-01","average_temperature":"18.718","city":"Balashikha","latitude":"55.45N","longitude":"36.85E"}
{"date":"2010-09-01","average_temperature":"27.109","city":"Balikpapan","latitude":"0.80S","longitude":"116.52E"}
{"date":"2012-06-01","average_temperature":"21.791","city":"Balti","latitude":"47.42N","longitude":"27.24E"}
{"date":"2013-01-01","average_temperature":"1.8419999999999999","city":"Baltimore","latitude":"39.38N","longitude":"76.99W"}
{"date":"2010-12-01","average_temperature":"25.303","city":"Bamako","latitude":"12.05N","longitude":"8.22W"}
{"date":"2011-09-01","average_temperature":"25.859","city":"Bandundu","latitude":"4.02S","longitude":"16.88E"}
{"date":"2013-02-01","average_temperature":"26.791999999999998","city":"Bandundu","latitude":"4.02S","longitude":"16.88E"}
{"date":"2012-02-01","average_temperature":"-6.472","city":"Baoding","latitude":"39.38N","longitude":"114.45E"}
{"date":"2012-06-01","average_temperature":"35.631","city":"Bareli","latitude":"28.13N","longitude":"79.09E"}
{"date":"2012-04-01","average_temperature":"28.581999999999997","city":"Barisal","latitude":"23.31N","longitude":"90.00E"}
{"date":"2012-08-01","average_temperature":"25.823","city":"Baruta","latitude":"10.45N","longitude":"66.27W"}
{"date":"2011-12-01","average_temperature":"19.767000000000003","city":"Basirhat","latitude":"23.31N","longitude":"88.25E"}
{"date":"2010-12-01","average_temperature":"7.567","city":"Batman","latitude":"37.78N","longitude":"40.68E"}
{"date":"2011-07-01","average_temperature":"25.73","city":"Baturaja","latitude":"4.02S","longitude":"103.66E"}
{"date":"2011-09-01","average_temperature":"23.84","city":"Bauru","latitude":"21.70S","longitude":"49.33W"}
{"date":"2013-09-01","city":"Beihai","latitude":"21.70N","longitude":"109.90E"}
{"date":"2010-06-01","average_temperature":"22.634","city":"Beipiao","latitude":"40.99N","longitude":"121.42E"}
{"date":"2013-01-01","average_temperature":"-9.448","city":"Beipiao","latitude":"40.99N","longitude":"121.42E"}
{"date":"2012-04-01","average_temperature":"23.346","city":"Beira","latitude":"20.09S","longitude":"34.12E"}
{"date":"2012-02-01","average_temperature":"27.287","city":"Bekasi","latitude":"5.63S","longitude":"106.55E"}
{"date":"2012-11-01","average_temperature":"19.366","city":"Bello","latitude":"5.63N","longitude":"75.87W"}
{"date":"2013-01-01","average_temperature":"23.094","city":"Belo Horizonte","latitude":"20.09S","longitude":"44.36W"}
{"date":"2012-02-01","average_temperature":"24.553","city":"Benguela","latitude":"12.05S","longitude":"13.15E"}
{"date":"2012-12-01","average_temperature":"15.522","city":"Benha","latitude":"29.74N","longitude":"31.38E"}
{"date":"2012-05-01","average_temperature":"17.554000000000002","city":"Benxi","latitude":"40.99N","longitude":"123.55E"}
{"date":"2011-06-01","average_temperature":"16.518","city":"Bergisch Gladbach","latitude":"50.63N","longitude":"6.34E"}
{"date":"2012-08-01","average_temperature":"18.959","city":"Bergisch Gladbach","latitude":"50.63N","longitude":"6.34E"}
{"date":"2013-01-01","average_temperature":"20.673","city":"Bethal","latitude":"26.52S","longitude":"28.66E"}
{"date":"2010-07-01","average_temperature":"24.019000000000002","city":"Bhadravati","latitude":"13.66N","longitude":"75.14E"}
{"date":"2011-12-01","average_temperature":"18.084","city":"Bhagalpur","latitude":"24.92N","longitude":"86.90E"}
{"date":"2011-05-01","average_temperature":"30.395","city":"Bhatpara","latitude":"23.31N","longitude":"88.25E"}
{"date":"2010-11-01","average_temperature":"24.51","city":"Bhiwandi","latitude":"20.09N","longitude":"73.36E"}
{"date":"2013-02-01","average_temperature":"19.509","city":"Bihar","latitude":"24.92N","longitude":"85.12E"}
{"date":"2013-09-01","city":"Bijapur","latitude":"16.87N","longitude":"75.35E"}
{"date":"2012-12-01","average_temperature":"-5.16","city":"Bila Tserkva","latitude":"49.03N","longitude":"29.39E"}
{"date":"2011-07-01","average_temperature":"27.115","city":"Bintulu","latitude":"2.41N","longitude":"113.30E"}
{"date":"2012-05-01","average_temperature":"21.58","city":"Birigui","latitude":"21.70S","longitude":"51.06W"}
{"date":"2010-10-01","average_temperature":"18.328","city":"Birmingham","latitude":"32.95N","longitude":"87.13W"}
{"date":"2013-02-01","average_temperature":"28.199","city":"Bissau","latitude":"12.05N","longitude":"14.79W"}
{"date":"2011-02-01","average_temperature":"26.099","city":"Bitung","latitude":"0.80N","longitude":"124.55E"}
{"date":"2012-06-01","average_temperature":"12.655999999999999","city":"Blackburn","latitude":"53.84N","longitude":"1.36W"}
{"date":"2013-06-01","average_temperature":"26.918000000000003","city":"Bogor","latitude":"7.23S","longitude":"106.22E"}
{"date":"2011-04-01","average_temperature":"15.28","city":"Bordeaux","latitude":"44.20N","longitude":"0.00W"}
{"date":"2012-07-01","average_temperature":"27.57","city":"Boshan","latitude":"36.17N","longitude":"117.35E"}
{"date":"2013-07-01","average_temperature":"19.5","city":"Bottrop","latitude":"52.24N","longitude":"7.88E"}
{"date":"2011-08-01","average_temperature":"10.824000000000002","city":"Brakpan","latitude":"26.52S","longitude":"28.66E"}
{"date":"2012-02-01","average_temperature":"20.956999999999997","city":"Brakpan","latitude":"26.52S","longitude":"28.66E"}
{"date":"2013-06-01","average_temperature":"9.982000000000001","city":"Brakpan","latitude":"26.52S","longitude":"28.66E"}
{"date":"2012-06-01","average_temperature":"19.984","city":"Brasov","latitude":"45.81N","longitude":"26.54E"}
{"date":"2011-09-01","average_temperature":"6.9449999999999985","city":"Bratsk","latitude":"55.45N","longitude":"102.05E"}
{"date":"2013-04-01","average_temperature":"-0.593","city":"Bratsk","latitude":"55.45N","longitude":"102.05E"}
{"date":"2011-06-01","average_temperature":"18.427","city":"Brescia","latitude":"45.81N","longitude":"10.38E"}
{"date":"2012-04-01","average_temperature":"23.426","city":"Brikama","latitude":"13.66N","longitude":"17.34W"}
{"date":"2012-04-01","average_temperature":"7.034","city":"Bristol","latitude":"52.24N","longitude":"2.63W"}
{"date":"2013-01-01","average_temperature":"-0.518","city":"Budapest","latitude":"47.42N","longitude":"20.13E"}
{"date":"2010-09-01","average_temperature":"22.468000000000004","city":"Buenaventura","latitude":"4.02N","longitude":"76.34W"}
{"date":"2012-09-01","average_temperature":"16.442999999999998","city":"Buffalo","latitude":"42.59N","longitude":"78.55W"}
{"date":"2011-07-01","average_temperature":"28.778000000000002","city":"Bukit Mertajam","latitude":"5.63N","longitude":"100.09E"}
{"date":"2011-10-01","average_temperature":"26.401","city":"Burhanpur","latitude":"21.70N","longitude":"77.02E"}
{"date":"2012-06-01","average_temperature":"32.231","city":"Burhanpur","latitude":"21.70N","longitude":"77.02E"}
{"date":"2010-08-01","average_temperature":"22.079","city":"Cúcuta","latitude":"7.23N","longitude":"72.16W"}
{"date":"2010-12-01","average_temperature":"23.397","city":"Cachoeirinha","latitude":"29.74S","longitude":"51.69W"}
{"date":"2013-08-01","average_temperature":"27.199","city":"Cadiz","latitude":"10.45N","longitude":"123.55E"}
{"date":"2013-07-01","average_temperature":"20.141","city":"Caen","latitude":"49.03N","longitude":"0.00W"}
{"date":"2013-08-01","average_temperature":"28.588","city":"Cairo","latitude":"29.74N","longitude":"31.38E"}
{"date":"2010-11-01","average_temperature":"27.858","city":"Calabozo","latitude":"8.84N","longitude":"67.30W"}
{"date":"2011-02-01","average_temperature":"28.826999999999998","city":"Calabozo","latitude":"8.84N","longitude":"67.30W"}
{"date":"2011-08-01","average_temperature":"28.545","city":"Camagüey","latitude":"21.70N","longitude":"78.75W"}
{"date":"2012-08-01","average_temperature":"21.702","city":"Cambridge","latitude":"42.59N","longitude":"72.00W"}
{"date":"2012-12-01","average_temperature":"27.061","city":"Campina Grande","latitude":"7.23S","longitude":"36.49W"}
{"date":"2010-08-01","average_temperature":"13.966","city":"Canoas","latitude":"29.74S","longitude":"51.69W"}
{"date":"2013-07-01","average_temperature":"18.180999999999997","city":"Cardiff","latitude":"52.24N","longitude":"2.63W"}
{"date":"2010-05-01","average_temperature":"27.926","city":"Carrefour","latitude":"18.48N","longitude":"72.68W"}
{"date":"2010-11-01","average_temperature":"9.58","city":"Cary","latitude":"36.17N","longitude":"79.56W"}
{"date":"2013-02-01","average_temperature":"25.404","city":"Catanduva","latitude":"21.70S","longitude":"49.33W"}
{"date":"2013-09-01","city":"Caucaia","latitude":"4.02S","longitude":"39.38W"}
{"date":"2013-04-01","average_temperature":"29.011999999999997","city":"Chandpur","latitude":"23.31N","longitude":"90.00E"}
{"date":"2010-05-01","average_temperature":"20.826999999999998","city":"Changzhou","latitude":"31.35N","longitude":"120.63E"}
{"date":"2011-05-01","average_temperature":"16.879","city":"Chapecó","latitude":"26.52S","longitude":"53.73W"}
{"date":"2013-08-01","average_temperature":"18.69","city":"Charleroi","latitude":"50.63N","longitude":"3.80E"}
{"date":"2013-01-01","average_temperature":"-10.424000000000001","city":"Cherepovets","latitude":"58.66N","longitude":"36.92E"}
{"date":"2013-03-01","average_temperature":"-10.186","city":"Cherepovets","latitude":"58.66N","longitude":"36.92E"}
{"date":"2013-07-01","average_temperature":"28.959","city":"Chhatarpur","latitude":"24.92N","longitude":"79.80E"}
{"date":"2010-11-01","average_temperature":"25.276","city":"Chikmagalur","latitude":"13.66N","longitude":"75.14E"}
{"date":"2010-09-01","average_temperature":"27.038","city":"Chinandega","latitude":"12.05N","longitude":"87.12W"}
{"date":"2012-06-01","average_temperature":"19.484","city":"Chincha Alta","latitude":"13.66S","longitude":"76.79W"}
{"date":"2012-04-01","average_temperature":"26.697","city":"Chiniot","latitude":"31.35N","longitude":"73.51E"}
{"date":"2011-06-01","average_temperature":"26.655","city":"Choloma","latitude":"15.27N","longitude":"87.50W"}
{"date":"2012-08-01","average_temperature":"28.11","city":"Chongqing","latitude":"29.74N","longitude":"107.08E"}
{"date":"2012-12-01","average_temperature":"16.384","city":"Churu","latitude":"28.13N","longitude":"75.45E"}
{"date":"2011-05-01","average_temperature":"25.661","city":"Ciamis","latitude":"7.23S","longitude":"107.84E"}
{"date":"2010-04-01","average_temperature":"26.304","city":"Cianjur","latitude":"7.23S","longitude":"107.84E"}
{"date":"2012-06-01","average_temperature":"27.718000000000004","city":"Cibitung","latitude":"5.63S","longitude":"106.55E"}
{"date":"2010-05-01","average_temperature":"26.193","city":"Cileunyi","latitude":"7.23S","longitude":"107.84E"}
{"date":"2011-04-01","average_temperature":"25.14","city":"Cimahi","latitude":"7.23S","longitude":"107.84E"}
{"date":"2012-06-01","average_temperature":"26.78","city":"Ciomas","latitude":"7.23S","longitude":"106.22E"}
{"date":"2011-11-01","average_temperature":"15.725","city":"Comodoro Rivadavia","latitude":"45.81S","longitude":"68.08W"}
{"date":"2010-12-01","average_temperature":"-4.026","city":"Copenhagen","latitude":"55.45N","longitude":"11.34E"}
{"date":"2013-01-01","average_temperature":"15.517000000000001","city":"Copiapo","latitude":"28.13S","longitude":"70.00W"}
{"date":"2010-10-01","average_temperature":"19.398","city":"Cotia","latitude":"23.31S","longitude":"46.31W"}
{"date":"2011-10-01","average_temperature":"26.787","city":"Cotonou","latitude":"7.23N","longitude":"2.43E"}
{"date":"2011-11-01","average_temperature":"20.383","city":"Cubatão","latitude":"23.31S","longitude":"46.31W"}
{"date":"2010-09-01","average_temperature":"27.622","city":"Cumaná","latitude":"10.45N","longitude":"64.64W"}
{"date":"2011-08-01","average_temperature":"27.862","city":"Cumaná","latitude":"10.45N","longitude":"64.64W"}
{"date":"2013-04-01","average_temperature":"27.642","city":"Curug","latitude":"5.63S","longitude":"106.55E"}
{"date":"2013-05-01","average_temperature":"14.734000000000002","city":"Czestochowa","latitude":"50.63N","longitude":"19.01E"}
{"date":"2012-10-01","average_temperature":"25.255","city":"Da Nang","latitude":"15.27N","longitude":"107.50E"}
{"date":"2010-08-01","average_temperature":"19.062","city":"Dabrowa Gornicza","latitude":"50.63N","longitude":"19.01E"}
{"date":"2013-05-01","average_temperature":"28.842","city":"Dadiangas","latitude":"5.63N","longitude":"125.92E"}
{"date":"2012-05-01","average_temperature":"26.236","city":"Dahuk","latitude":"36.17N","longitude":"43.76E"}
{"date":"2011-03-01","average_temperature":"21.432","city":"Dakar","latitude":"15.27N","longitude":"17.50W"}
{"date":"2013-01-01","average_temperature":"21.994","city":"Dakar","latitude":"15.27N","longitude":"17.50W"}
{"date":"2010-03-01","average_temperature":"18.679000000000002","city":"Danshui","latitude":"23.31N","longitude":"114.47E"}
{"date":"2011-04-01","average_temperature":"27.168000000000003","city":"Dar Es Salaam","latitude":"7.23S","longitude":"39.73E"}
{"date":"2010-11-01","average_temperature":"22.969","city":"Darbhanga","latitude":"26.52N","longitude":"85.97E"}
{"date":"2011-02-01","average_temperature":"16.938000000000002","city":"Darjiling","latitude":"26.52N","longitude":"87.76E"}
{"date":"2012-03-01","average_temperature":"24.801","city":"Dehri","latitude":"24.92N","longitude":"83.35E"}
{"date":"2010-05-01","average_temperature":"31.671","city":"Deoria","latitude":"26.52N","longitude":"84.18E"}
{"date":"2011-09-01","average_temperature":"14.505","city":"Derby","latitude":"53.84N","longitude":"1.36W"}
{"date":"2010-05-01","average_temperature":"35.22499999999999","city":"Dewas","latitude":"23.31N","longitude":"76.02E"}
{"date":"2012-02-01","average_temperature":"22.051","city":"Dhaka","latitude":"23.31N","longitude":"90.00E"}
{"date":"2010-09-01","average_temperature":"29.511","city":"Dinajpur","latitude":"24.92N","longitude":"88.67E"}
{"date":"2010-10-01","average_temperature":"25.445","city":"Dindigul","latitude":"10.45N","longitude":"77.73E"}
{"date":"2012-09-01","average_temperature":"27.098000000000003","city":"Dindigul","latitude":"10.45N","longitude":"77.73E"}
{"date":"2011-02-01","average_temperature":"25.563000000000002","city":"Diourbel","latitude":"15.27N","longitude":"15.83W"}
{"date":"2012-06-01","average_temperature":"30.726","city":"Diourbel","latitude":"15.27N","longitude":"15.83W"}
{"date":"2011-01-01","average_temperature":"23.625","city":"Divinópolis","latitude":"20.09S","longitude":"44.36W"}
{"date":"2013-07-01","average_temperature":"19.498","city":"Divinópolis","latitude":"20.09S","longitude":"44.36W"}
{"date":"2010-11-01","average_temperature":"12.398","city":"Do Rud","latitude":"32.95N","longitude":"48.83E"}
{"date":"2013-07-01","average_temperature":"37.266","city":"Doha","latitude":"24.92N","longitude":"51.43E"}
{"date":"2011-12-01","average_temperature":"18.927","city":"Dongli","latitude":"20.09N","longitude":"110.90E"}
{"date":"2011-02-01","average_temperature":"-4.940000000000001","city":"Dongling","latitude":"40.99N","longitude":"123.55E"}
{"date":"2012-12-01","average_temperature":"2.2569999999999997","city":"Dongtai","latitude":"32.95N","longitude":"119.68E"}
{"date":"2011-11-01","average_temperature":"25.323","city":"Douala","latitude":"4.02N","longitude":"10.45E"}
{"date":"2010-08-01","average_temperature":"22.456999999999997","city":"Drobeta Turnu Severin","latitude":"44.20N","longitude":"22.36E"}
{"date":"2012-07-01","average_temperature":"27.930999999999997","city":"Dumaguete","latitude":"8.84N","longitude":"124.05E"}
{"date":"2010-06-01","average_temperature":"19.462","city":"Dunhua","latitude":"42.59N","longitude":"128.73E"}
{"date":"2011-02-01","average_temperature":"-9.891","city":"Dunhua","latitude":"42.59N","longitude":"128.73E"}
{"date":"2010-10-01","average_temperature":"17.849","city":"Durango","latitude":"24.92N","longitude":"104.63W"}
{"date":"2011-01-01","average_temperature":"18.322","city":"Durg","latitude":"21.70N","longitude":"80.48E"}
{"date":"2012-11-01","average_temperature":"18.465999999999998","city":"East London","latitude":"32.95S","longitude":"27.77E"}
{"date":"2012-06-01","average_temperature":"13.104000000000001","city":"Eastbourne","latitude":"50.63N","longitude":"1.27E"}
{"date":"2010-10-01","average_temperature":"11.394","city":"Ebetsu","latitude":"42.59N","longitude":"141.82E"}
{"date":"2011-09-01","average_temperature":"24.043000000000003","city":"Edéa","latitude":"4.02N","longitude":"10.45E"}
{"date":"2011-12-01","average_temperature":"5.722","city":"Eindhoven","latitude":"52.24N","longitude":"5.26E"}
{"date":"2013-02-01","average_temperature":"9.804","city":"El Monte","latitude":"34.56N","longitude":"118.70W"}
{"date":"2011-09-01","average_temperature":"26.053","city":"El Progreso","latitude":"15.27N","longitude":"87.50W"}
{"date":"2011-05-01","average_temperature":"27.318","city":"El Tigre","latitude":"8.84N","longitude":"64.05W"}
{"date":"2010-12-01","average_temperature":"10.146","city":"Elbasan","latitude":"40.99N","longitude":"19.17E"}
{"date":"2012-01-01","average_temperature":"-2.822","city":"Elblag","latitude":"53.84N","longitude":"20.45E"}
{"date":"2011-01-01","average_temperature":"14.379000000000001","city":"Ensenada","latitude":"31.35N","longitude":"116.86W"}
{"date":"2010-06-01","average_temperature":"26.935","city":"Enugu","latitude":"7.23N","longitude":"7.30E"}
{"date":"2012-12-01","average_temperature":"-6.488","city":"Espoo","latitude":"60.27N","longitude":"25.95E"}
{"date":"2013-06-01","average_temperature":"26.816999999999997","city":"Ezhou","latitude":"29.74N","longitude":"114.46E"}
{"date":"2011-06-01","average_temperature":"27.607","city":"Fayetteville","latitude":"34.56N","longitude":"79.78W"}
{"date":"2010-02-01","average_temperature":"14.364","city":"Fez","latitude":"34.56N","longitude":"5.84W"}
{"date":"2012-09-01","average_temperature":"21.343000000000004","city":"Foggia","latitude":"40.99N","longitude":"14.91E"}
{"date":"2012-12-01","average_temperature":"-1.7830000000000001","city":"Fort Collins","latitude":"40.99N","longitude":"104.38W"}
{"date":"2010-10-01","average_temperature":"12.927","city":"Fort Wayne","latitude":"40.99N","longitude":"85.21W"}
{"date":"2011-10-01","average_temperature":"7.75","city":"Freiburg","latitude":"47.42N","longitude":"8.29E"}
{"date":"2013-06-01","average_temperature":"14.444","city":"Freiburg","latitude":"47.42N","longitude":"8.29E"}
{"date":"2013-09-01","city":"Fuenlabrada","latitude":"40.99N","longitude":"4.26W"}
{"date":"2011-08-01","average_temperature":"26.718000000000004","city":"Fuji","latitude":"34.56N","longitude":"138.16E"}
{"date":"2010-05-01","average_temperature":"16.337","city":"Fujimi","latitude":"36.17N","longitude":"139.23E"}
{"date":"2011-06-01","average_temperature":"22.362","city":"Fujinomiya","latitude":"34.56N","longitude":"138.16E"}
{"date":"2012-03-01","average_temperature":"12.452","city":"Fuling","latitude":"29.74N","longitude":"107.08E"}
{"date":"2011-11-01","average_temperature":"10.802999999999999","city":"Funabashi","latitude":"36.17N","longitude":"139.23E"}
{"date":"2012-05-01","average_temperature":"17.554000000000002","city":"Fushun","latitude":"40.99N","longitude":"123.55E"}
{"date":"2012-04-01","average_temperature":"29.233","city":"Gadag","latitude":"15.27N","longitude":"75.83E"}
{"date":"2012-08-01","average_temperature":"22.014","city":"Garanhuns","latitude":"8.84S","longitude":"36.49W"}
{"date":"2013-04-01","average_temperature":"31.21","city":"Garoua","latitude":"8.84N","longitude":"13.78E"}
{"date":"2010-04-01","average_temperature":"26.304","city":"Garut","latitude":"7.23S","longitude":"107.84E"}
{"date":"2011-08-01","average_temperature":"23.14","city":"Gazni","latitude":"32.95N","longitude":"67.98E"}
{"date":"2012-07-01","average_temperature":"25.885","city":"Gebze","latitude":"40.99N","longitude":"29.82E"}
{"date":"2010-08-01","average_temperature":"28.87","city":"Georgetown","latitude":"7.23N","longitude":"57.57W"}
{"date":"2010-12-01","average_temperature":"-5.002","city":"Gera","latitude":"50.63N","longitude":"11.41E"}
{"date":"2012-01-01","average_temperature":"1.1010000000000002","city":"Gera","latitude":"50.63N","longitude":"11.41E"}
{"date":"2012-10-01","average_temperature":"12.027999999999999","city":"Gillingham","latitude":"50.63N","longitude":"1.27E"}
{"date":"2011-03-01","average_temperature":"5.394","city":"Glasgow","latitude":"55.45N","longitude":"2.83W"}
{"date":"2010-09-01","average_temperature":"29.795","city":"Gojra","latitude":"31.35N","longitude":"73.51E"}
{"date":"2013-07-01","average_temperature":"26.928","city":"Gombe","latitude":"10.45N","longitude":"10.64E"}
{"date":"2013-04-01","average_temperature":"27.041999999999998","city":"Gorontalo","latitude":"0.80N","longitude":"122.95E"}
{"date":"2012-05-01","average_temperature":"17.244","city":"Gravataí","latitude":"29.74S","longitude":"51.69W"}
{"date":"2012-08-01","average_temperature":"24.858","city":"Greensboro","latitude":"36.17N","longitude":"79.56W"}
{"date":"2013-05-01","average_temperature":"26.216","city":"Guadalupe","latitude":"26.52N","longitude":"100.30W"}
{"date":"2011-06-01","average_temperature":"19.909","city":"Guaratinguetá","latitude":"23.31S","longitude":"44.56W"}
{"date":"2010-04-01","average_temperature":"20.855","city":"Guarulhos","latitude":"23.31S","longitude":"46.31W"}
{"date":"2012-09-01","average_temperature":"20.915","city":"Guatemala","latitude":"15.27N","longitude":"90.83W"}
{"date":"2012-05-01","average_temperature":"30.636999999999997","city":"Gujranwala","latitude":"32.95N","longitude":"73.72E"}
{"date":"2010-01-01","average_temperature":"24.359","city":"Guntakal","latitude":"15.27N","longitude":"77.50E"}
{"date":"2011-09-01","average_temperature":"27.193","city":"Gusau","latitude":"12.05N","longitude":"6.58E"}
{"date":"2011-09-01","average_temperature":"27.079","city":"Guwahati","latitude":"26.52N","longitude":"91.34E"}
{"date":"2010-04-01","average_temperature":"9.589","city":"Hachioji","latitude":"36.17N","longitude":"139.23E"}
{"date":"2012-12-01","average_temperature":"23.652","city":"Hadejia","latitude":"12.05N","longitude":"9.86E"}
{"date":"2010-12-01","average_temperature":"20.270000000000003","city":"Haikou","latitude":"20.09N","longitude":"110.90E"}
{"date":"2011-04-01","average_temperature":"16.330000000000002","city":"Haikou","latitude":"24.92N","longitude":"102.86E"}
{"date":"2012-02-01","average_temperature":"11.636","city":"Haikou","latitude":"24.92N","longitude":"102.86E"}
{"date":"2012-02-01","average_temperature":"-17.169","city":"Hailun","latitude":"47.42N","longitude":"126.71E"}
{"date":"2011-07-01","average_temperature":"26.116999999999997","city":"Hamadan","latitude":"34.56N","longitude":"48.65E"}
{"date":"2012-02-01","average_temperature":"6.728","city":"Hamamatsu","latitude":"34.56N","longitude":"138.16E"}
{"date":"2013-07-01","average_temperature":"24.291999999999998","city":"Hami","latitude":"42.59N","longitude":"93.82E"}
{"date":"2013-07-01","average_temperature":"26.451","city":"Hampton","latitude":"36.17N","longitude":"75.58W"}
{"date":"2010-07-01","average_temperature":"26.926","city":"Hangu","latitude":"39.38N","longitude":"118.61E"}
{"date":"2012-03-01","average_temperature":"4.018","city":"Hangu","latitude":"39.38N","longitude":"118.61E"}
{"date":"2012-12-01","average_temperature":"-6.072","city":"Hangu","latitude":"39.38N","longitude":"118.61E"}
{"date":"2012-09-01","average_temperature":"30.096","city":"Hanumangarh","latitude":"29.74N","longitude":"73.85E"}
{"date":"2013-01-01","average_temperature":"17.757","city":"Haora","latitude":"23.31N","longitude":"88.25E"}
{"date":"2013-08-01","average_temperature":"30.346000000000004","city":"Hefei","latitude":"31.35N","longitude":"116.86E"}
{"date":"2013-07-01","average_temperature":"22.358","city":"Hengshan","latitude":"45.81N","longitude":"130.38E"}
{"date":"2011-02-01","average_temperature":"3.668","city":"Heze","latitude":"34.56N","longitude":"114.81E"}
{"date":"2011-04-01","average_temperature":"25.176","city":"Hialeah","latitude":"26.52N","longitude":"80.60W"}
{"date":"2012-01-01","average_temperature":"24.712","city":"Higüey","latitude":"18.48N","longitude":"69.30W"}
{"date":"2012-08-01","average_temperature":"27.701","city":"Hikone","latitude":"34.56N","longitude":"136.22E"}
{"date":"2013-02-01","average_temperature":"4.9110000000000005","city":"Hikone","latitude":"34.56N","longitude":"136.22E"}
{"date":"2010-12-01","average_temperature":"5.7189999999999985","city":"Hino","latitude":"36.17N","longitude":"139.23E"}
{"date":"2013-05-01","average_temperature":"18.738000000000003","city":"Hiroshima","latitude":"34.56N","longitude":"132.32E"}
{"date":"2011-04-01","average_temperature":"27.703000000000003","city":"Hisar","latitude":"29.74N","longitude":"75.69E"}
{"date":"2013-03-01","average_temperature":"13.765","city":"Honghu","latitude":"29.74N","longitude":"112.62E"}
{"date":"2011-01-01","average_temperature":"11.537","city":"Hoshiarpur","latitude":"31.35N","longitude":"75.39E"}
{"date":"2013-06-01","average_temperature":"25.545","city":"Hospet","latitude":"15.27N","longitude":"75.83E"}
{"date":"2010-03-01","average_temperature":"17.894000000000002","city":"Hsinchu","latitude":"24.92N","longitude":"120.59E"}
{"date":"2012-06-01","average_temperature":"25.999000000000002","city":"Huainan","latitude":"32.95N","longitude":"117.77E"}
{"date":"2013-03-01","average_temperature":"12.521","city":"Huangyan","latitude":"28.13N","longitude":"120.91E"}
{"date":"2013-08-01","average_temperature":"31.05","city":"Huangzhou","latitude":"29.74N","longitude":"114.46E"}
{"date":"2013-07-01","average_temperature":"23.783","city":"Hulan","latitude":"45.81N","longitude":"125.77E"}
{"date":"2012-01-01","average_temperature":"-21.824","city":"Hulan Ergi","latitude":"47.42N","longitude":"124.34E"}
{"date":"2010-03-01","average_temperature":"18.679000000000002","city":"Humen","latitude":"23.31N","longitude":"114.47E"}
{"date":"2013-06-01","average_temperature":"29.487","city":"Hyderabad","latitude":"16.87N","longitude":"78.70E"}
{"date":"2012-12-01","average_temperature":"-3.9789999999999996","city":"Iasi","latitude":"47.42N","longitude":"27.24E"}
{"date":"2012-10-01","average_temperature":"26.311999999999998","city":"Ichalkaranji","latitude":"16.87N","longitude":"73.67E"}
{"date":"2011-02-01","average_temperature":"29.417","city":"Igboho","latitude":"8.84N","longitude":"4.05E"}
{"date":"2012-02-01","average_temperature":"29.542","city":"Igboho","latitude":"8.84N","longitude":"4.05E"}
{"date":"2011-05-01","average_temperature":"27.724","city":"Ikere","latitude":"7.23N","longitude":"5.68E"}
{"date":"2010-07-01","average_temperature":"25.426","city":"Ikire","latitude":"7.23N","longitude":"4.05E"}
{"date":"2012-08-01","average_temperature":"26.019","city":"Ikot Ekpene","latitude":"5.63N","longitude":"8.07E"}
{"date":"2013-01-01","average_temperature":"28.136","city":"Ilobu","latitude":"7.23N","longitude":"4.05E"}
{"date":"2013-03-01","average_temperature":"30.644","city":"Ilorin","latitude":"8.84N","longitude":"4.05E"}
{"date":"2010-08-01","average_temperature":"25.115","city":"Indianapolis","latitude":"39.38N","longitude":"85.32W"}
{"date":"2011-07-01","average_temperature":"25.508000000000003","city":"Iquitos","latitude":"4.02S","longitude":"73.13W"}
{"date":"2010-03-01","average_temperature":"24.505","city":"Iringa","latitude":"7.23S","longitude":"36.49E"}
{"date":"2013-09-01","average_temperature":"27.986","city":"Irving","latitude":"32.95N","longitude":"96.70W"}
{"date":"2010-12-01","average_temperature":"5.7189999999999985","city":"Isesaki","latitude":"36.17N","longitude":"139.23E"}
{"date":"2011-10-01","average_temperature":"15.488","city":"Isesaki","latitude":"36.17N","longitude":"139.23E"}
{"date":"2010-07-01","average_temperature":"27.936999999999998","city":"Ismailia","latitude":"31.35N","longitude":"32.04E"}
{"date":"2013-05-01","average_temperature":"24.44","city":"Itabuna","latitude":"15.27S","longitude":"39.17W"}
{"date":"2010-11-01","average_temperature":"18.433","city":"Itagüí","latitude":"5.63N","longitude":"75.87W"}
{"date":"2013-06-01","average_temperature":"20.36","city":"Itagüí","latitude":"5.63N","longitude":"75.87W"}
{"date":"2010-10-01","average_temperature":"20.344","city":"Itaguaí","latitude":"23.31S","longitude":"44.56W"}
{"date":"2010-05-01","average_temperature":"18.679000000000002","city":"Itapecerica Da Serra","latitude":"23.31S","longitude":"46.31W"}
{"date":"2010-08-01","average_temperature":"17.852999999999998","city":"Itapecerica Da Serra","latitude":"23.31S","longitude":"46.31W"}
{"date":"2013-05-01","average_temperature":"18.317","city":"Itapevi","latitude":"23.31S","longitude":"46.31W"}
{"date":"2013-04-01","average_temperature":"30.526","city":"Itarsi","latitude":"23.31N","longitude":"77.77E"}
{"date":"2011-03-01","average_temperature":"2.766","city":"Iwaki","latitude":"37.78N","longitude":"140.34E"}
{"date":"2013-03-01","average_temperature":"24.738000000000003","city":"Jaú","latitude":"21.70S","longitude":"49.33W"}
{"date":"2013-01-01","average_temperature":"9.179","city":"Jackson","latitude":"32.95N","longitude":"90.96W"}
{"date":"2010-08-01","average_temperature":"30.217","city":"Jalandhar","latitude":"31.35N","longitude":"75.39E"}
{"date":"2011-12-01","average_temperature":"14.378","city":"Jalandhar","latitude":"31.35N","longitude":"75.39E"}
{"date":"2012-10-01","average_temperature":"28.008000000000006","city":"Jamnagar","latitude":"21.70N","longitude":"70.10E"}
{"date":"2012-10-01","average_temperature":"21.653000000000002","city":"Jaraguá Do Sul","latitude":"26.52S","longitude":"48.36W"}
{"date":"2010-02-01","average_temperature":"26.296","city":"Jequié","latitude":"13.66S","longitude":"40.46W"}
{"date":"2011-10-01","average_temperature":"6.897","city":"Jiamusi","latitude":"47.42N","longitude":"131.45E"}
{"date":"2010-09-01","average_temperature":"27.627","city":"Jiangmen","latitude":"23.31N","longitude":"112.72E"}
{"date":"2013-07-01","average_temperature":"30.623","city":"Jiaxing","latitude":"31.35N","longitude":"120.63E"}
{"date":"2012-04-01","average_temperature":"3.208","city":"Jiayuguan","latitude":"39.38N","longitude":"97.80E"}
{"date":"2012-08-01","average_temperature":"13.759","city":"Jiayuguan","latitude":"39.38N","longitude":"97.80E"}
{"date":"2012-08-01","average_temperature":"28.704","city":"Jiazi","latitude":"23.31N","longitude":"116.21E"}
{"date":"2012-10-01","average_temperature":"30.216","city":"Jibuti","latitude":"12.05N","longitude":"42.74E"}
{"date":"2010-10-01","average_temperature":"22.963","city":"Jieshi","latitude":"23.31N","longitude":"116.21E"}
{"date":"2010-05-01","average_temperature":"21.504","city":"Jimma","latitude":"7.23N","longitude":"36.49E"}
{"date":"2012-04-01","average_temperature":"21.535999999999998","city":"Jimma","latitude":"7.23N","longitude":"36.49E"}
{"date":"2011-08-01","average_temperature":"27.747","city":"Jinchengjiang","latitude":"24.92N","longitude":"108.18E"}
{"date":"2013-07-01","average_temperature":"25.096","city":"Jinzhou","latitude":"40.99N","longitude":"121.42E"}
{"date":"2011-01-01","average_temperature":"19.098000000000006","city":"Jiutepec","latitude":"18.48N","longitude":"99.72W"}
{"date":"2012-01-01","average_temperature":"19.099","city":"Jiutepec","latitude":"18.48N","longitude":"99.72W"}
{"date":"2011-03-01","average_temperature":"26.185","city":"Jodhpur","latitude":"26.52N","longitude":"73.43E"}
{"date":"2012-04-01","average_temperature":"27.152","city":"Jolo","latitude":"5.63N","longitude":"119.46E"}
{"date":"2011-03-01","average_temperature":"21.723000000000003","city":"Kabwe","latitude":"13.66S","longitude":"28.90E"}
{"date":"2013-05-01","average_temperature":"18.298","city":"Kadoma","latitude":"18.48S","longitude":"30.42E"}
{"date":"2011-01-01","average_temperature":"24.338","city":"Kaduna","latitude":"10.45N","longitude":"7.36E"}
{"date":"2012-10-01","average_temperature":"16.897000000000002","city":"Kaifeng","latitude":"34.56N","longitude":"114.81E"}
{"date":"2010-04-01","average_temperature":"14.220999999999998","city":"Kaili","latitude":"26.52N","longitude":"107.46E"}
{"date":"2012-10-01","average_temperature":"16.494","city":"Kaili","latitude":"26.52N","longitude":"107.46E"}
{"date":"2010-03-01","average_temperature":"5.095","city":"Kakamigahara","latitude":"36.17N","longitude":"137.24E"}
{"date":"2011-06-01","average_temperature":"21.436","city":"Kakamigahara","latitude":"36.17N","longitude":"137.24E"}
{"date":"2013-06-01","average_temperature":"30.68","city":"Kakinada","latitude":"16.87N","longitude":"82.05E"}
{"date":"2010-06-01","average_temperature":"30.489","city":"Kalmunai","latitude":"7.23N","longitude":"81.89E"}
{"date":"2011-09-01","average_temperature":"27.599","city":"Kalol","latitude":"23.31N","longitude":"72.52E"}
{"date":"2011-07-01","average_temperature":"32.325","city":"Kamalia","latitude":"31.35N","longitude":"73.51E"}
{"date":"2012-01-01","average_temperature":"24.53","city":"Kankan","latitude":"10.45N","longitude":"9.00W"}
{"date":"2012-01-01","average_temperature":"16.838","city":"Kaohsiung","latitude":"23.31N","longitude":"119.71E"}
{"date":"2010-10-01","average_temperature":"26.418000000000003","city":"Kapra","latitude":"16.87N","longitude":"78.70E"}
{"date":"2013-09-01","city":"Kapra","latitude":"16.87N","longitude":"78.70E"}
{"date":"2011-02-01","average_temperature":"21.609","city":"Karachi","latitude":"24.92N","longitude":"67.39E"}
{"date":"2011-12-01","average_temperature":"-12.571","city":"Karamay","latitude":"45.81N","longitude":"84.23E"}
{"date":"2013-07-01","average_temperature":"25.149","city":"Kashi","latitude":"39.38N","longitude":"76.99E"}
{"date":"2011-05-01","average_temperature":"30.826","city":"Katihar","latitude":"24.92N","longitude":"86.90E"}
{"date":"2013-01-01","average_temperature":"1.288","city":"Kawagoe","latitude":"36.17N","longitude":"139.23E"}
{"date":"2010-01-01","average_temperature":"2.608","city":"Kawaguchi","latitude":"36.17N","longitude":"139.23E"}
{"date":"2012-02-01","average_temperature":"-4.795","city":"Kayseri","latitude":"39.38N","longitude":"35.38E"}
{"date":"2011-11-01","average_temperature":"28.039","city":"Kediri","latitude":"7.23S","longitude":"112.70E"}
{"date":"2013-08-01","average_temperature":"26.535","city":"Kedungwuni","latitude":"7.23S","longitude":"109.46E"}
{"date":"2010-08-01","average_temperature":"28.951999999999998","city":"Kermanshah","latitude":"34.56N","longitude":"46.70E"}
{"date":"2012-02-01","average_temperature":"-19.24","city":"Khabarovsk","latitude":"49.03N","longitude":"134.69E"}
{"date":"2013-02-01","average_temperature":"17.557000000000002","city":"Khairpur","latitude":"28.13N","longitude":"68.18E"}
{"date":"2012-08-01","average_temperature":"26.217","city":"Khandwa","latitude":"21.70N","longitude":"77.02E"}
{"date":"2012-09-01","average_temperature":"25.785","city":"Khorramabad","latitude":"32.95N","longitude":"48.83E"}
{"date":"2013-08-01","average_temperature":"36.39","city":"Khorramshahr","latitude":"29.74N","longitude":"48.00E"}
{"date":"2012-06-01","average_temperature":"20.793000000000003","city":"Khoy","latitude":"37.78N","longitude":"44.75E"}
{"date":"2010-08-01","average_temperature":"30.369","city":"Khushab","latitude":"32.95N","longitude":"71.81E"}
{"date":"2013-09-01","city":"Kigoma","latitude":"4.02S","longitude":"29.73E"}
{"date":"2013-09-01","city":"Kikwit","latitude":"5.63S","longitude":"19.37E"}
{"date":"2010-07-01","average_temperature":"20.56","city":"Koblenz","latitude":"50.63N","longitude":"6.34E"}
{"date":"2010-09-01","average_temperature":"22.414","city":"Koganei","latitude":"36.17N","longitude":"139.23E"}
{"date":"2011-07-01","average_temperature":"27.574","city":"Kolar","latitude":"13.66N","longitude":"78.44E"}
{"date":"2010-02-01","average_temperature":"2.267","city":"Komatsu","latitude":"36.17N","longitude":"137.24E"}
{"date":"2011-03-01","average_temperature":"4.674","city":"Koshigaya","latitude":"36.17N","longitude":"139.23E"}
{"date":"2013-08-01","average_temperature":"26.364","city":"Koshigaya","latitude":"36.17N","longitude":"139.23E"}
{"date":"2012-08-01","average_temperature":"31.619","city":"Kot Addu","latitude":"29.74N","longitude":"70.15E"}
{"date":"2011-09-01","average_temperature":"28.122","city":"Kota","latitude":"24.92N","longitude":"76.26E"}
{"date":"2013-03-01","average_temperature":"25.89","city":"Kota","latitude":"24.92N","longitude":"76.26E"}
{"date":"2011-08-01","average_temperature":"18.229","city":"Kovrov","latitude":"57.05N","longitude":"42.79E"}
{"date":"2011-12-01","average_temperature":"19.751","city":"Krugersdorp","latitude":"26.52S","longitude":"28.66E"}
{"date":"2011-01-01","average_temperature":"8.971","city":"Kuhdasht","latitude":"32.95N","longitude":"46.91E"}
{"date":"2012-04-01","average_temperature":"30.581","city":"Kulti","latitude":"23.31N","longitude":"86.50E"}
{"date":"2011-01-01","average_temperature":"-35.758","city":"Kyzyl","latitude":"52.24N","longitude":"94.60E"}
{"date":"2011-02-01","average_temperature":"24.131999999999998","city":"La Rioja","latitude":"29.74S","longitude":"66.46W"}
{"date":"2011-05-01","average_temperature":"15.373","city":"La Rioja","latitude":"29.74S","longitude":"66.46W"}
{"date":"2013-07-01","average_temperature":"27.491999999999997","city":"Lafayette","latitude":"29.74N","longitude":"92.31W"}
{"date":"2010-03-01","average_temperature":"24.656999999999996","city":"Lahore","latitude":"31.35N","longitude":"73.51E"}
{"date":"2010-04-01","average_temperature":"8.168000000000001","city":"Lakewood","latitude":"39.38N","longitude":"104.05W"}
{"date":"2010-04-01","average_temperature":"11.097000000000001","city":"Langfang","latitude":"39.38N","longitude":"116.53E"}
{"date":"2012-07-01","average_temperature":"19.229","city":"Lanzhou","latitude":"36.17N","longitude":"103.43E"}
{"date":"2011-01-01","average_temperature":"26.24","city":"Lapu Lapu","latitude":"10.45N","longitude":"123.55E"}
{"date":"2010-09-01","average_temperature":"5.459","city":"Lasa","latitude":"29.74N","longitude":"90.46E"}
{"date":"2011-08-01","average_temperature":"6.638","city":"Lasa","latitude":"29.74N","longitude":"90.46E"}
{"date":"2012-02-01","average_temperature":"13.952","city":"León","latitude":"21.70N","longitude":"101.25W"}
{"date":"2010-12-01","average_temperature":"26.241999999999997","city":"León","latitude":"12.05N","longitude":"87.12W"}
{"date":"2013-05-01","average_temperature":"28.794","city":"León","latitude":"12.05N","longitude":"87.12W"}
{"date":"2010-03-01","average_temperature":"7.084","city":"Leghorn","latitude":"44.20N","longitude":"11.18E"}
{"date":"2010-12-01","average_temperature":"-5.1339999999999995","city":"Legnica","latitude":"50.63N","longitude":"16.48E"}
{"date":"2010-12-01","average_temperature":"8.448","city":"Leiyang","latitude":"26.52N","longitude":"112.84E"}
{"date":"2010-10-01","average_temperature":"17.042","city":"Lengshuijiang","latitude":"28.13N","longitude":"111.82E"}
{"date":"2011-12-01","average_temperature":"6.391","city":"Lengshuijiang","latitude":"28.13N","longitude":"111.82E"}
{"date":"2011-07-01","average_temperature":"23.1","city":"Leshan","latitude":"29.74N","longitude":"103.38E"}
{"date":"2011-04-01","average_temperature":"12.726","city":"Leverkusen","latitude":"50.63N","longitude":"6.34E"}
{"date":"2013-04-01","average_temperature":"8.374","city":"Leverkusen","latitude":"50.63N","longitude":"6.34E"}
{"date":"2010-04-01","average_temperature":"6.202000000000001","city":"Liaoyang","latitude":"40.99N","longitude":"123.55E"}
{"date":"2010-09-01","average_temperature":"23.865","city":"Likasi","latitude":"10.45S","longitude":"27.00E"}
{"date":"2010-11-01","average_temperature":"15.873","city":"Lima","latitude":"12.05S","longitude":"77.26W"}
{"date":"2010-07-01","average_temperature":"20.473","city":"Limeira","latitude":"21.70S","longitude":"47.60W"}
{"date":"2013-03-01","average_temperature":"24.021","city":"Limeira","latitude":"21.70S","longitude":"47.60W"}
{"date":"2010-10-01","average_temperature":"12.299000000000001","city":"Linxi","latitude":"39.38N","longitude":"118.61E"}
{"date":"2010-05-01","average_temperature":"13.585999999999999","city":"Linxia","latitude":"36.17N","longitude":"103.43E"}
{"date":"2013-07-01","average_temperature":"19.659000000000002","city":"Linz","latitude":"49.03N","longitude":"14.69E"}
{"date":"2011-04-01","average_temperature":"18.866","city":"Little Rock","latitude":"34.56N","longitude":"91.46W"}
{"date":"2010-04-01","average_temperature":"19.722","city":"Liusha","latitude":"23.31N","longitude":"116.21E"}
{"date":"2010-09-01","average_temperature":"27.109","city":"Loa Janan","latitude":"0.80S","longitude":"116.52E"}
{"date":"2012-01-01","average_temperature":"24.104","city":"Lobito","latitude":"12.05S","longitude":"13.15E"}
{"date":"2012-02-01","average_temperature":"3.7230000000000003","city":"London","latitude":"52.24N","longitude":"0.00W"}
{"date":"2011-09-01","average_temperature":"14.499","city":"Longfeng","latitude":"45.81N","longitude":"125.77E"}
{"date":"2011-11-01","average_temperature":"-4.691","city":"Longfeng","latitude":"45.81N","longitude":"125.77E"}
{"date":"2012-01-01","average_temperature":"13.701","city":"Loni","latitude":"28.13N","longitude":"77.27E"}
{"date":"2012-04-01","average_temperature":"14.082","city":"Lower Hutt","latitude":"40.99S","longitude":"174.67E"}
{"date":"2013-03-01","average_temperature":"24.206999999999997","city":"Lubango","latitude":"15.27S","longitude":"14.17E"}
{"date":"2012-12-01","average_temperature":"6.648","city":"Lubbock","latitude":"32.95N","longitude":"102.45W"}
{"date":"2010-08-01","average_temperature":"28.75","city":"Luchou","latitude":"24.92N","longitude":"120.59E"}
{"date":"2010-03-01","average_temperature":"13.981","city":"Málaga","latitude":"36.17N","longitude":"3.98W"}
{"date":"2012-01-01","average_temperature":"12.477","city":"Málaga","latitude":"36.17N","longitude":"3.98W"}
{"date":"2011-10-01","average_temperature":"18.937","city":"Médéa","latitude":"36.17N","longitude":"1.99E"}
{"date":"2013-05-01","average_temperature":"29.552","city":"Mabalacat","latitude":"15.27N","longitude":"120.83E"}
{"date":"2012-12-01","average_temperature":"-0.726","city":"Madison","latitude":"42.59N","longitude":"89.45W"}
{"date":"2012-08-01","average_temperature":"23.021","city":"Madrid","latitude":"40.99N","longitude":"4.26W"}
{"date":"2012-02-01","average_temperature":"25.513","city":"Maisuru","latitude":"12.05N","longitude":"77.26E"}
{"date":"2010-06-01","average_temperature":"23.299","city":"Makhachkala","latitude":"42.59N","longitude":"48.00E"}
{"date":"2011-09-01","average_temperature":"27.206000000000003","city":"Malambo","latitude":"10.45N","longitude":"74.45W"}
{"date":"2011-05-01","average_temperature":"18.617","city":"Malatya","latitude":"37.78N","longitude":"38.64E"}
{"date":"2011-07-01","average_temperature":"31.158","city":"Malatya","latitude":"37.78N","longitude":"38.64E"}
{"date":"2012-12-01","average_temperature":"26.198","city":"Managua","latitude":"12.05N","longitude":"85.48W"}
{"date":"2013-03-01","average_temperature":"29.055","city":"Mandalay","latitude":"21.70N","longitude":"96.06E"}
{"date":"2012-09-01","average_temperature":"27.231","city":"Mandsaur","latitude":"24.92N","longitude":"74.48E"}
{"date":"2011-07-01","average_temperature":"25.057","city":"Mandya","latitude":"12.05N","longitude":"77.26E"}
{"date":"2013-04-01","average_temperature":"29.593000000000004","city":"Mandya","latitude":"12.05N","longitude":"77.26E"}
{"date":"2010-04-01","average_temperature":"29.615","city":"Mangaluru","latitude":"13.66N","longitude":"75.14E"}
{"date":"2012-08-01","average_temperature":"20.269","city":"Manizales","latitude":"5.63N","longitude":"75.87W"}
{"date":"2010-11-01","average_temperature":"5.697","city":"Mannheim","latitude":"49.03N","longitude":"7.35E"}
{"date":"2012-04-01","average_temperature":"23.206999999999997","city":"Manzanillo","latitude":"18.48N","longitude":"104.79W"}
{"date":"2011-05-01","average_temperature":"20.022","city":"Maputo","latitude":"26.52S","longitude":"32.24E"}
{"date":"2012-02-01","average_temperature":"25.495","city":"Maracay","latitude":"10.45N","longitude":"67.91W"}
{"date":"2012-02-01","average_temperature":"7.231999999999998","city":"Mardan","latitude":"34.56N","longitude":"72.00E"}
{"date":"2012-12-01","average_temperature":"3.015","city":"Marivan","latitude":"36.17N","longitude":"45.75E"}
{"date":"2013-04-01","average_temperature":"32.485","city":"Maroua","latitude":"10.45N","longitude":"13.91E"}
{"date":"2011-06-01","average_temperature":"26.691","city":"Marrakesh","latitude":"31.35N","longitude":"7.54W"}
{"date":"2013-04-01","average_temperature":"13.782","city":"Marseille","latitude":"42.59N","longitude":"6.55E"}
{"date":"2012-06-01","average_temperature":"27.241","city":"Martapura","latitude":"4.02S","longitude":"114.91E"}
{"date":"2011-02-01","average_temperature":"1.975","city":"Matsumoto","latitude":"36.17N","longitude":"137.24E"}
{"date":"2012-01-01","average_temperature":"15.302999999999999","city":"Mau","latitude":"26.52N","longitude":"84.18E"}
{"date":"2010-09-01","average_temperature":"27.662","city":"Mawlamyine","latitude":"16.87N","longitude":"97.12E"}
{"date":"2011-03-01","average_temperature":"4.018","city":"Maykop","latitude":"44.20N","longitude":"40.25E"}
{"date":"2013-02-01","average_temperature":"18.04","city":"Meilu","latitude":"21.70N","longitude":"109.90E"}
{"date":"2013-05-01","average_temperature":"27.127","city":"Mejicanos","latitude":"13.66N","longitude":"90.00W"}
{"date":"2011-03-01","average_temperature":"21.221","city":"Mercedes","latitude":"32.95S","longitude":"66.06W"}
{"date":"2012-11-01","average_temperature":"17.723","city":"Mesa","latitude":"32.95N","longitude":"112.02W"}
{"date":"2011-07-01","average_temperature":"32.697","city":"Mesquite","latitude":"32.95N","longitude":"96.70W"}
{"date":"2010-06-01","average_temperature":"24.121","city":"Metepec","latitude":"18.48N","longitude":"99.72W"}
{"date":"2010-11-01","average_temperature":"26.476999999999997","city":"Metro","latitude":"5.63S","longitude":"104.93E"}
{"date":"2010-09-01","average_temperature":"13.459000000000001","city":"Metz","latitude":"49.03N","longitude":"7.35E"}
{"date":"2011-03-01","average_temperature":"24.784000000000002","city":"Minatitlán","latitude":"18.48N","longitude":"94.65W"}
{"date":"2012-05-01","average_temperature":"22.84","city":"Mingshui","latitude":"36.17N","longitude":"117.35E"}
{"date":"2011-10-01","average_temperature":"22.522","city":"Misratah","latitude":"32.95N","longitude":"14.36E"}
{"date":"2013-02-01","average_temperature":"19.029","city":"Mixco","latitude":"15.27N","longitude":"90.83W"}
{"date":"2012-09-01","average_temperature":"18.942999999999998","city":"Modena","latitude":"44.20N","longitude":"11.18E"}
{"date":"2010-08-01","average_temperature":"16.863999999999994","city":"Moers","latitude":"50.63N","longitude":"6.34E"}
{"date":"2012-09-01","average_temperature":"29.206","city":"Moga","latitude":"31.35N","longitude":"75.39E"}
{"date":"2013-01-01","average_temperature":"26.535999999999998","city":"Monrovia","latitude":"7.23N","longitude":"10.54W"}
{"date":"2011-11-01","average_temperature":"26.626","city":"Montalban","latitude":"15.27N","longitude":"120.83E"}
{"date":"2010-07-01","average_temperature":"28.069000000000003","city":"Monterrey","latitude":"26.52N","longitude":"100.30W"}
{"date":"2012-10-01","average_temperature":"26.56","city":"Mormugao","latitude":"15.27N","longitude":"74.17E"}
{"date":"2013-08-01","average_temperature":"27.964","city":"Morvi","latitude":"23.31N","longitude":"70.78E"}
{"date":"2010-06-01","average_temperature":"22.873","city":"Mostar","latitude":"42.59N","longitude":"17.45E"}
{"date":"2011-02-01","average_temperature":"17.044999999999998","city":"Multan","latitude":"29.74N","longitude":"72.00E"}
{"date":"2010-11-01","average_temperature":"11.062000000000001","city":"Murcia","latitude":"37.78N","longitude":"2.03W"}
{"date":"2011-03-01","average_temperature":"21.821","city":"Muzaffarnagar","latitude":"29.74N","longitude":"77.54E"}
{"date":"2013-08-01","average_temperature":"29.008000000000003","city":"Muzaffarpur","latitude":"26.52N","longitude":"85.97E"}
{"date":"2010-08-01","average_temperature":"25.079","city":"Mwene Ditu","latitude":"7.23S","longitude":"23.51E"}
{"date":"2010-02-01","average_temperature":"21.396","city":"Nagda","latitude":"23.31N","longitude":"76.02E"}
{"date":"2012-09-01","average_temperature":"13.653","city":"Nancha","latitude":"47.42N","longitude":"129.08E"}
{"date":"2012-04-01","average_temperature":"8.933","city":"Nancy","latitude":"49.03N","longitude":"7.35E"}
{"date":"2011-09-01","average_temperature":"27.226","city":"Nanded","latitude":"18.48N","longitude":"77.75E"}
{"date":"2013-03-01","average_temperature":"29.465999999999998","city":"Nanded","latitude":"18.48N","longitude":"77.75E"}
{"date":"2013-08-01","average_temperature":"27.186999999999998","city":"Nandurbar","latitude":"21.70N","longitude":"73.56E"}
{"date":"2012-05-01","average_temperature":"34.448","city":"Nangloi Jat","latitude":"28.13N","longitude":"77.27E"}
{"date":"2012-02-01","average_temperature":"12.294","city":"Nanning","latitude":"23.31N","longitude":"107.48E"}
{"date":"2011-10-01","average_temperature":"14.334000000000001","city":"Nashville","latitude":"36.17N","longitude":"87.51W"}
{"date":"2012-02-01","average_temperature":"22.408","city":"Navadwip","latitude":"23.31N","longitude":"88.25E"}
{"date":"2011-01-01","average_temperature":"-25.304","city":"Nehe","latitude":"49.03N","longitude":"124.90E"}
{"date":"2012-07-01","average_temperature":"11.562","city":"Nelspruit","latitude":"24.92S","longitude":"30.15E"}
{"date":"2011-08-01","average_temperature":"6.0600000000000005","city":"Neuquen","latitude":"39.38S","longitude":"68.67W"}
{"date":"2012-03-01","average_temperature":"8.16","city":"Neuss","latitude":"50.63N","longitude":"6.34E"}
{"date":"2012-09-01","average_temperature":"13.822","city":"Neuss","latitude":"50.63N","longitude":"6.34E"}
{"date":"2012-11-01","average_temperature":"26.603","city":"Neyveli","latitude":"12.05N","longitude":"78.90E"}
{"date":"2010-03-01","average_temperature":"4.648","city":"Nice","latitude":"44.20N","longitude":"6.71E"}
{"date":"2010-10-01","average_temperature":"15.228","city":"Nicolás Romero","latitude":"20.09N","longitude":"98.96W"}
{"date":"2010-09-01","average_temperature":"22.414","city":"Niiza","latitude":"36.17N","longitude":"139.23E"}
{"date":"2011-10-01","average_temperature":"15.488","city":"Niiza","latitude":"36.17N","longitude":"139.23E"}
{"date":"2010-01-01","average_temperature":"-1.16","city":"Nijmegen","latitude":"52.24N","longitude":"5.26E"}
{"date":"2012-12-01","average_temperature":"4.303","city":"Nijmegen","latitude":"52.24N","longitude":"5.26E"}
{"date":"2011-02-01","average_temperature":"-17.587","city":"Nizhnevartovsk","latitude":"60.27N","longitude":"77.84E"}
{"date":"2011-07-01","average_temperature":"14.236","city":"Nizhnevartovsk","latitude":"60.27N","longitude":"77.84E"}
{"date":"2013-03-01","average_temperature":"-9.562000000000001","city":"Nizhniy Tagil","latitude":"57.05N","longitude":"60.49E"}
{"date":"2012-12-01","average_temperature":"27.215","city":"Nonthaburi","latitude":"13.66N","longitude":"99.91E"}
{"date":"2013-02-01","average_temperature":"19.274","city":"North Shore","latitude":"36.17S","longitude":"175.03E"}
{"date":"2012-07-01","average_temperature":"26.394","city":"Nueva San Salvador","latitude":"13.66N","longitude":"90.00W"}
{"date":"2013-02-01","average_temperature":"1.853","city":"Nyíregyháza","latitude":"47.42N","longitude":"22.50E"}
{"date":"2011-06-01","average_temperature":"17.544","city":"Oakland","latitude":"37.78N","longitude":"122.03W"}
{"date":"2013-06-01","average_temperature":"26.368000000000002","city":"Obosi","latitude":"5.63N","longitude":"6.46E"}
{"date":"2012-09-01","average_temperature":"25.939","city":"Ocumare Del Tuy","latitude":"10.45N","longitude":"66.27W"}
{"date":"2011-06-01","average_temperature":"27.008000000000006","city":"Offa","latitude":"8.84N","longitude":"4.05E"}
{"date":"2011-09-01","average_temperature":"29.856","city":"Okara","latitude":"31.35N","longitude":"73.51E"}
{"date":"2011-04-01","average_temperature":"11.456","city":"Olomouc","latitude":"49.03N","longitude":"17.14E"}
{"date":"2011-09-01","average_temperature":"16.383000000000006","city":"Olomouc","latitude":"49.03N","longitude":"17.14E"}
{"date":"2010-04-01","average_temperature":"29.412","city":"Olongapo","latitude":"15.27N","longitude":"120.83E"}
{"date":"2011-12-01","average_temperature":"-0.5899999999999999","city":"Omaha","latitude":"40.99N","longitude":"95.86W"}
{"date":"2012-12-01","average_temperature":"27.418000000000003","city":"Ondo","latitude":"7.23N","longitude":"4.05E"}
{"date":"2010-04-01","average_temperature":"13.572000000000001","city":"Ontario","latitude":"34.56N","longitude":"116.76W"}
{"date":"2013-07-01","average_temperature":"26.776999999999997","city":"Opobo","latitude":"4.02N","longitude":"7.23E"}
{"date":"2010-03-01","average_temperature":"-2.2440000000000007","city":"Orekhovo Zuevo","latitude":"55.45N","longitude":"39.69E"}
{"date":"2011-06-01","average_temperature":"9.262","city":"Orkney","latitude":"26.52S","longitude":"26.87E"}
{"date":"2013-07-01","average_temperature":"11.508","city":"Orkney","latitude":"26.52S","longitude":"26.87E"}
{"date":"2011-06-01","average_temperature":"5.824999999999998","city":"Oruro","latitude":"18.48S","longitude":"67.61W"}
{"date":"2012-01-01","average_temperature":"21.566999999999997","city":"Osasco","latitude":"23.31S","longitude":"46.31W"}
{"date":"2012-12-01","average_temperature":"-9.692","city":"Oslo","latitude":"60.27N","longitude":"9.73E"}
{"date":"2012-06-01","average_temperature":"14.889000000000001","city":"Osnabrück","latitude":"52.24N","longitude":"7.88E"}
{"date":"2013-05-01","average_temperature":"7.6739999999999995","city":"Osorno","latitude":"40.99S","longitude":"72.43W"}
{"date":"2010-03-01","average_temperature":"-0.914","city":"Otaru","latitude":"42.59N","longitude":"141.82E"}
{"date":"2013-07-01","average_temperature":"20.116","city":"Otaru","latitude":"42.59N","longitude":"141.82E"}
{"date":"2010-10-01","average_temperature":"6.6370000000000005","city":"Ottawa","latitude":"45.81N","longitude":"75.00W"}
{"date":"2012-12-01","average_temperature":"25.969","city":"Ouagadougou","latitude":"12.05N","longitude":"1.64W"}
{"date":"2011-10-01","average_temperature":"5.7799999999999985","city":"Oulu","latitude":"65.09N","longitude":"24.89E"}
{"date":"2011-10-01","average_temperature":"26.516","city":"Owerri","latitude":"5.63N","longitude":"6.46E"}
{"date":"2010-04-01","average_temperature":"29.387","city":"Oyo","latitude":"7.23N","longitude":"4.05E"}
{"date":"2011-04-01","average_temperature":"28.71","city":"Oyo","latitude":"7.23N","longitude":"4.05E"}
{"date":"2011-01-01","average_temperature":"25.52","city":"Pétionville","latitude":"18.48N","longitude":"72.68W"}
{"date":"2012-06-01","average_temperature":"28.65","city":"Pétionville","latitude":"18.48N","longitude":"72.68W"}
{"date":"2011-05-01","average_temperature":"27.048000000000002","city":"Pagadian","latitude":"7.23N","longitude":"124.05E"}
{"date":"2012-06-01","average_temperature":"19.269000000000002","city":"Palhoça","latitude":"28.13S","longitude":"48.18W"}
{"date":"2013-09-01","city":"Pallavaram","latitude":"13.66N","longitude":"80.09E"}
{"date":"2011-07-01","average_temperature":"26.578000000000003","city":"Palmas","latitude":"10.45S","longitude":"48.27W"}
{"date":"2011-11-01","average_temperature":"26.253","city":"Palo Negro","latitude":"10.45N","longitude":"67.91W"}
{"date":"2010-02-01","average_temperature":"29.048","city":"Panamá","latitude":"8.84N","longitude":"80.27W"}
{"date":"2010-03-01","average_temperature":"24.769000000000002","city":"Paranaguá","latitude":"24.92S","longitude":"47.88W"}
{"date":"2010-03-01","average_temperature":"7.221999999999999","city":"Paris","latitude":"49.03N","longitude":"2.45E"}
{"date":"2012-06-01","average_temperature":"28.693","city":"Parnaíba","latitude":"2.41S","longitude":"40.98W"}
{"date":"2012-03-01","average_temperature":"27.276999999999997","city":"Parnamirim","latitude":"5.63S","longitude":"35.52W"}
{"date":"2012-10-01","average_temperature":"27.316999999999997","city":"Parung","latitude":"5.63S","longitude":"106.55E"}
{"date":"2011-01-01","average_temperature":"10.302999999999999","city":"Pasadena","latitude":"29.74N","longitude":"96.00W"}
{"date":"2012-02-01","average_temperature":"26.186","city":"Pati","latitude":"7.23S","longitude":"111.08E"}
{"date":"2012-07-01","average_temperature":"33.55","city":"Patiala","latitude":"29.74N","longitude":"75.69E"}
{"date":"2013-08-01","average_temperature":"30.708","city":"Patiala","latitude":"29.74N","longitude":"75.69E"}
{"date":"2013-08-01","average_temperature":"28.83","city":"Pembroke Pines","latitude":"26.52N","longitude":"80.60W"}
{"date":"2011-01-01","average_temperature":"25.927","city":"Perbaungan","latitude":"4.02N","longitude":"98.84E"}
{"date":"2010-10-01","average_temperature":"3.175","city":"Pervouralsk","latitude":"57.05N","longitude":"60.49E"}
{"date":"2011-06-01","average_temperature":"16.065","city":"Pervouralsk","latitude":"57.05N","longitude":"60.49E"}
{"date":"2012-09-01","average_temperature":"27.461","city":"Petrolina","latitude":"8.84S","longitude":"39.73W"}
{"date":"2011-07-01","average_temperature":"14.588","city":"Phalaborwa","latitude":"23.31S","longitude":"30.58E"}
{"date":"2013-07-01","average_temperature":"28.425","city":"Phan Thiet","latitude":"10.45N","longitude":"107.18E"}
{"date":"2010-01-01","average_temperature":"11.818","city":"Phoenix","latitude":"32.95N","longitude":"112.02W"}
{"date":"2011-09-01","average_temperature":"25.092","city":"Pimpri","latitude":"18.48N","longitude":"74.37E"}
{"date":"2012-11-01","average_temperature":"20.0","city":"Pingchen","latitude":"24.92N","longitude":"120.59E"}
{"date":"2013-03-01","average_temperature":"13.901","city":"Pingxiang","latitude":"28.13N","longitude":"113.64E"}
{"date":"2012-04-01","average_temperature":"9.161","city":"Pinsk","latitude":"52.24N","longitude":"26.28E"}
{"date":"2010-03-01","average_temperature":"6.147","city":"Pleven","latitude":"44.20N","longitude":"24.60E"}
{"date":"2012-08-01","average_temperature":"19.611","city":"Plock","latitude":"52.24N","longitude":"18.39E"}
{"date":"2011-06-01","average_temperature":"17.972","city":"Ploiesti","latitude":"45.81N","longitude":"26.54E"}
{"date":"2011-05-01","average_temperature":"14.505","city":"Plzen","latitude":"50.63N","longitude":"13.94E"}
{"date":"2010-03-01","average_temperature":"23.946","city":"Poços De Caldas","latitude":"21.70S","longitude":"45.87W"}
{"date":"2012-02-01","average_temperature":"-12.533","city":"Podolsk","latitude":"55.45N","longitude":"36.85E"}
{"date":"2011-04-01","average_temperature":"16.241999999999994","city":"Pokhara","latitude":"28.13N","longitude":"84.55E"}
{"date":"2012-03-01","average_temperature":"12.909","city":"Pokhara","latitude":"28.13N","longitude":"84.55E"}
{"date":"2010-07-01","average_temperature":"26.842","city":"Pontianak","latitude":"0.80S","longitude":"110.09E"}
{"date":"2010-04-01","average_temperature":"9.039","city":"Poole","latitude":"50.63N","longitude":"1.27W"}
{"date":"2013-08-01","average_temperature":"17.424","city":"Poole","latitude":"50.63N","longitude":"1.27W"}
{"date":"2011-11-01","average_temperature":"26.843000000000004","city":"Porbandar","latitude":"21.70N","longitude":"70.10E"}
{"date":"2011-02-01","average_temperature":"20.123","city":"Port Elizabeth","latitude":"34.56S","longitude":"25.30E"}
{"date":"2013-03-01","average_temperature":"17.764","city":"Port Saint Lucie","latitude":"26.52N","longitude":"80.60W"}
{"date":"2010-03-01","average_temperature":"21.33","city":"Potchefstroom","latitude":"26.52S","longitude":"26.87E"}
{"date":"2013-03-01","average_temperature":"26.342","city":"Prabumulih","latitude":"4.02S","longitude":"103.66E"}
{"date":"2010-03-01","average_temperature":"4.105","city":"Prague","latitude":"50.63N","longitude":"13.94E"}
{"date":"2011-02-01","average_temperature":"26.484","city":"Pringsewu","latitude":"5.63S","longitude":"104.93E"}
{"date":"2011-04-01","average_temperature":"8.790000000000001","city":"Puerto Montt","latitude":"40.99S","longitude":"72.43W"}
{"date":"2010-07-01","average_temperature":"-0.395","city":"Punta Arenas","latitude":"52.24S","longitude":"70.95W"}
{"date":"2012-11-01","average_temperature":"11.214","city":"Puqi","latitude":"29.74N","longitude":"114.46E"}
{"date":"2012-11-01","average_temperature":"19.261","city":"Purnia","latitude":"26.52N","longitude":"87.76E"}
{"date":"2013-02-01","average_temperature":"25.502","city":"Purwakarta","latitude":"7.23S","longitude":"107.84E"}
{"date":"2011-12-01","average_temperature":"26.724","city":"Purwodadi","latitude":"7.23S","longitude":"111.08E"}
{"date":"2013-05-01","average_temperature":"27.215","city":"Purwokerto","latitude":"7.23S","longitude":"109.46E"}
{"date":"2012-03-01","average_temperature":"14.812000000000001","city":"Qabis","latitude":"34.56N","longitude":"9.73E"}
{"date":"2013-07-01","average_temperature":"30.675","city":"Qabis","latitude":"34.56N","longitude":"9.73E"}
{"date":"2011-01-01","average_temperature":"6.442","city":"Qandahar","latitude":"31.35N","longitude":"65.97E"}
{"date":"2012-02-01","average_temperature":"5.473999999999998","city":"Qandahar","latitude":"31.35N","longitude":"65.97E"}
{"date":"2012-09-01","average_temperature":"22.501","city":"Qarchak","latitude":"36.17N","longitude":"51.71E"}
{"date":"2010-03-01","average_temperature":"8.815","city":"Qazvin","latitude":"36.17N","longitude":"49.72E"}
{"date":"2011-04-01","average_temperature":"23.809","city":"Qena","latitude":"26.52N","longitude":"32.24E"}
{"date":"2011-04-01","average_temperature":"14.311","city":"Queenstown","latitude":"31.35S","longitude":"26.39E"}
{"date":"2010-08-01","average_temperature":"19.375","city":"Querétaro","latitude":"20.09N","longitude":"100.66W"}
{"date":"2011-06-01","average_temperature":"12.438","city":"Quilpue","latitude":"32.95S","longitude":"71.81W"}
{"date":"2013-05-01","average_temperature":"13.742","city":"Quilpue","latitude":"32.95S","longitude":"71.81W"}
{"date":"2013-07-01","average_temperature":"12.012","city":"Quilpue","latitude":"32.95S","longitude":"71.81W"}
{"date":"2011-06-01","average_temperature":"33.709","city":"Rabak","latitude":"13.66N","longitude":"32.20E"}
{"date":"2013-04-01","average_temperature":"29.119","city":"Rae Bareli","latitude":"26.52N","longitude":"80.60E"}
{"date":"2012-12-01","average_temperature":"6.959","city":"Rafsanjan","latitude":"29.74N","longitude":"55.38E"}
{"date":"2013-03-01","average_temperature":"12.274","city":"Rafsanjan","latitude":"29.74N","longitude":"55.38E"}
{"date":"2011-12-01","average_temperature":"20.133","city":"Raigarh","latitude":"21.70N","longitude":"83.94E"}
{"date":"2012-08-01","average_temperature":"27.538","city":"Raigarh","latitude":"21.70N","longitude":"83.94E"}
{"date":"2011-10-01","average_temperature":"28.21","city":"Rajkot","latitude":"21.70N","longitude":"70.10E"}
{"date":"2010-07-01","average_temperature":"25.267","city":"Rancaekek","latitude":"7.23S","longitude":"107.84E"}
{"date":"2011-10-01","average_temperature":"7.371","city":"Ranghulu","latitude":"47.42N","longitude":"124.34E"}
{"date":"2010-06-01","average_temperature":"31.225","city":"Raurkela","latitude":"21.70N","longitude":"85.67E"}
{"date":"2012-11-01","average_temperature":"22.435","city":"Raurkela","latitude":"21.70N","longitude":"85.67E"}
{"date":"2012-09-01","average_temperature":"25.902","city":"Rawang","latitude":"4.02N","longitude":"102.05E"}
{"date":"2011-03-01","average_temperature":"7.673999999999999","city":"Reims","latitude":"49.03N","longitude":"4.90E"}
{"date":"2012-06-01","average_temperature":"17.244","city":"Reutlingen","latitude":"49.03N","longitude":"9.80E"}
{"date":"2011-05-01","average_temperature":"4.236000000000001","city":"Reykjavík","latitude":"65.09N","longitude":"21.06W"}
{"date":"2013-07-01","average_temperature":"10.279000000000002","city":"Reykjavík","latitude":"65.09N","longitude":"21.06W"}
{"date":"2010-04-01","average_temperature":"16.055","city":"Richmond","latitude":"37.78N","longitude":"77.29W"}
{"date":"2012-10-01","average_temperature":"27.803","city":"Rondonópolis","latitude":"16.87S","longitude":"55.26W"}
{"date":"2012-02-01","average_temperature":"6.939","city":"Rongcheng","latitude":"26.52N","longitude":"103.88E"}
{"date":"2011-01-01","average_temperature":"-4.8100000000000005","city":"Rostov Na Donu","latitude":"47.42N","longitude":"39.08E"}
{"date":"2011-09-01","average_temperature":"24.713","city":"Ruian","latitude":"28.13N","longitude":"120.91E"}
{"date":"2012-12-01","average_temperature":"24.51","city":"São Bernardo Do Campo","latitude":"23.31S","longitude":"46.31W"}
{"date":"2010-06-01","average_temperature":"19.37","city":"São José","latitude":"28.13S","longitude":"48.18W"}
{"date":"2013-06-01","average_temperature":"18.124000000000002","city":"São José Dos Campos","latitude":"23.31S","longitude":"46.31W"}
{"date":"2010-04-01","average_temperature":"27.346999999999998","city":"São Luís","latitude":"2.41S","longitude":"44.20W"}
{"date":"2010-11-01","average_temperature":"21.508000000000003","city":"São Paulo","latitude":"23.31S","longitude":"46.31W"}
{"date":"2010-07-01","average_temperature":"25.434","city":"Sabadell","latitude":"40.99N","longitude":"2.13E"}
{"date":"2012-02-01","average_temperature":"8.477","city":"Sabadell","latitude":"40.99N","longitude":"2.13E"}
{"date":"2013-03-01","average_temperature":"23.435","city":"Sabará","latitude":"20.09S","longitude":"44.36W"}
{"date":"2012-03-01","average_temperature":"17.275000000000002","city":"Sabha","latitude":"26.52N","longitude":"14.33E"}
{"date":"2011-04-01","average_temperature":"18.078","city":"Safaqis","latitude":"34.56N","longitude":"11.68E"}
{"date":"2013-04-01","average_temperature":"23.082","city":"Saint Petersburg","latitude":"28.13N","longitude":"82.73W"}
{"date":"2010-05-01","average_temperature":"10.179","city":"Salem","latitude":"44.20N","longitude":"122.98W"}
{"date":"2013-06-01","average_temperature":"21.723000000000003","city":"Salt Lake City","latitude":"40.99N","longitude":"112.90W"}
{"date":"2012-03-01","average_temperature":"16.881","city":"Salta","latitude":"24.92S","longitude":"65.62W"}
{"date":"2011-04-01","average_temperature":"19.898","city":"Salto","latitude":"31.35S","longitude":"58.43W"}
{"date":"2010-09-01","average_temperature":"21.002","city":"Samsun","latitude":"40.99N","longitude":"36.21E"}
{"date":"2010-08-01","average_temperature":"24.728","city":"San José","latitude":"10.45N","longitude":"84.27W"}
{"date":"2010-08-01","average_temperature":"19.436","city":"San Lorenzo","latitude":"24.92S","longitude":"56.75W"}
{"date":"2012-11-01","average_temperature":"22.81","city":"San Luis","latitude":"32.95S","longitude":"66.06W"}
{"date":"2010-06-01","average_temperature":"21.675","city":"San Luis Potosí","latitude":"21.70N","longitude":"101.25W"}
{"date":"2013-02-01","average_temperature":"27.042","city":"San Mateo","latitude":"15.27N","longitude":"120.83E"}
{"date":"2013-06-01","average_temperature":"29.680999999999997","city":"San Nicolás De Los Garza","latitude":"26.52N","longitude":"100.30W"}
{"date":"2013-08-01","average_temperature":"30.122","city":"San Nicolás De Los Garza","latitude":"26.52N","longitude":"100.30W"}
{"date":"2012-06-01","average_temperature":"28.214","city":"San Pablo","latitude":"13.66N","longitude":"121.38E"}
{"date":"2011-02-01","average_temperature":"14.557","city":"San Pablo De Las Salinas","latitude":"20.09N","longitude":"98.96W"}
{"date":"2010-10-01","average_temperature":"27.409000000000002","city":"San Pedro De Macorís","latitude":"18.48N","longitude":"69.30W"}
{"date":"2013-06-01","average_temperature":"8.863999999999999","city":"San Rafael","latitude":"34.56S","longitude":"68.11W"}
{"date":"2011-08-01","average_temperature":"26.581","city":"San Salvador","latitude":"13.66N","longitude":"90.00W"}
{"date":"2011-04-01","average_temperature":"13.157","city":"Sanandaj","latitude":"34.56N","longitude":"46.70E"}
{"date":"2011-06-01","average_temperature":"25.432","city":"Sanandaj","latitude":"34.56N","longitude":"46.70E"}
{"date":"2012-12-01","average_temperature":"16.13","city":"Sanhsia","latitude":"24.92N","longitude":"120.59E"}
{"date":"2012-10-01","average_temperature":"19.957","city":"Sanming","latitude":"26.52N","longitude":"118.21E"}
{"date":"2010-02-01","average_temperature":"25.032000000000004","city":"Santa Luzia","latitude":"20.09S","longitude":"44.36W"}
{"date":"2013-06-01","average_temperature":"27.405","city":"Santa Marta","latitude":"10.45N","longitude":"74.45W"}
{"date":"2011-07-01","average_temperature":"24.417","city":"Santa Rita","latitude":"7.23S","longitude":"34.86W"}
{"date":"2010-12-01","average_temperature":"21.725","city":"Santiago De Cuba","latitude":"20.09N","longitude":"75.07W"}
{"date":"2010-07-01","average_temperature":"21.48","city":"Santo Domingo","latitude":"0.80S","longitude":"79.55W"}
{"date":"2011-02-01","average_temperature":"24.412","city":"Santos","latitude":"23.31S","longitude":"46.31W"}
{"date":"2013-06-01","average_temperature":"26.368000000000002","city":"Sapele","latitude":"5.63N","longitude":"6.46E"}
{"date":"2010-08-01","average_temperature":"22.954","city":"Saransk","latitude":"53.84N","longitude":"45.00E"}
{"date":"2013-05-01","average_temperature":"33.457","city":"Sargodha","latitude":"31.35N","longitude":"73.51E"}
{"date":"2012-12-01","average_temperature":"10.992","city":"Sassari","latitude":"40.99N","longitude":"8.52E"}
{"date":"2011-06-01","average_temperature":"29.873","city":"Satkhira","latitude":"23.31N","longitude":"88.25E"}
{"date":"2013-03-01","average_temperature":"11.34","city":"Saveh","latitude":"34.56N","longitude":"50.59E"}
{"date":"2013-06-01","average_temperature":"18.114","city":"Semey","latitude":"50.63N","longitude":"79.86E"}
{"date":"2011-03-01","average_temperature":"3.3680000000000003","city":"Seoul","latitude":"37.78N","longitude":"126.10E"}
{"date":"2012-10-01","average_temperature":"14.493","city":"Seoul","latitude":"37.78N","longitude":"126.10E"}
{"date":"2010-07-01","average_temperature":"24.28","city":"Sergiyev Posad","latitude":"57.05N","longitude":"36.89E"}
{"date":"2011-01-01","average_temperature":"-9.25","city":"Sergiyev Posad","latitude":"57.05N","longitude":"36.89E"}
{"date":"2011-04-01","average_temperature":"9.03","city":"Shakhty","latitude":"47.42N","longitude":"39.08E"}
{"date":"2011-06-01","average_temperature":"27.361","city":"Shangqiu","latitude":"34.56N","longitude":"114.81E"}
{"date":"2012-11-01","average_temperature":"23.487","city":"Shantipur","latitude":"23.31N","longitude":"88.25E"}
{"date":"2010-06-01","average_temperature":"23.529","city":"Shaoxing","latitude":"29.74N","longitude":"120.00E"}
{"date":"2011-05-01","average_temperature":"24.947","city":"Shenzhen","latitude":"23.31N","longitude":"114.47E"}
{"date":"2012-11-01","average_temperature":"25.632","city":"Shimoga","latitude":"13.66N","longitude":"75.14E"}
{"date":"2011-06-01","average_temperature":"24.096","city":"Shizuishan","latitude":"39.38N","longitude":"106.13E"}
{"date":"2012-02-01","average_temperature":"-7.21","city":"Shizuishan","latitude":"39.38N","longitude":"106.13E"}
{"date":"2012-07-01","average_temperature":"24.265","city":"Shizuishan","latitude":"39.38N","longitude":"106.13E"}
{"date":"2012-10-01","average_temperature":"17.171","city":"Shreveport","latitude":"32.95N","longitude":"92.87W"}
{"date":"2013-02-01","average_temperature":"-16.209","city":"Shuangcheng","latitude":"45.81N","longitude":"125.77E"}
{"date":"2010-09-01","average_temperature":"14.652","city":"Shuangyashan","latitude":"47.42N","longitude":"131.45E"}
{"date":"2011-01-01","average_temperature":"-20.148000000000003","city":"Shuangyashan","latitude":"47.42N","longitude":"131.45E"}
{"date":"2011-01-01","average_temperature":"-3.793","city":"Shymkent","latitude":"42.59N","longitude":"69.82E"}
{"date":"2013-02-01","average_temperature":"29.180999999999997","city":"Si Racha","latitude":"13.66N","longitude":"101.56E"}
{"date":"2011-11-01","average_temperature":"11.642999999999999","city":"Simi Valley","latitude":"34.56N","longitude":"118.70W"}
{"date":"2011-09-01","average_temperature":"27.836","city":"Singkawang","latitude":"0.80N","longitude":"108.48E"}
{"date":"2012-05-01","average_temperature":"29.007","city":"Singkawang","latitude":"0.80N","longitude":"108.48E"}
{"date":"2012-05-01","average_temperature":"27.741999999999997","city":"Sobral","latitude":"4.02S","longitude":"40.98W"}
{"date":"2013-03-01","average_temperature":"28.076999999999998","city":"Sobral","latitude":"4.02S","longitude":"40.98W"}
{"date":"2010-06-01","average_temperature":"29.259","city":"Soc Trang","latitude":"8.84N","longitude":"106.22E"}
{"date":"2010-04-01","average_temperature":"10.098","city":"Sochi","latitude":"44.20N","longitude":"40.25E"}
{"date":"2011-01-01","average_temperature":"2.262","city":"Solingen","latitude":"50.63N","longitude":"6.34E"}
{"date":"2011-08-01","average_temperature":"12.713","city":"Somerset West","latitude":"34.56S","longitude":"19.46E"}
{"date":"2010-04-01","average_temperature":"9.039","city":"Southampton","latitude":"50.63N","longitude":"1.27W"}
{"date":"2012-04-01","average_temperature":"26.412000000000006","city":"Spanish Town","latitude":"18.48N","longitude":"77.75W"}
{"date":"2013-03-01","average_temperature":"15.13","city":"Spring Valley","latitude":"36.17N","longitude":"115.36W"}
{"date":"2011-10-01","average_temperature":"14.96","city":"Springfield","latitude":"37.78N","longitude":"93.56W"}
{"date":"2013-08-01","average_temperature":"24.568","city":"Springfield","latitude":"37.78N","longitude":"93.56W"}
{"date":"2010-07-01","average_temperature":"23.241","city":"Springfield","latitude":"42.59N","longitude":"72.00W"}
{"date":"2011-04-01","average_temperature":"14.817","city":"Springs","latitude":"26.52S","longitude":"28.66E"}
{"date":"2010-03-01","average_temperature":"9.682","city":"Srinagar","latitude":"34.56N","longitude":"73.95E"}
{"date":"2011-11-01","average_temperature":"-0.598","city":"Staryy Oskol","latitude":"50.63N","longitude":"36.76E"}
{"date":"2012-06-01","average_temperature":"10.920000000000002","city":"Stavanger","latitude":"58.66N","longitude":"6.15E"}
{"date":"2010-01-01","average_temperature":"1.14","city":"Stoke On Trent","latitude":"52.24N","longitude":"2.63W"}
{"date":"2011-01-01","average_temperature":"3.263","city":"Stoke On Trent","latitude":"52.24N","longitude":"2.63W"}
{"date":"2012-04-01","average_temperature":"25.644","city":"Subang","latitude":"7.23S","longitude":"107.84E"}
{"date":"2012-02-01","average_temperature":"26.691000000000006","city":"Sukabumi","latitude":"7.23S","longitude":"106.22E"}
{"date":"2010-11-01","average_temperature":"21.128","city":"Sullana","latitude":"5.63S","longitude":"80.72W"}
{"date":"2012-11-01","average_temperature":"22.726","city":"Sullana","latitude":"5.63S","longitude":"80.72W"}
{"date":"2012-07-01","average_temperature":"29.441","city":"Suzhou","latitude":"31.35N","longitude":"120.63E"}
{"date":"2013-05-01","average_temperature":"21.875","city":"Suzhou","latitude":"34.56N","longitude":"116.76E"}
{"date":"2010-05-01","average_temperature":"12.627","city":"Syktyvkar","latitude":"61.88N","longitude":"49.25E"}
{"date":"2010-10-01","average_temperature":"10.009","city":"Syracuse","latitude":"42.59N","longitude":"76.36W"}
{"date":"2011-02-01","average_temperature":"-0.04200000000000004","city":"Székesfehérvár","latitude":"47.42N","longitude":"17.76E"}
{"date":"2012-04-01","average_temperature":"15.23","city":"Tétouan","latitude":"36.17N","longitude":"5.97W"}
{"date":"2012-01-01","average_temperature":"-2.357","city":"Tabriz","latitude":"37.78N","longitude":"46.78E"}
{"date":"2012-08-01","average_temperature":"31.122","city":"Tabuk","latitude":"28.13N","longitude":"37.27E"}
{"date":"2010-12-01","average_temperature":"19.32","city":"Tacna","latitude":"18.48S","longitude":"70.99W"}
{"date":"2010-11-01","average_temperature":"27.237","city":"Taiping","latitude":"4.02N","longitude":"100.45E"}
{"date":"2012-08-01","average_temperature":"26.680999999999997","city":"Takasaki","latitude":"36.17N","longitude":"139.23E"}
{"date":"2012-08-01","average_temperature":"27.351999999999997","city":"Tallahassee","latitude":"29.74N","longitude":"84.92W"}
{"date":"2010-03-01","average_temperature":"31.999","city":"Tamale","latitude":"8.84N","longitude":"0.81W"}
{"date":"2013-01-01","average_temperature":"26.596","city":"Tanete","latitude":"5.63S","longitude":"119.46E"}
{"date":"2013-01-01","average_temperature":"-5.82","city":"Tanggu","latitude":"39.38N","longitude":"118.61E"}
{"date":"2013-03-01","average_temperature":"27.924","city":"Tanjung Morawa","latitude":"4.02N","longitude":"98.84E"}
{"date":"2010-09-01","average_temperature":"16.787","city":"Taonan","latitude":"45.81N","longitude":"123.46E"}
{"date":"2012-10-01","average_temperature":"6.104","city":"Taonan","latitude":"45.81N","longitude":"123.46E"}
{"date":"2012-10-01","average_temperature":"18.436","city":"Taranto","latitude":"40.99N","longitude":"17.04E"}
{"date":"2013-04-01","average_temperature":"9.181","city":"Tarnow","latitude":"50.63N","longitude":"21.55E"}
{"date":"2011-06-01","average_temperature":"23.215999999999998","city":"Tashkent","latitude":"40.99N","longitude":"70.30E"}
{"date":"2011-09-01","average_temperature":"24.638","city":"Taunggyi","latitude":"20.09N","longitude":"97.25E"}
{"date":"2013-08-01","average_temperature":"26.372","city":"Tawau","latitude":"4.02N","longitude":"118.13E"}
{"date":"2013-05-01","average_temperature":"22.439","city":"Teófilo Otoni","latitude":"18.48S","longitude":"42.25W"}
{"date":"2012-11-01","average_temperature":"13.084","city":"Tekirdag","latitude":"40.99N","longitude":"27.69E"}
{"date":"2012-02-01","average_temperature":"13.139","city":"Tempe","latitude":"32.95N","longitude":"112.02W"}
{"date":"2013-01-01","average_temperature":"9.58","city":"Tempe","latitude":"32.95N","longitude":"112.02W"}
{"date":"2010-05-01","average_temperature":"33.684","city":"Tenali","latitude":"16.87N","longitude":"80.37E"}
{"date":"2010-01-01","average_temperature":"17.988999999999994","city":"Tepic","latitude":"21.70N","longitude":"104.71W"}
{"date":"2013-02-01","average_temperature":"26.438000000000002","city":"Ternate","latitude":"0.80N","longitude":"127.77E"}
{"date":"2013-02-01","average_temperature":"3.577","city":"Terni","latitude":"42.59N","longitude":"13.09E"}
{"date":"2013-08-01","average_temperature":"28.513","city":"Thanesar","latitude":"29.74N","longitude":"77.54E"}
{"date":"2010-04-01","average_temperature":"30.792","city":"Thanyaburi","latitude":"13.66N","longitude":"101.56E"}
{"date":"2012-12-01","average_temperature":"-3.312","city":"Tighina","latitude":"47.42N","longitude":"29.61E"}
{"date":"2010-07-01","average_temperature":"27.456","city":"Timon","latitude":"5.63S","longitude":"43.59W"}
{"date":"2010-02-01","average_temperature":"3.306","city":"Toda","latitude":"36.17N","longitude":"139.23E"}
{"date":"2011-02-01","average_temperature":"3.734","city":"Toda","latitude":"36.17N","longitude":"139.23E"}
{"date":"2011-11-01","average_temperature":"8.151","city":"Toledo","latitude":"40.99N","longitude":"83.08W"}
{"date":"2013-03-01","average_temperature":"11.138","city":"Tongling","latitude":"31.35N","longitude":"118.74E"}
{"date":"2010-11-01","average_temperature":"5.526","city":"Tongzhou","latitude":"39.38N","longitude":"116.53E"}
{"date":"2010-08-01","average_temperature":"27.037","city":"Topeka","latitude":"39.38N","longitude":"95.72W"}
{"date":"2010-11-01","average_temperature":"16.66","city":"Torreón","latitude":"24.92N","longitude":"102.86W"}
{"date":"2011-05-01","average_temperature":"16.298000000000002","city":"Tours","latitude":"47.42N","longitude":"1.18E"}
{"date":"2013-03-01","average_temperature":"6.193","city":"Trieste","latitude":"45.81N","longitude":"12.69E"}
{"date":"2011-03-01","average_temperature":"-3.3539999999999996","city":"Trois Rivières","latitude":"45.81N","longitude":"72.69W"}
{"date":"2011-09-01","average_temperature":"26.009","city":"Tubruq","latitude":"31.35N","longitude":"24.50E"}
{"date":"2010-07-01","average_temperature":"28.23","city":"Tucson","latitude":"31.35N","longitude":"111.20W"}
{"date":"2012-10-01","average_temperature":"6.734","city":"Tula","latitude":"53.84N","longitude":"36.82E"}
{"date":"2011-09-01","average_temperature":"17.301","city":"Tulancingo","latitude":"20.09N","longitude":"98.96W"}
{"date":"2012-10-01","average_temperature":"16.844","city":"Tulancingo","latitude":"20.09N","longitude":"98.96W"}
{"date":"2013-08-01","average_temperature":"23.18","city":"Tuluá","latitude":"4.02N","longitude":"76.34W"}
{"date":"2011-05-01","average_temperature":"28.151999999999997","city":"Tuxtla Gutiérrez","latitude":"16.87N","longitude":"93.77W"}
{"date":"2013-09-01","city":"Tuzla","latitude":"44.20N","longitude":"17.89E"}
{"date":"2012-03-01","average_temperature":"-6.263000000000001","city":"Tyumen","latitude":"57.05N","longitude":"66.39E"}
{"date":"2013-03-01","average_temperature":"-10.033","city":"Tyumen","latitude":"57.05N","longitude":"66.39E"}
{"date":"2011-11-01","average_temperature":"-7.757000000000001","city":"Ufa","latitude":"55.45N","longitude":"56.69E"}
{"date":"2012-10-01","average_temperature":"5.349","city":"Ufa","latitude":"55.45N","longitude":"56.69E"}
{"date":"2013-07-01","average_temperature":"16.268","city":"Uitenhage","latitude":"34.56S","longitude":"25.30E"}
{"date":"2010-01-01","average_temperature":"17.852","city":"Ujjain","latitude":"23.31N","longitude":"76.02E"}
{"date":"2012-05-01","average_temperature":"8.797","city":"Ukhta","latitude":"63.49N","longitude":"52.20E"}
{"date":"2010-08-01","average_temperature":"29.618000000000002","city":"Unnao","latitude":"26.52N","longitude":"80.60E"}
{"date":"2010-06-01","average_temperature":"26.27","city":"Uromi","latitude":"7.23N","longitude":"5.68E"}
{"date":"2011-05-01","average_temperature":"17.23","city":"Uruguaiana","latitude":"29.74S","longitude":"57.23W"}
{"date":"2012-07-01","average_temperature":"28.98","city":"Vadodara","latitude":"21.70N","longitude":"73.56E"}
{"date":"2011-08-01","average_temperature":"19.389","city":"Vallejo","latitude":"37.78N","longitude":"122.03W"}
{"date":"2012-07-01","average_temperature":"16.514","city":"Vancouver","latitude":"45.81N","longitude":"123.46W"}
{"date":"2011-07-01","average_temperature":"7.3450000000000015","city":"Vanderbijlpark","latitude":"26.52S","longitude":"28.66E"}
{"date":"2011-12-01","average_temperature":"3.995","city":"Varamin","latitude":"36.17N","longitude":"51.71E"}
{"date":"2011-03-01","average_temperature":"27.14","city":"Veraval","latitude":"21.70N","longitude":"70.10E"}
{"date":"2011-02-01","average_temperature":"19.575","city":"Vereeniging","latitude":"26.52S","longitude":"28.66E"}
{"date":"2012-03-01","average_temperature":"19.097","city":"Vereeniging","latitude":"26.52S","longitude":"28.66E"}
{"date":"2011-07-01","average_temperature":"26.382","city":"Virar","latitude":"20.09N","longitude":"73.36E"}
{"date":"2013-07-01","average_temperature":"25.48","city":"Virar","latitude":"20.09N","longitude":"73.36E"}
{"date":"2010-05-01","average_temperature":"26.729","city":"Vitória De Santo Antão","latitude":"8.84S","longitude":"34.86W"}
{"date":"2011-03-01","average_temperature":"8.835","city":"Vitoria","latitude":"42.59N","longitude":"2.18W"}
{"date":"2012-11-01","average_temperature":"4.212","city":"Vladikavkaz","latitude":"42.59N","longitude":"43.64E"}
{"date":"2010-06-01","average_temperature":"28.367","city":"Waco","latitude":"31.35N","longitude":"98.01W"}
{"date":"2011-11-01","average_temperature":"17.758","city":"Warqla","latitude":"31.35N","longitude":"5.65E"}
{"date":"2010-12-01","average_temperature":"-5.593999999999999","city":"Waterloo","latitude":"44.20N","longitude":"80.50W"}
{"date":"2012-09-01","average_temperature":"26.09","city":"Weru","latitude":"7.23S","longitude":"107.84E"}
{"date":"2012-02-01","average_temperature":"10.609000000000002","city":"West Covina","latitude":"34.56N","longitude":"118.70W"}
{"date":"2010-09-01","average_temperature":"19.154","city":"West Valley City","latitude":"40.99N","longitude":"112.90W"}
{"date":"2011-07-01","average_temperature":"27.393","city":"Winston Salem","latitude":"36.17N","longitude":"79.56W"}
{"date":"2012-02-01","average_temperature":"20.956999999999997","city":"Witbank","latitude":"26.52S","longitude":"28.66E"}
{"date":"2012-12-01","average_temperature":"19.617","city":"Wollongong","latitude":"34.56S","longitude":"151.78E"}
{"date":"2013-03-01","average_temperature":"20.483","city":"Wollongong","latitude":"34.56S","longitude":"151.78E"}
{"date":"2011-03-01","average_temperature":"22.02","city":"Worcester","latitude":"32.95S","longitude":"20.11E"}
{"date":"2013-05-01","average_temperature":"10.489999999999998","city":"Worcester","latitude":"52.24N","longitude":"2.63W"}
{"date":"2010-12-01","average_temperature":"-3.526","city":"Worcester","latitude":"42.59N","longitude":"72.00W"}
{"date":"2012-08-01","average_temperature":"26.464","city":"Xiangfan","latitude":"32.95N","longitude":"112.02E"}
{"date":"2013-02-01","average_temperature":"17.122","city":"Xiaolan","latitude":"23.31N","longitude":"112.72E"}
{"date":"2013-04-01","average_temperature":"14.78","city":"Xiazhen","latitude":"34.56N","longitude":"116.76E"}
{"date":"2010-09-01","average_temperature":"17.083","city":"Xico","latitude":"20.09N","longitude":"98.96W"}
{"date":"2010-12-01","average_temperature":"-10.432","city":"Xining","latitude":"36.17N","longitude":"101.44E"}
{"date":"2013-07-01","average_temperature":"14.767999999999999","city":"Xining","latitude":"36.17N","longitude":"101.44E"}
{"date":"2010-01-01","average_temperature":"15.489","city":"Yüanlin","latitude":"24.92N","longitude":"120.59E"}
{"date":"2011-07-01","average_temperature":"25.601","city":"Yamoussoukro","latitude":"7.23N","longitude":"5.68W"}
{"date":"2013-06-01","average_temperature":"26.218000000000004","city":"Yamoussoukro","latitude":"7.23N","longitude":"5.68W"}
{"date":"2011-06-01","average_temperature":"28.234","city":"Yangjiang","latitude":"21.70N","longitude":"111.63E"}
{"date":"2011-11-01","average_temperature":"22.715","city":"Yangjiang","latitude":"21.70N","longitude":"111.63E"}
{"date":"2010-09-01","average_temperature":"27.500999999999998","city":"Yangmei","latitude":"24.92N","longitude":"120.59E"}
{"date":"2010-03-01","average_temperature":"7.532","city":"Yangzhou","latitude":"32.95N","longitude":"119.68E"}
{"date":"2010-12-01","average_temperature":"1.886","city":"Yantai","latitude":"37.78N","longitude":"122.03E"}
{"date":"2012-02-01","average_temperature":"25.585","city":"Yaoundé","latitude":"4.02N","longitude":"12.05E"}
{"date":"2010-01-01","average_temperature":"-16.307000000000002","city":"Yaroslavl","latitude":"57.05N","longitude":"39.84E"}
{"date":"2012-07-01","average_temperature":"27.934","city":"Yenangyaung","latitude":"20.09N","longitude":"95.55E"}
{"date":"2012-11-01","average_temperature":"11.605","city":"Yiyang","latitude":"28.13N","longitude":"111.82E"}
{"date":"2011-06-01","average_temperature":"21.031999999999996","city":"Yonkers","latitude":"40.99N","longitude":"74.56W"}
{"date":"2013-08-01","average_temperature":"21.000999999999998","city":"Yonkers","latitude":"40.99N","longitude":"74.56W"}
{"date":"2011-12-01","average_temperature":"-18.249000000000002","city":"Zalantun","latitude":"47.42N","longitude":"121.97E"}
{"date":"2011-08-01","average_temperature":"26.003","city":"Zaozhuang","latitude":"34.56N","longitude":"116.76E"}
{"date":"2013-07-01","average_temperature":"25.264000000000006","city":"Zaria","latitude":"10.45N","longitude":"7.36E"}
{"date":"2010-10-01","average_temperature":"6.3740000000000006","city":"Zhangjiakou","latitude":"40.99N","longitude":"115.03E"}
{"date":"2013-04-01","average_temperature":"5.974","city":"Zhangjiakou","latitude":"40.99N","longitude":"115.03E"}
{"date":"2013-02-01","average_temperature":"4.109","city":"Zhenjiang","latitude":"32.95N","longitude":"119.68E"}
{"date":"2011-02-01","average_temperature":"4.21","city":"Zwolle","latitude":"52.24N","longitude":"5.26E"}
