{"date":"2013-07-01","average_temperature":"26.405","city":"Aba","latitude":"5.63N","longitude":"8.07E"}
{"date":"2010-06-01","average_temperature":"26.995","city":"Abengourou","latitude":"7.23N","longitude":"4.05W"}
{"date":"2010-11-01","average_temperature":"28.45","city":"Abomey Calavi","latitude":"7.23N","longitude":"2.43E"}
{"date":"2012-09-01","average_temperature":"14.970999999999998","city":"Acheng","latitude":"45.81N","longitude":"128.08E"}
{"date":"2010-03-01","average_temperature":"26.285","city":"Aden","latitude":"13.66N","longitude":"45.41E"}
{"date":"2010-12-01","average_temperature":"20.725","city":"Akola","latitude":"20.09N","longitude":"76.78E"}
{"date":"2011-08-01","average_temperature":"26.695","city":"Akola","latitude":"20.09N","longitude":"76.78E"}
{"date":"2011-12-01","average_temperature":"21.654","city":"Akola","latitude":"20.09N","longitude":"76.78E"}
{"date":"2013-09-01","city":"Aksu","latitude":"40.99N","longitude":"80.95E"}
{"date":"2012-06-01","average_temperature":"28.245","city":"Akyab","latitude":"20.09N","longitude":"92.13E"}
{"date":"2012-12-01","average_temperature":"4.9719999999999995","city":"Alcobendas","latitude":"40.99N","longitude":"4.26W"}
{"date":"2013-09-01","average_temperature":"19.643","city":"Alexandria","latitude":"39.38N","longitude":"76.99W"}
{"date":"2010-12-01","average_temperature":"9.392000000000001","city":"Algiers","latitude":"36.17N","longitude":"3.98E"}
{"date":"2013-06-01","average_temperature":"33.066","city":"Aligarh","latitude":"28.13N","longitude":"77.27E"}
{"date":"2012-06-01","average_temperature":"36.304","city":"Allahabad","latitude":"24.92N","longitude":"81.58E"}
{"date":"2013-01-01","average_temperature":"-6.890999999999999","city":"Almaty","latitude":"42.59N","longitude":"76.36E"}
{"date":"2013-03-01","average_temperature":"12.464","city":"Amadora","latitude":"39.38N","longitude":"8.32W"}
{"date":"2013-05-01","average_temperature":"32.648","city":"Ambur","latitude":"12.05N","longitude":"78.90E"}
{"date":"2011-04-01","average_temperature":"28.758000000000006","city":"Amroha","latitude":"28.13N","longitude":"79.09E"}
{"date":"2013-01-01","average_temperature":"13.737","city":"Amroha","latitude":"28.13N","longitude":"79.09E"}
{"date":"2013-02-01","average_temperature":"1.5589999999999995","city":"Amsterdam","latitude":"52.24N","longitude":"5.26E"}
{"date":"2010-10-01","average_temperature":"28.112","city":"Ananindeua","latitude":"0.80S","longitude":"49.02W"}
{"date":"2012-11-01","average_temperature":"25.434","city":"Anantapur","latitude":"15.27N","longitude":"77.50E"}
{"date":"2010-09-01","average_temperature":"27.418000000000003","city":"Anbu","latitude":"23.31N","longitude":"116.21E"}
{"date":"2012-04-01","average_temperature":"23.68","city":"Angra Dos Reis","latitude":"23.31S","longitude":"44.56W"}
{"date":"2012-01-01","average_temperature":"21.362","city":"Antananarivo","latitude":"18.48S","longitude":"47.32E"}
{"date":"2012-07-01","average_temperature":"17.708000000000006","city":"Antwerp","latitude":"50.63N","longitude":"3.80E"}
{"date":"2012-08-01","average_temperature":"30.684","city":"Apodaca","latitude":"26.52N","longitude":"100.30W"}
{"date":"2011-05-01","average_temperature":"22.363000000000003","city":"Arak","latitude":"34.56N","longitude":"50.59E"}
{"date":"2012-06-01","average_temperature":"27.644000000000002","city":"Arak","latitude":"34.56N","longitude":"50.59E"}
{"date":"2010-12-01","average_temperature":"25.23","city":"Araraquara","latitude":"21.70S","longitude":"47.60W"}
{"date":"2012-06-01","average_temperature":"24.653","city":"Ashdod","latitude":"31.35N","longitude":"33.93E"}
{"date":"2012-12-01","average_temperature":"-20.95","city":"Astana","latitude":"50.63N","longitude":"72.25E"}
{"date":"2011-06-01","average_temperature":"18.316","city":"Asunción","latitude":"24.92S","longitude":"58.52W"}
{"date":"2013-04-01","average_temperature":"16.953","city":"Athens","latitude":"37.78N","longitude":"24.41E"}
{"date":"2012-07-01","average_temperature":"26.34","city":"Atlanta","latitude":"34.56N","longitude":"83.68W"}
{"date":"2012-12-01","average_temperature":"8.362","city":"Atlanta","latitude":"34.56N","longitude":"83.68W"}
{"date":"2013-02-01","average_temperature":"26.499000000000002","city":"Bac Lieu","latitude":"8.84N","longitude":"106.22E"}
{"date":"2012-05-01","average_temperature":"15.26","city":"Bacau","latitude":"45.81N","longitude":"26.54E"}
{"date":"2012-07-01","average_temperature":"26.081999999999997","city":"Baguio","latitude":"16.87N","longitude":"120.56E"}
{"date":"2011-04-01","average_temperature":"15.876","city":"Bahia Blanca","latitude":"39.38S","longitude":"62.43W"}
{"date":"2012-02-01","average_temperature":"-6.0059999999999985","city":"Baia Mare","latitude":"47.42N","longitude":"22.50E"}
{"date":"2011-03-01","average_temperature":"-2.716","city":"Baicheng","latitude":"45.81N","longitude":"123.46E"}
{"date":"2013-05-01","average_temperature":"30.921","city":"Baidyabati","latitude":"23.31N","longitude":"88.25E"}
{"date":"2012-07-01","average_temperature":"19.229","city":"Baiyin","latitude":"36.17N","longitude":"103.43E"}
{"date":"2010-10-01","average_temperature":"3.938","city":"Balakovo","latitude":"52.24N","longitude":"47.30E"}
{"date":"2013-03-01","average_temperature":"28.264","city":"Baliuag","latitude":"15.27N","longitude":"120.83E"}
{"date":"2010-05-01","average_temperature":"17.266000000000002","city":"Bandar E Anzali","latitude":"37.78N","longitude":"48.81E"}
{"date":"2011-02-01","average_temperature":"25.971","city":"Bandundu","latitude":"4.02S","longitude":"16.88E"}
{"date":"2010-07-01","average_temperature":"25.267","city":"Bandung","latitude":"7.23S","longitude":"107.84E"}
{"date":"2012-05-01","average_temperature":"25.945","city":"Bandung","latitude":"7.23S","longitude":"107.84E"}
{"date":"2011-05-01","average_temperature":"29.26","city":"Bangkok","latitude":"13.66N","longitude":"99.91E"}
{"date":"2011-04-01","average_temperature":"29.276","city":"Barakpur","latitude":"23.31N","longitude":"88.25E"}
{"date":"2013-05-01","average_temperature":"18.955","city":"Bari","latitude":"40.99N","longitude":"17.04E"}
{"date":"2013-07-01","average_temperature":"25.516","city":"Bari","latitude":"40.99N","longitude":"17.04E"}
{"date":"2012-02-01","average_temperature":"15.401000000000002","city":"Barnala","latitude":"29.74N","longitude":"75.69E"}
{"date":"2010-01-01","average_temperature":"25.464000000000002","city":"Barquisimeto","latitude":"10.45N","longitude":"69.55W"}
{"date":"2012-10-01","average_temperature":"25.677","city":"Barquisimeto","latitude":"10.45N","longitude":"69.55W"}
{"date":"2011-08-01","average_temperature":"28.976","city":"Basirhat","latitude":"23.31N","longitude":"88.25E"}
{"date":"2011-11-01","average_temperature":"25.369","city":"Bata","latitude":"2.41N","longitude":"10.45E"}
{"date":"2011-11-01","average_temperature":"21.211","city":"Batala","latitude":"31.35N","longitude":"75.39E"}
{"date":"2012-07-01","average_temperature":"26.21","city":"Bauchi","latitude":"10.45N","longitude":"10.64E"}
{"date":"2012-03-01","average_temperature":"26.717","city":"Belford Roxo","latitude":"23.31S","longitude":"42.82W"}
{"date":"2013-07-01","average_temperature":"23.768","city":"Belford Roxo","latitude":"23.31S","longitude":"42.82W"}
{"date":"2012-05-01","average_temperature":"15.468","city":"Belgrade","latitude":"44.20N","longitude":"20.12E"}
{"date":"2011-10-01","average_temperature":"17.294999999999998","city":"Berkeley","latitude":"37.78N","longitude":"122.03W"}
{"date":"2012-10-01","average_temperature":"9.485","city":"Berlin","latitude":"52.24N","longitude":"13.14E"}
{"date":"2012-07-01","average_temperature":"9.036","city":"Bethal","latitude":"26.52S","longitude":"28.66E"}
{"date":"2010-01-01","average_temperature":"22.203000000000003","city":"Bidar","latitude":"18.48N","longitude":"77.75E"}
{"date":"2011-03-01","average_temperature":"28.247","city":"Bilaspur","latitude":"21.70N","longitude":"82.21E"}
{"date":"2011-03-01","average_temperature":"21.301","city":"Biratnagar","latitude":"26.52N","longitude":"87.76E"}
{"date":"2011-05-01","average_temperature":"21.582","city":"Birigui","latitude":"21.70S","longitude":"51.06W"}
{"date":"2013-09-01","city":"Bisho","latitude":"32.95S","longitude":"27.77E"}
{"date":"2010-01-01","average_temperature":"24.634","city":"Blumenau","latitude":"26.52S","longitude":"48.36W"}
{"date":"2011-04-01","average_temperature":"12.511","city":"Bochum","latitude":"52.24N","longitude":"7.88E"}
{"date":"2012-08-01","average_temperature":"22.761","city":"Boma","latitude":"5.63S","longitude":"12.91E"}
{"date":"2010-10-01","average_temperature":"12.646","city":"Bordeaux","latitude":"44.20N","longitude":"0.00W"}
{"date":"2011-12-01","average_temperature":"7.949999999999998","city":"Bordeaux","latitude":"44.20N","longitude":"0.00W"}
{"date":"2011-01-01","average_temperature":"-3.6060000000000003","city":"Boshan","latitude":"36.17N","longitude":"117.35E"}
{"date":"2010-12-01","average_temperature":"-25.49","city":"Bratsk","latitude":"55.45N","longitude":"102.05E"}
{"date":"2013-02-01","average_temperature":"26.842","city":"Brebes","latitude":"7.23S","longitude":"109.46E"}
{"date":"2010-02-01","average_temperature":"-0.949","city":"Bremen","latitude":"53.84N","longitude":"9.55E"}
{"date":"2010-03-01","average_temperature":"23.151999999999997","city":"Brisbane","latitude":"28.13S","longitude":"153.64E"}
{"date":"2013-01-01","average_temperature":"23.41","city":"Brits","latitude":"24.92S","longitude":"28.37E"}
{"date":"2012-07-01","average_temperature":"26.845","city":"Bucharest","latitude":"44.20N","longitude":"26.83E"}
{"date":"2010-02-01","average_temperature":"0.637","city":"Budapest","latitude":"47.42N","longitude":"20.13E"}
{"date":"2012-02-01","average_temperature":"-4.238","city":"Budapest","latitude":"47.42N","longitude":"20.13E"}
{"date":"2013-07-01","average_temperature":"22.165000000000006","city":"Buffalo","latitude":"42.59N","longitude":"78.55W"}
{"date":"2011-10-01","average_temperature":"24.105","city":"Buon Me Thuot","latitude":"12.05N","longitude":"108.49E"}
{"date":"2012-10-01","average_temperature":"18.712","city":"Burbank","latitude":"34.56N","longitude":"118.70W"}
{"date":"2011-01-01","average_temperature":"12.210999999999999","city":"Burewala","latitude":"29.74N","longitude":"72.00E"}
{"date":"2011-06-01","average_temperature":"17.972","city":"Buzau","latitude":"45.81N","longitude":"26.54E"}
{"date":"2013-01-01","average_temperature":"24.430999999999997","city":"Cúa","latitude":"10.45N","longitude":"66.27W"}
{"date":"2011-07-01","average_temperature":"26.919","city":"Cabanatuan","latitude":"15.27N","longitude":"120.83E"}
{"date":"2011-07-01","average_temperature":"12.591","city":"Cachoeirinha","latitude":"29.74S","longitude":"51.69W"}
{"date":"2012-01-01","average_temperature":"5.9110000000000005","city":"Caen","latitude":"49.03N","longitude":"0.00W"}
{"date":"2011-09-01","average_temperature":"26.502","city":"Calabar","latitude":"5.63N","longitude":"8.07E"}
{"date":"2011-11-01","average_temperature":"26.769","city":"Calamba","latitude":"13.66N","longitude":"121.38E"}
{"date":"2010-07-01","average_temperature":"17.059","city":"Calgary","latitude":"50.63N","longitude":"112.82W"}
{"date":"2010-07-01","average_temperature":"29.285","city":"Cam Pha","latitude":"21.70N","longitude":"108.17E"}
{"date":"2013-03-01","average_temperature":"26.055","city":"Cam Ranh","latitude":"12.05N","longitude":"108.49E"}
{"date":"2010-01-01","average_temperature":"27.66","city":"Camaçari","latitude":"12.05S","longitude":"37.81W"}
{"date":"2013-03-01","average_temperature":"23.334","city":"Camagüey","latitude":"21.70N","longitude":"78.75W"}
{"date":"2011-07-01","average_temperature":"15.992","city":"Cambridge","latitude":"52.24N","longitude":"0.00W"}
{"date":"2011-02-01","average_temperature":"24.412","city":"Campinas","latitude":"23.31S","longitude":"46.31W"}
{"date":"2010-10-01","average_temperature":"24.723000000000006","city":"Campo Grande","latitude":"20.09S","longitude":"54.60W"}
{"date":"2011-12-01","average_temperature":"26.72","city":"Can Tho","latitude":"10.45N","longitude":"105.55E"}
{"date":"2013-02-01","average_temperature":"23.721999999999998","city":"Cancún","latitude":"21.70N","longitude":"87.40W"}
{"date":"2010-07-01","average_temperature":"13.441","city":"Canoas","latitude":"29.74S","longitude":"51.69W"}
{"date":"2012-05-01","average_temperature":"18.169","city":"Carapicuíba","latitude":"23.31S","longitude":"46.31W"}
{"date":"2010-09-01","average_temperature":"22.641","city":"Caruaru","latitude":"8.84S","longitude":"36.49W"}
{"date":"2011-08-01","average_temperature":"12.800999999999998","city":"Catamarca","latitude":"28.13S","longitude":"66.36W"}
{"date":"2012-09-01","average_temperature":"27.479","city":"Cebu","latitude":"10.45N","longitude":"123.55E"}
{"date":"2013-09-01","city":"Cebu","latitude":"10.45N","longitude":"123.55E"}
{"date":"2011-08-01","average_temperature":"29.391","city":"Chandausi","latitude":"28.13N","longitude":"79.09E"}
{"date":"2013-09-01","city":"Chandrapur","latitude":"20.09N","longitude":"78.48E"}
{"date":"2012-04-01","average_temperature":"8.568","city":"Changchun","latitude":"44.20N","longitude":"125.22E"}
{"date":"2010-09-01","average_temperature":"17.525","city":"Changji","latitude":"44.20N","longitude":"87.20E"}
{"date":"2012-12-01","average_temperature":"-9.59","city":"Chaoyang","latitude":"40.99N","longitude":"121.42E"}
{"date":"2013-01-01","average_temperature":"13.8","city":"Chaozhou","latitude":"23.31N","longitude":"116.21E"}
{"date":"2011-03-01","average_temperature":"11.81","city":"Chattanooga","latitude":"34.56N","longitude":"85.62W"}
{"date":"2011-10-01","average_temperature":"9.300999999999998","city":"Chengde","latitude":"40.99N","longitude":"117.16E"}
{"date":"2012-03-01","average_temperature":"0.4849999999999999","city":"Chernihiv","latitude":"52.24N","longitude":"31.53E"}
{"date":"2012-06-01","average_temperature":"23.004","city":"Chesapeake","latitude":"36.17N","longitude":"75.58W"}
{"date":"2010-12-01","average_temperature":"23.42","city":"Chetumal","latitude":"18.48N","longitude":"87.89W"}
{"date":"2012-02-01","average_temperature":"25.91","city":"Chetumal","latitude":"18.48N","longitude":"87.89W"}
{"date":"2011-01-01","average_temperature":"14.562999999999999","city":"Chhapra","latitude":"26.52N","longitude":"84.18E"}
{"date":"2012-06-01","average_temperature":"35.75","city":"Chhatarpur","latitude":"24.92N","longitude":"79.80E"}
{"date":"2011-06-01","average_temperature":"18.011","city":"Chicago","latitude":"42.59N","longitude":"87.27W"}
{"date":"2010-09-01","average_temperature":"16.957","city":"Chiclayo","latitude":"7.23S","longitude":"80.27W"}
{"date":"2010-09-01","average_temperature":"21.205","city":"Chihuahua","latitude":"28.13N","longitude":"106.36W"}
{"date":"2012-10-01","average_temperature":"21.954","city":"Chilpancingo","latitude":"18.48N","longitude":"99.72W"}
{"date":"2013-09-01","city":"Chita","latitude":"52.24N","longitude":"112.99E"}
{"date":"2010-01-01","average_temperature":"16.4","city":"Chuncheng","latitude":"21.70N","longitude":"111.63E"}
{"date":"2011-04-01","average_temperature":"22.918000000000006","city":"Chuncheng","latitude":"21.70N","longitude":"111.63E"}
{"date":"2013-04-01","average_temperature":"15.357999999999999","city":"Chuzhou","latitude":"32.95N","longitude":"117.77E"}
{"date":"2012-10-01","average_temperature":"26.825","city":"Cibadak","latitude":"7.23S","longitude":"106.22E"}
{"date":"2013-08-01","average_temperature":"27.572","city":"Cienfuegos","latitude":"21.70N","longitude":"80.48W"}
{"date":"2013-03-01","average_temperature":"27.719","city":"Cikarang","latitude":"5.63S","longitude":"106.55E"}
{"date":"2010-07-01","average_temperature":"27.038","city":"Cisarua","latitude":"5.63S","longitude":"106.55E"}
{"date":"2011-08-01","average_temperature":"27.455","city":"Ciudad Bolívar","latitude":"8.84N","longitude":"64.05W"}
{"date":"2012-01-01","average_temperature":"16.173","city":"Ciudad Valles","latitude":"21.70N","longitude":"99.52W"}
{"date":"2010-08-01","average_temperature":"27.541999999999998","city":"Clarksville","latitude":"36.17N","longitude":"87.51W"}
{"date":"2010-01-01","average_temperature":"-3.7","city":"Cleveland","latitude":"40.99N","longitude":"80.95W"}
{"date":"2011-08-01","average_temperature":"16.484","city":"Colchester","latitude":"52.24N","longitude":"0.00W"}
{"date":"2010-03-01","average_temperature":"5.355","city":"Cologne","latitude":"50.63N","longitude":"6.34E"}
{"date":"2010-08-01","average_temperature":"26.703000000000003","city":"Conakry","latitude":"8.84N","longitude":"13.78W"}
{"date":"2013-08-01","average_temperature":"26.233","city":"Conakry","latitude":"8.84N","longitude":"13.78W"}
{"date":"2013-02-01","average_temperature":"16.108999999999998","city":"Concepcion","latitude":"36.17S","longitude":"73.59W"}
{"date":"2013-06-01","average_temperature":"21.254","city":"Constantine","latitude":"36.17N","longitude":"5.97E"}
{"date":"2013-08-01","average_temperature":"25.506","city":"Constantine","latitude":"36.17N","longitude":"5.97E"}
{"date":"2013-04-01","average_temperature":"21.539","city":"Corrientes","latitude":"28.13S","longitude":"59.09W"}
{"date":"2010-11-01","average_temperature":"15.889000000000001","city":"Costa Mesa","latitude":"32.95N","longitude":"117.77W"}
{"date":"2013-05-01","average_temperature":"27.808000000000003","city":"Cotonou","latitude":"7.23N","longitude":"2.43E"}
{"date":"2010-06-01","average_temperature":"15.665999999999999","city":"Coventry","latitude":"52.24N","longitude":"2.63W"}
{"date":"2011-07-01","average_temperature":"23.62","city":"Craiova","latitude":"44.20N","longitude":"24.60E"}
{"date":"2013-06-01","average_temperature":"18.124000000000002","city":"Cubatão","latitude":"23.31S","longitude":"46.31W"}
{"date":"2010-01-01","average_temperature":"-1.763","city":"Düsseldorf","latitude":"50.63N","longitude":"6.34E"}
{"date":"2012-09-01","average_temperature":"24.551","city":"Da Lat","latitude":"12.05N","longitude":"108.49E"}
{"date":"2012-04-01","average_temperature":"9.818","city":"Dabrowa Gornicza","latitude":"50.63N","longitude":"19.01E"}
{"date":"2010-08-01","average_temperature":"26.223000000000003","city":"Dagupan","latitude":"16.87N","longitude":"120.56E"}
{"date":"2012-12-01","average_temperature":"24.339","city":"Damaturu","latitude":"12.05N","longitude":"11.51E"}
{"date":"2010-01-01","average_temperature":"28.256","city":"Dar Es Salaam","latitude":"7.23S","longitude":"39.73E"}
{"date":"2012-05-01","average_temperature":"30.035","city":"Darbhanga","latitude":"26.52N","longitude":"85.97E"}
{"date":"2010-07-01","average_temperature":"27.653000000000002","city":"Dasmariñas","latitude":"13.66N","longitude":"121.38E"}
{"date":"2012-02-01","average_temperature":"25.899","city":"Dasmariñas","latitude":"13.66N","longitude":"121.38E"}
{"date":"2010-11-01","average_temperature":"26.62","city":"Davao","latitude":"7.23N","longitude":"125.68E"}
{"date":"2012-01-01","average_temperature":"18.37","city":"Debre Zeyit","latitude":"8.84N","longitude":"39.73E"}
{"date":"2012-05-01","average_temperature":"17.121","city":"Dehui","latitude":"44.20N","longitude":"125.22E"}
{"date":"2012-08-01","average_temperature":"25.131","city":"Denpasar","latitude":"8.84S","longitude":"115.95E"}
{"date":"2010-06-01","average_temperature":"29.392","city":"Denton","latitude":"32.95N","longitude":"96.70W"}
{"date":"2011-10-01","average_temperature":"19.317","city":"Denton","latitude":"32.95N","longitude":"96.70W"}
{"date":"2012-05-01","average_temperature":"18.212","city":"Derbent","latitude":"42.59N","longitude":"48.00E"}
{"date":"2010-05-01","average_temperature":"26.651","city":"Dese","latitude":"10.45N","longitude":"40.09E"}
{"date":"2012-10-01","average_temperature":"23.718000000000004","city":"Dese","latitude":"10.45N","longitude":"40.09E"}
{"date":"2013-05-01","average_temperature":"26.715","city":"Dese","latitude":"10.45N","longitude":"40.09E"}
{"date":"2012-07-01","average_temperature":"27.588","city":"Dewas","latitude":"23.31N","longitude":"76.02E"}
{"date":"2013-04-01","average_temperature":"13.735","city":"Dezhou","latitude":"37.78N","longitude":"115.93E"}
{"date":"2011-03-01","average_temperature":"25.11","city":"Dhaulpur","latitude":"26.52N","longitude":"77.01E"}
{"date":"2011-03-01","average_temperature":"21.92","city":"Diadema","latitude":"23.31S","longitude":"46.31W"}
{"date":"2013-05-01","average_temperature":"25.416","city":"Dimapur","latitude":"26.52N","longitude":"93.13E"}
{"date":"2012-05-01","average_temperature":"18.006999999999994","city":"Dingzhou","latitude":"39.38N","longitude":"114.45E"}
{"date":"2012-09-01","average_temperature":"26.132","city":"Divo","latitude":"5.63N","longitude":"4.84W"}
{"date":"2013-09-01","city":"Do Rud","latitude":"32.95N","longitude":"48.83E"}
{"date":"2010-12-01","average_temperature":"23.846999999999998","city":"Dodoma","latitude":"5.63S","longitude":"35.52E"}
{"date":"2013-05-01","average_temperature":"25.483","city":"Donghai","latitude":"23.31N","longitude":"116.21E"}
{"date":"2012-11-01","average_temperature":"9.365","city":"Dongtai","latitude":"32.95N","longitude":"119.68E"}
{"date":"2010-06-01","average_temperature":"20.724","city":"Downey","latitude":"34.56N","longitude":"118.70W"}
{"date":"2011-11-01","average_temperature":"2.0240000000000005","city":"Drobeta Turnu Severin","latitude":"44.20N","longitude":"22.36E"}
{"date":"2011-02-01","average_temperature":"27.410999999999998","city":"Dumai","latitude":"2.41N","longitude":"102.05E"}
{"date":"2012-01-01","average_temperature":"24.201","city":"Durban","latitude":"29.74S","longitude":"31.38E"}
{"date":"2013-07-01","average_temperature":"25.123","city":"Durrës","latitude":"40.99N","longitude":"19.17E"}
{"date":"2010-04-01","average_temperature":"12.283","city":"East Los Angeles","latitude":"34.56N","longitude":"118.70W"}
{"date":"2011-12-01","average_temperature":"3.25","city":"Ebina","latitude":"36.17N","longitude":"139.23E"}
{"date":"2013-08-01","average_temperature":"24.493000000000002","city":"Edirne","latitude":"42.59N","longitude":"26.18E"}
{"date":"2010-04-01","average_temperature":"12.075999999999999","city":"Edison","latitude":"40.99N","longitude":"74.56W"}
{"date":"2010-09-01","average_temperature":"23.581","city":"Ejido","latitude":"8.84N","longitude":"70.54W"}
{"date":"2012-07-01","average_temperature":"30.263","city":"El Faiyûm","latitude":"29.74N","longitude":"31.38E"}
{"date":"2011-08-01","average_temperature":"27.224","city":"El Limón","latitude":"10.45N","longitude":"67.91W"}
{"date":"2012-04-01","average_temperature":"26.394000000000002","city":"El Limón","latitude":"10.45N","longitude":"67.91W"}
{"date":"2013-05-01","average_temperature":"21.037","city":"El Paso","latitude":"31.35N","longitude":"105.55W"}
{"date":"2011-10-01","average_temperature":"12.001","city":"Elizabeth","latitude":"40.99N","longitude":"74.56W"}
{"date":"2013-08-01","average_temperature":"21.000999999999998","city":"Elizabeth","latitude":"40.99N","longitude":"74.56W"}
{"date":"2010-07-01","average_temperature":"26.231","city":"Enugu","latitude":"7.23N","longitude":"7.30E"}
{"date":"2011-10-01","average_temperature":"18.591","city":"Envigado","latitude":"5.63N","longitude":"75.87W"}
{"date":"2011-07-01","average_temperature":"21.309","city":"Erzurum","latitude":"39.38N","longitude":"41.62E"}
{"date":"2010-08-01","average_temperature":"26.774","city":"Esenyurt","latitude":"40.99N","longitude":"27.69E"}
{"date":"2010-11-01","average_temperature":"10.566","city":"Eslamshahr","latitude":"36.17N","longitude":"51.71E"}
{"date":"2011-04-01","average_temperature":"22.529","city":"Esmeraldas","latitude":"20.09S","longitude":"44.36W"}
{"date":"2011-10-01","average_temperature":"26.373","city":"Etawah","latitude":"26.52N","longitude":"78.81E"}
{"date":"2012-11-01","average_temperature":"20.522","city":"Etawah","latitude":"26.52N","longitude":"78.81E"}
{"date":"2011-08-01","average_temperature":"25.94","city":"Evansville","latitude":"37.78N","longitude":"87.46W"}
{"date":"2010-10-01","average_temperature":"17.633000000000006","city":"Ezhou","latitude":"29.74N","longitude":"114.46E"}
{"date":"2010-05-01","average_temperature":"33.116","city":"Faizabad","latitude":"26.52N","longitude":"82.39E"}
{"date":"2012-02-01","average_temperature":"17.359","city":"Fengshan","latitude":"23.31N","longitude":"119.71E"}
{"date":"2010-12-01","average_temperature":"2.9810000000000003","city":"Ferrara","latitude":"44.20N","longitude":"11.18E"}
{"date":"2011-10-01","average_temperature":"24.298000000000002","city":"Fort Lauderdale","latitude":"26.52N","longitude":"80.60W"}
{"date":"2013-01-01","average_temperature":"-2.051","city":"Fort Wayne","latitude":"40.99N","longitude":"85.21W"}
{"date":"2010-01-01","average_temperature":"6.006","city":"Fort Worth","latitude":"32.95N","longitude":"96.70W"}
{"date":"2010-12-01","average_temperature":"28.276999999999997","city":"Fortaleza","latitude":"4.02S","longitude":"40.98W"}
{"date":"2013-08-01","average_temperature":"26.233","city":"Freetown","latitude":"8.84N","longitude":"13.78W"}
{"date":"2010-01-01","average_temperature":"2.608","city":"Fuchu","latitude":"36.17N","longitude":"139.23E"}
{"date":"2012-07-01","average_temperature":"21.831","city":"Fuenlabrada","latitude":"40.99N","longitude":"4.26W"}
{"date":"2010-07-01","average_temperature":"25.558000000000003","city":"Funabashi","latitude":"36.17N","longitude":"139.23E"}
{"date":"2011-01-01","average_temperature":"-13.738","city":"Fushun","latitude":"40.99N","longitude":"123.55E"}
{"date":"2013-02-01","average_temperature":"-8.242","city":"Fushun","latitude":"40.99N","longitude":"123.55E"}
{"date":"2013-02-01","average_temperature":"11.735","city":"Fuzhou","latitude":"26.52N","longitude":"120.00E"}
{"date":"2011-08-01","average_temperature":"14.208","city":"Gaborone","latitude":"24.92S","longitude":"26.60E"}
{"date":"2012-05-01","average_temperature":"34.955","city":"Gangapur","latitude":"26.52N","longitude":"77.01E"}
{"date":"2012-11-01","average_temperature":"5.959","city":"Gaomi","latitude":"36.17N","longitude":"119.34E"}
{"date":"2012-12-01","average_temperature":"-2.4930000000000003","city":"Gaomi","latitude":"36.17N","longitude":"119.34E"}
{"date":"2013-02-01","average_temperature":"0.252","city":"Gaomi","latitude":"36.17N","longitude":"119.34E"}
{"date":"2011-03-01","average_temperature":"8.637","city":"Gaziantep","latitude":"37.78N","longitude":"36.61E"}
{"date":"2011-03-01","average_temperature":"26.319000000000003","city":"Gazipur","latitude":"23.31N","longitude":"90.00E"}
{"date":"2011-09-01","average_temperature":"18.267000000000003","city":"Gazni","latitude":"32.95N","longitude":"67.98E"}
{"date":"2010-01-01","average_temperature":"28.597","city":"Gbongan","latitude":"7.23N","longitude":"4.05E"}
{"date":"2012-04-01","average_temperature":"14.386","city":"Gebze","latitude":"40.99N","longitude":"29.82E"}
{"date":"2011-04-01","average_temperature":"14.075999999999999","city":"Geelong","latitude":"37.78S","longitude":"144.41E"}
{"date":"2013-05-01","average_temperature":"11.836","city":"Geelong","latitude":"37.78S","longitude":"144.41E"}
{"date":"2013-07-01","average_temperature":"30.281","city":"Ghazipur","latitude":"24.92N","longitude":"83.35E"}
{"date":"2013-05-01","average_temperature":"9.866","city":"Gillingham","latitude":"50.63N","longitude":"1.27E"}
{"date":"2010-12-01","average_temperature":"24.877","city":"Girón","latitude":"7.23N","longitude":"73.78W"}
{"date":"2012-11-01","average_temperature":"20.930999999999997","city":"Gizeh","latitude":"29.74N","longitude":"31.38E"}
{"date":"2011-06-01","average_temperature":"12.919","city":"Glasgow","latitude":"55.45N","longitude":"2.83W"}
{"date":"2013-04-01","average_temperature":"2.66","city":"Glazov","latitude":"58.66N","longitude":"52.31E"}
{"date":"2011-12-01","average_temperature":"9.137","city":"Glendale","latitude":"32.95N","longitude":"112.02W"}
{"date":"2012-10-01","average_temperature":"26.666","city":"Godhra","latitude":"23.31N","longitude":"74.27E"}
{"date":"2012-03-01","average_temperature":"23.743","city":"Goiânia","latitude":"16.87S","longitude":"48.56W"}
{"date":"2010-03-01","average_temperature":"28.314","city":"Gondal","latitude":"21.70N","longitude":"70.10E"}
{"date":"2011-07-01","average_temperature":"28.761000000000006","city":"Gondal","latitude":"21.70N","longitude":"70.10E"}
{"date":"2012-01-01","average_temperature":"17.654","city":"Gondar","latitude":"12.05N","longitude":"37.81E"}
{"date":"2011-10-01","average_temperature":"9.847000000000001","city":"Gorzow Wielkopolski","latitude":"52.24N","longitude":"15.77E"}
{"date":"2013-01-01","average_temperature":"9.161","city":"Granada","latitude":"37.78N","longitude":"4.07W"}
{"date":"2010-10-01","average_temperature":"11.361","city":"Groningen","latitude":"53.84N","longitude":"6.82E"}
{"date":"2012-10-01","average_temperature":"11.2","city":"Groningen","latitude":"53.84N","longitude":"6.82E"}
{"date":"2011-10-01","average_temperature":"14.312000000000001","city":"Guangyuan","latitude":"32.95N","longitude":"106.28E"}
{"date":"2013-07-01","average_temperature":"28.191999999999997","city":"Guantánamo","latitude":"20.09N","longitude":"75.07W"}
{"date":"2010-01-01","average_temperature":"25.066","city":"Guaratinguetá","latitude":"23.31S","longitude":"44.56W"}
{"date":"2011-07-01","average_temperature":"25.933000000000003","city":"Guatire","latitude":"10.45N","longitude":"66.27W"}
{"date":"2012-05-01","average_temperature":"30.075","city":"Guaymas","latitude":"28.13N","longitude":"110.00W"}
{"date":"2013-06-01","average_temperature":"23.631999999999998","city":"Guiyang","latitude":"26.52N","longitude":"107.46E"}
{"date":"2010-11-01","average_temperature":"25.581","city":"Guntakal","latitude":"15.27N","longitude":"77.50E"}
{"date":"2011-03-01","average_temperature":"23.864","city":"Gurgaon","latitude":"28.13N","longitude":"77.27E"}
{"date":"2010-05-01","average_temperature":"28.43","city":"Hòa Bình","latitude":"20.09N","longitude":"105.78E"}
{"date":"2010-06-01","average_temperature":"30.476999999999997","city":"Hadejia","latitude":"12.05N","longitude":"9.86E"}
{"date":"2011-05-01","average_temperature":"28.826999999999998","city":"Hagonoy","latitude":"15.27N","longitude":"120.83E"}
{"date":"2010-04-01","average_temperature":"19.722","city":"Haimen","latitude":"23.31N","longitude":"116.21E"}
{"date":"2011-06-01","average_temperature":"11.0","city":"Halifax","latitude":"44.20N","longitude":"62.61W"}
{"date":"2012-12-01","average_temperature":"3.641","city":"Halifax","latitude":"44.20N","longitude":"62.61W"}
{"date":"2012-03-01","average_temperature":"3.806000000000001","city":"Hamadan","latitude":"34.56N","longitude":"48.65E"}
{"date":"2012-05-01","average_temperature":"18.792","city":"Hami","latitude":"42.59N","longitude":"93.82E"}
{"date":"2012-10-01","average_temperature":"6.443","city":"Hami","latitude":"42.59N","longitude":"93.82E"}
{"date":"2011-08-01","average_temperature":"26.57","city":"Hampton","latitude":"36.17N","longitude":"75.58W"}
{"date":"2010-06-01","average_temperature":"26.608","city":"Handan","latitude":"36.17N","longitude":"115.36E"}
{"date":"2013-08-01","average_temperature":"29.539","city":"Haora","latitude":"23.31N","longitude":"88.25E"}
{"date":"2012-07-01","average_temperature":"32.448","city":"Hapur","latitude":"28.13N","longitude":"77.27E"}
{"date":"2012-05-01","average_temperature":"22.366","city":"Hefei","latitude":"31.35N","longitude":"116.86E"}
{"date":"2013-06-01","average_temperature":"26.663","city":"Hengyang","latitude":"26.52N","longitude":"112.84E"}
{"date":"2013-02-01","average_temperature":"6.142","city":"Herat","latitude":"34.56N","longitude":"62.27E"}
{"date":"2010-05-01","average_temperature":"10.604","city":"Herne","latitude":"52.24N","longitude":"7.88E"}
{"date":"2012-12-01","average_temperature":"5.0089999999999995","city":"Himeji","latitude":"34.56N","longitude":"134.27E"}
{"date":"2011-12-01","average_temperature":"6.476","city":"Hirakata","latitude":"34.56N","longitude":"136.22E"}
{"date":"2011-12-01","average_temperature":"3.25","city":"Hiratsuka","latitude":"36.17N","longitude":"139.23E"}
{"date":"2010-07-01","average_temperature":"27.076","city":"Hiroshima","latitude":"34.56N","longitude":"132.32E"}
{"date":"2012-10-01","average_temperature":"17.633999999999997","city":"Hiroshima","latitude":"34.56N","longitude":"132.32E"}
{"date":"2013-02-01","average_temperature":"16.621000000000002","city":"Hisar","latitude":"29.74N","longitude":"75.69E"}
{"date":"2012-06-01","average_temperature":"21.997","city":"Hofu","latitude":"34.56N","longitude":"132.32E"}
{"date":"2010-01-01","average_temperature":"-14.409","city":"Hohhot","latitude":"40.99N","longitude":"110.77E"}
{"date":"2011-11-01","average_temperature":"-1.461","city":"Hohhot","latitude":"40.99N","longitude":"110.77E"}
{"date":"2010-12-01","average_temperature":"8.008000000000001","city":"Honghu","latitude":"29.74N","longitude":"112.62E"}
{"date":"2010-02-01","average_temperature":"25.281999999999996","city":"Hortolândia","latitude":"23.31S","longitude":"48.06W"}
{"date":"2013-01-01","average_temperature":"17.363","city":"Hoshangabad","latitude":"23.31N","longitude":"77.77E"}
{"date":"2011-01-01","average_temperature":"-7.244","city":"Houma","latitude":"36.17N","longitude":"111.38E"}
{"date":"2013-03-01","average_temperature":"20.052","city":"Hsichih","latitude":"24.92N","longitude":"122.36E"}
{"date":"2010-10-01","average_temperature":"23.38","city":"Hsinchu","latitude":"24.92N","longitude":"120.59E"}
{"date":"2010-06-01","average_temperature":"17.689","city":"Huambo","latitude":"13.66S","longitude":"15.69E"}
{"date":"2010-06-01","average_temperature":"23.495","city":"Huelva","latitude":"37.78N","longitude":"6.10W"}
{"date":"2012-04-01","average_temperature":"20.146","city":"Ibagué","latitude":"4.02N","longitude":"74.73W"}
{"date":"2013-01-01","average_temperature":"23.094","city":"Ibirité","latitude":"20.09S","longitude":"44.36W"}
{"date":"2012-11-01","average_temperature":"12.072000000000001","city":"Ica","latitude":"13.66S","longitude":"75.14W"}
{"date":"2010-09-01","average_temperature":"21.711","city":"Iguala","latitude":"18.48N","longitude":"99.72W"}
{"date":"2010-07-01","average_temperature":"25.524","city":"Iida","latitude":"36.17N","longitude":"137.24E"}
{"date":"2010-11-01","average_temperature":"27.198","city":"Ikare","latitude":"7.23N","longitude":"5.68E"}
{"date":"2010-01-01","average_temperature":"12.095","city":"Ilam","latitude":"32.95N","longitude":"46.91E"}
{"date":"2013-04-01","average_temperature":"28.698","city":"Ilorin","latitude":"8.84N","longitude":"4.05E"}
{"date":"2011-11-01","average_temperature":"14.299000000000001","city":"Imabari","latitude":"34.56N","longitude":"132.32E"}
{"date":"2011-07-01","average_temperature":"23.569000000000003","city":"Inegol","latitude":"39.38N","longitude":"29.13E"}
{"date":"2011-07-01","average_temperature":"23.987","city":"Inglewood","latitude":"34.56N","longitude":"118.70W"}
{"date":"2012-12-01","average_temperature":"8.712","city":"Inglewood","latitude":"34.56N","longitude":"118.70W"}
{"date":"2010-08-01","average_temperature":"21.171","city":"Iringa","latitude":"7.23S","longitude":"36.49E"}
{"date":"2011-04-01","average_temperature":"23.018","city":"Iringa","latitude":"7.23S","longitude":"36.49E"}
{"date":"2011-07-01","average_temperature":"15.187999999999999","city":"Irkutsk","latitude":"52.24N","longitude":"105.11E"}
{"date":"2013-06-01","average_temperature":"12.116","city":"Irkutsk","latitude":"52.24N","longitude":"105.11E"}
{"date":"2013-06-01","average_temperature":"18.632","city":"Irvine","latitude":"32.95N","longitude":"117.77W"}
{"date":"2011-05-01","average_temperature":"27.724","city":"Ise","latitude":"7.23N","longitude":"5.68E"}
{"date":"2011-11-01","average_temperature":"7.6129999999999995","city":"Istanbul","latitude":"40.99N","longitude":"29.82E"}
{"date":"2013-03-01","average_temperature":"10.011","city":"Istanbul","latitude":"40.99N","longitude":"29.82E"}
{"date":"2012-11-01","average_temperature":"19.366","city":"Itagüí","latitude":"5.63N","longitude":"75.87W"}
{"date":"2012-02-01","average_temperature":"25.634","city":"Itaguaí","latitude":"23.31S","longitude":"44.56W"}
{"date":"2011-03-01","average_temperature":"23.651","city":"Itajaí","latitude":"26.52S","longitude":"48.36W"}
{"date":"2011-12-01","average_temperature":"22.463","city":"Itajaí","latitude":"26.52S","longitude":"48.36W"}
{"date":"2013-07-01","average_temperature":"16.849","city":"Itaquaquecetuba","latitude":"23.31S","longitude":"46.31W"}
{"date":"2011-01-01","average_temperature":"-13.866","city":"Izhevsk","latitude":"57.05N","longitude":"54.59E"}
{"date":"2011-01-01","average_temperature":"6.04","city":"Jackson","latitude":"32.95N","longitude":"90.96W"}
{"date":"2013-06-01","average_temperature":"29.119","city":"Jaffna","latitude":"8.84N","longitude":"80.27E"}
{"date":"2011-05-01","average_temperature":"27.23","city":"Jamalpur","latitude":"24.92N","longitude":"90.44E"}
{"date":"2010-09-01","average_temperature":"27.554","city":"Jamnagar","latitude":"21.70N","longitude":"70.10E"}
{"date":"2011-06-01","average_temperature":"15.932","city":"Jandira","latitude":"23.31S","longitude":"46.31W"}
{"date":"2010-04-01","average_temperature":"18.78","city":"Jaramana","latitude":"32.95N","longitude":"35.43E"}
{"date":"2010-10-01","average_temperature":"27.029","city":"Jaranwala","latitude":"31.35N","longitude":"73.51E"}
{"date":"2011-02-01","average_temperature":"15.970999999999998","city":"Jaranwala","latitude":"31.35N","longitude":"73.51E"}
{"date":"2012-11-01","average_temperature":"19.835","city":"Jaranwala","latitude":"31.35N","longitude":"73.51E"}
{"date":"2011-11-01","average_temperature":"22.119","city":"Jaunpur","latitude":"26.52N","longitude":"82.39E"}
{"date":"2010-06-01","average_temperature":"34.638000000000005","city":"Jhansi","latitude":"24.92N","longitude":"78.03E"}
{"date":"2012-08-01","average_temperature":"26.831000000000003","city":"Ji Paraná","latitude":"10.45S","longitude":"61.36W"}
{"date":"2010-11-01","average_temperature":"-5.303999999999999","city":"Jiamusi","latitude":"47.42N","longitude":"131.45E"}
{"date":"2011-09-01","average_temperature":"31.763","city":"Jiddah","latitude":"21.70N","longitude":"38.94E"}
{"date":"2011-03-01","average_temperature":"15.957999999999998","city":"Jieshi","latitude":"23.31N","longitude":"116.21E"}
{"date":"2011-08-01","average_temperature":"24.866999999999997","city":"Jinan","latitude":"36.17N","longitude":"117.35E"}
{"date":"2010-05-01","average_temperature":"16.944000000000003","city":"Jinxi","latitude":"40.99N","longitude":"121.42E"}
{"date":"2010-09-01","average_temperature":"14.245","city":"Jishu","latitude":"44.20N","longitude":"127.45E"}
{"date":"2013-04-01","average_temperature":"30.58","city":"Jodhpur","latitude":"26.52N","longitude":"73.43E"}
{"date":"2010-06-01","average_temperature":"28.024","city":"Johor Bahru","latitude":"0.80N","longitude":"103.66E"}
{"date":"2012-11-01","average_temperature":"4.335","city":"Joliet","latitude":"40.99N","longitude":"87.34W"}
{"date":"2012-11-01","average_temperature":"25.337","city":"Jos","latitude":"10.45N","longitude":"9.00E"}
{"date":"2013-06-01","average_temperature":"25.964000000000002","city":"Juàzeiro","latitude":"8.84S","longitude":"39.73W"}
{"date":"2010-07-01","average_temperature":"24.017000000000003","city":"Juba","latitude":"4.02N","longitude":"31.34E"}
{"date":"2013-01-01","average_temperature":"6.459","city":"Juliaca","latitude":"15.27S","longitude":"70.83W"}
{"date":"2011-09-01","average_temperature":"27.179","city":"Junagadh","latitude":"21.70N","longitude":"70.10E"}
{"date":"2012-07-01","average_temperature":"29.385","city":"Junagadh","latitude":"21.70N","longitude":"70.10E"}
{"date":"2010-02-01","average_temperature":"4.331","city":"Kabul","latitude":"34.56N","longitude":"70.05E"}
{"date":"2013-08-01","average_temperature":"25.658","city":"Kalyan","latitude":"20.09N","longitude":"73.36E"}
{"date":"2011-05-01","average_temperature":"30.395","city":"Kamarhati","latitude":"23.31N","longitude":"88.25E"}
{"date":"2010-07-01","average_temperature":"32.444","city":"Kamoke","latitude":"31.35N","longitude":"73.51E"}
{"date":"2011-08-01","average_temperature":"30.413","city":"Kanchipuram","latitude":"13.66N","longitude":"80.09E"}
{"date":"2012-04-01","average_temperature":"32.704","city":"Kano","latitude":"12.05N","longitude":"8.22E"}
{"date":"2012-06-01","average_temperature":"35.61799999999999","city":"Kanpur","latitude":"26.52N","longitude":"80.60E"}
{"date":"2012-05-01","average_temperature":"31.805999999999997","city":"Karachi","latitude":"24.92N","longitude":"67.39E"}
{"date":"2010-10-01","average_temperature":"18.141","city":"Karaj","latitude":"36.17N","longitude":"51.71E"}
{"date":"2013-03-01","average_temperature":"4.841","city":"Karamay","latitude":"45.81N","longitude":"84.23E"}
{"date":"2010-04-01","average_temperature":"9.589","city":"Kashiwa","latitude":"36.17N","longitude":"139.23E"}
{"date":"2013-05-01","average_temperature":"11.765999999999998","city":"Kassel","latitude":"50.63N","longitude":"8.87E"}
{"date":"2012-02-01","average_temperature":"-8.359","city":"Kaunas","latitude":"55.45N","longitude":"22.68E"}
{"date":"2012-10-01","average_temperature":"13.138","city":"Kayseri","latitude":"39.38N","longitude":"35.38E"}
{"date":"2010-05-01","average_temperature":"17.324","city":"Kazan","latitude":"55.45N","longitude":"48.19E"}
{"date":"2012-11-01","average_temperature":"-0.5220000000000002","city":"Kazan","latitude":"55.45N","longitude":"48.19E"}
{"date":"2010-09-01","average_temperature":"14.684","city":"Kecskemét","latitude":"47.42N","longitude":"20.13E"}
{"date":"2013-09-01","city":"Keelung","latitude":"24.92N","longitude":"122.36E"}
{"date":"2013-06-01","average_temperature":"26.962","city":"Kendari","latitude":"4.02S","longitude":"122.95E"}
{"date":"2012-12-01","average_temperature":"2.113","city":"Kerch","latitude":"45.81N","longitude":"35.77E"}
{"date":"2013-07-01","average_temperature":"28.660999999999998","city":"Kerman","latitude":"29.74N","longitude":"57.23E"}
{"date":"2010-07-01","average_temperature":"28.412","city":"Khammam","latitude":"16.87N","longitude":"80.37E"}
{"date":"2012-03-01","average_temperature":"20.962","city":"Khanna","latitude":"31.35N","longitude":"75.39E"}
{"date":"2010-04-01","average_temperature":"30.852","city":"Khon Kaen","latitude":"16.87N","longitude":"102.14E"}
{"date":"2012-12-01","average_temperature":"7.437","city":"Khorramabad","latitude":"32.95N","longitude":"48.83E"}
{"date":"2012-10-01","average_temperature":"20.926","city":"Khuzdar","latitude":"28.13N","longitude":"66.36E"}
{"date":"2010-11-01","average_temperature":"7.380000000000001","city":"Kiev","latitude":"50.63N","longitude":"31.69E"}
{"date":"2012-12-01","average_temperature":"3.809","city":"Kingston Upon Hull","latitude":"53.84N","longitude":"1.36W"}
{"date":"2013-09-01","average_temperature":"14.599","city":"Kitchener","latitude":"44.20N","longitude":"80.50W"}
{"date":"2010-03-01","average_temperature":"-3.5000000000000004","city":"Kolpino","latitude":"60.27N","longitude":"29.19E"}
{"date":"2012-08-01","average_temperature":"22.441","city":"Konya","latitude":"37.78N","longitude":"32.54E"}
{"date":"2013-02-01","average_temperature":"26.612","city":"Koronadal","latitude":"5.63N","longitude":"124.30E"}
{"date":"2010-09-01","average_temperature":"10.925999999999998","city":"Kostroma","latitude":"57.05N","longitude":"39.84E"}
{"date":"2011-07-01","average_temperature":"22.264","city":"Kostroma","latitude":"57.05N","longitude":"39.84E"}
{"date":"2012-09-01","average_temperature":"28.917","city":"Kot Addu","latitude":"29.74N","longitude":"70.15E"}
{"date":"2011-02-01","average_temperature":"26.116999999999997","city":"Kota Bahru","latitude":"5.63N","longitude":"101.70E"}
{"date":"2010-03-01","average_temperature":"28.302","city":"Kotte","latitude":"7.23N","longitude":"80.27E"}
{"date":"2011-08-01","average_temperature":"13.845999999999998","city":"Krasnoyarsk","latitude":"55.45N","longitude":"93.54E"}
{"date":"2013-08-01","average_temperature":"26.869","city":"Kresek","latitude":"5.63S","longitude":"106.55E"}
{"date":"2013-01-01","average_temperature":"10.191","city":"Kuhdasht","latitude":"32.95N","longitude":"46.91E"}
{"date":"2013-05-01","average_temperature":"27.921000000000006","city":"Kumasi","latitude":"7.23N","longitude":"0.81W"}
{"date":"2012-05-01","average_temperature":"18.076","city":"Kurashiki","latitude":"34.56N","longitude":"134.27E"}
{"date":"2012-05-01","average_temperature":"18.069000000000003","city":"Kusatsu","latitude":"34.56N","longitude":"136.22E"}
{"date":"2013-04-01","average_temperature":"13.069","city":"Kuwana","latitude":"34.56N","longitude":"136.22E"}
{"date":"2012-12-01","average_temperature":"-32.266","city":"Kyzyl","latitude":"52.24N","longitude":"94.60E"}
{"date":"2013-03-01","average_temperature":"-9.221","city":"Kyzyl","latitude":"52.24N","longitude":"94.60E"}
{"date":"2012-03-01","average_temperature":"21.148000000000003","city":"La Plata","latitude":"34.56S","longitude":"58.38W"}
{"date":"2010-07-01","average_temperature":"28.315","city":"La Romana","latitude":"18.48N","longitude":"69.30W"}
{"date":"2010-01-01","average_temperature":"16.458000000000002","city":"La Serena","latitude":"29.74S","longitude":"72.00W"}
{"date":"2011-02-01","average_temperature":"16.564999999999998","city":"La Serena","latitude":"29.74S","longitude":"72.00W"}
{"date":"2011-09-01","average_temperature":"13.592","city":"La Serena","latitude":"29.74S","longitude":"72.00W"}
{"date":"2012-04-01","average_temperature":"21.899","city":"Lafayette","latitude":"29.74N","longitude":"92.31W"}
{"date":"2012-02-01","average_temperature":"27.129","city":"Lagos","latitude":"5.63N","longitude":"3.23E"}
{"date":"2013-05-01","average_temperature":"27.898000000000003","city":"Lahad Datu","latitude":"5.63N","longitude":"117.85E"}
{"date":"2011-04-01","average_temperature":"14.816","city":"Laiwu","latitude":"36.17N","longitude":"117.35E"}
{"date":"2013-08-01","average_temperature":"16.948","city":"Lambaré","latitude":"24.92S","longitude":"58.52W"}
{"date":"2012-12-01","average_temperature":"-6.981999999999998","city":"Lanzhou","latitude":"36.17N","longitude":"103.43E"}
{"date":"2012-07-01","average_temperature":"30.397","city":"Laredo","latitude":"28.13N","longitude":"99.09W"}
{"date":"2010-02-01","average_temperature":"23.259","city":"Las Tunas","latitude":"21.70N","longitude":"77.02W"}
{"date":"2012-09-01","average_temperature":"28.482","city":"Las Tunas","latitude":"21.70N","longitude":"77.02W"}
{"date":"2013-09-01","city":"Latina","latitude":"40.99N","longitude":"12.78E"}
{"date":"2013-06-01","average_temperature":"17.032","city":"León","latitude":"42.59N","longitude":"6.55W"}
{"date":"2011-08-01","average_temperature":"15.155999999999999","city":"Leeds","latitude":"53.84N","longitude":"1.36W"}
{"date":"2010-08-01","average_temperature":"21.898000000000003","city":"Leghorn","latitude":"44.20N","longitude":"11.18E"}
{"date":"2012-08-01","average_temperature":"24.195","city":"Lexington Fayette","latitude":"37.78N","longitude":"85.42W"}
{"date":"2012-06-01","average_temperature":"20.282","city":"Liaoyang","latitude":"40.99N","longitude":"123.55E"}
{"date":"2012-01-01","average_temperature":"22.761999999999997","city":"Lichinga","latitude":"13.66S","longitude":"35.50E"}
{"date":"2012-05-01","average_temperature":"20.447","city":"Lichinga","latitude":"13.66S","longitude":"35.50E"}
{"date":"2011-12-01","average_temperature":"-0.5899999999999999","city":"Lincoln","latitude":"40.99N","longitude":"95.86W"}
{"date":"2010-03-01","average_temperature":"27.381","city":"Linhares","latitude":"20.09S","longitude":"39.24W"}
{"date":"2010-06-01","average_temperature":"23.291","city":"Linshui","latitude":"36.17N","longitude":"113.37E"}
{"date":"2011-01-01","average_temperature":"-6.808","city":"Linshui","latitude":"36.17N","longitude":"113.37E"}
{"date":"2012-05-01","average_temperature":"24.109","city":"Liuzhou","latitude":"24.92N","longitude":"109.95E"}
{"date":"2011-02-01","average_temperature":"7.167999999999999","city":"Liverpool","latitude":"53.84N","longitude":"4.09W"}
{"date":"2013-01-01","average_temperature":"1.028","city":"Ljubljana","latitude":"45.81N","longitude":"15.00E"}
{"date":"2011-10-01","average_temperature":"21.428","city":"Lobito","latitude":"12.05S","longitude":"13.15E"}
{"date":"2010-02-01","average_temperature":"21.540000000000006","city":"Loja","latitude":"4.02S","longitude":"79.55W"}
{"date":"2012-08-01","average_temperature":"21.732","city":"Londrina","latitude":"23.31S","longitude":"51.55W"}
{"date":"2013-05-01","average_temperature":"11.549","city":"Los Angeles","latitude":"37.78S","longitude":"73.22W"}
{"date":"2010-07-01","average_temperature":"9.039","city":"Lower Hutt","latitude":"40.99S","longitude":"174.67E"}
{"date":"2013-01-01","average_temperature":"2.678","city":"Luan","latitude":"31.35N","longitude":"116.86E"}
{"date":"2013-08-01","average_temperature":"21.916","city":"Lubango","latitude":"15.27S","longitude":"14.17E"}
{"date":"2013-04-01","average_temperature":"19.538","city":"Luchou","latitude":"24.92N","longitude":"120.59E"}
{"date":"2010-03-01","average_temperature":"24.482","city":"Ludhiana","latitude":"31.35N","longitude":"75.39E"}
{"date":"2013-07-01","average_temperature":"20.933000000000003","city":"Ludwigshafen","latitude":"49.03N","longitude":"7.35E"}
{"date":"2011-11-01","average_temperature":"25.629","city":"Luque","latitude":"24.92S","longitude":"56.75W"}
{"date":"2013-09-01","city":"Luton","latitude":"52.24N","longitude":"0.00W"}
{"date":"2011-11-01","average_temperature":"2.13","city":"Lvov","latitude":"50.63N","longitude":"24.08E"}
{"date":"2013-01-01","average_temperature":"4.691","city":"Móstoles","latitude":"40.99N","longitude":"4.26W"}
{"date":"2012-02-01","average_temperature":"-0.234","city":"Münster","latitude":"52.24N","longitude":"7.88E"}
{"date":"2010-02-01","average_temperature":"26.835","city":"Mabalacat","latitude":"15.27N","longitude":"120.83E"}
{"date":"2011-05-01","average_temperature":"28.826999999999998","city":"Mabalacat","latitude":"15.27N","longitude":"120.83E"}
{"date":"2012-08-01","average_temperature":"28.161","city":"Macheng","latitude":"31.35N","longitude":"114.97E"}
{"date":"2012-04-01","average_temperature":"30.479","city":"Madanapalle","latitude":"13.66N","longitude":"78.44E"}
{"date":"2011-08-01","average_temperature":"30.413","city":"Madras","latitude":"13.66N","longitude":"80.09E"}
{"date":"2011-06-01","average_temperature":"19.625","city":"Madrid","latitude":"40.99N","longitude":"4.26W"}
{"date":"2012-06-01","average_temperature":"27.971999999999998","city":"Madurai","latitude":"10.45N","longitude":"77.73E"}
{"date":"2010-06-01","average_temperature":"26.421999999999997","city":"Malabo","latitude":"4.02N","longitude":"8.84E"}
{"date":"2010-05-01","average_temperature":"35.363","city":"Maler Kotla","latitude":"29.74N","longitude":"75.69E"}
{"date":"2012-04-01","average_temperature":"26.378","city":"Manama","latitude":"26.52N","longitude":"50.15E"}
{"date":"2010-04-01","average_temperature":"17.925","city":"Manbij","latitude":"36.17N","longitude":"37.79E"}
{"date":"2012-10-01","average_temperature":"27.832","city":"Mandalay","latitude":"21.70N","longitude":"96.06E"}
{"date":"2013-07-01","average_temperature":"29.636","city":"Mandalay","latitude":"21.70N","longitude":"96.06E"}
{"date":"2013-04-01","average_temperature":"25.103","city":"Mandi Bahauddin","latitude":"32.95N","longitude":"73.72E"}
{"date":"2010-10-01","average_temperature":"26.883000000000006","city":"Manila","latitude":"15.27N","longitude":"120.83E"}
{"date":"2013-06-01","average_temperature":"16.578","city":"Mannheim","latitude":"49.03N","longitude":"7.35E"}
{"date":"2011-01-01","average_temperature":"25.274","city":"Manta","latitude":"0.80S","longitude":"81.16W"}
{"date":"2013-05-01","average_temperature":"19.294","city":"Maputo","latitude":"26.52S","longitude":"32.24E"}
{"date":"2011-06-01","average_temperature":"19.342","city":"Marília","latitude":"21.70S","longitude":"49.33W"}
{"date":"2013-01-01","average_temperature":"26.691999999999997","city":"Maracaibo","latitude":"10.45N","longitude":"71.18W"}
{"date":"2010-10-01","average_temperature":"18.946","city":"Marv Dasht","latitude":"29.74N","longitude":"53.54E"}
{"date":"2011-09-01","average_temperature":"26.098000000000003","city":"Mataram","latitude":"8.84S","longitude":"115.95E"}
{"date":"2012-05-01","average_temperature":"17.62","city":"Maykop","latitude":"44.20N","longitude":"40.25E"}
{"date":"2012-09-01","average_temperature":"27.003","city":"Meilu","latitude":"21.70N","longitude":"109.90E"}
{"date":"2010-06-01","average_temperature":"9.93","city":"Mendoza","latitude":"32.95S","longitude":"67.98W"}
{"date":"2012-06-01","average_temperature":"24.645000000000003","city":"Mentougou","latitude":"39.38N","longitude":"116.53E"}
{"date":"2012-09-01","average_temperature":"26.750999999999998","city":"Metro","latitude":"5.63S","longitude":"104.93E"}
{"date":"2011-06-01","average_temperature":"27.944000000000006","city":"Miami","latitude":"26.52N","longitude":"80.60W"}
{"date":"2012-06-01","average_temperature":"27.377","city":"Miami","latitude":"26.52N","longitude":"80.60W"}
{"date":"2013-02-01","average_temperature":"4.6690000000000005","city":"Miandoab","latitude":"36.17N","longitude":"45.75E"}
{"date":"2010-09-01","average_temperature":"27.632","city":"Minatitlán","latitude":"18.48N","longitude":"94.65W"}
{"date":"2012-04-01","average_temperature":"19.02","city":"Mingaora","latitude":"34.56N","longitude":"72.00E"}
{"date":"2010-02-01","average_temperature":"-4.899","city":"Minsk","latitude":"53.84N","longitude":"28.64E"}
{"date":"2012-12-01","average_temperature":"27.052","city":"Miri","latitude":"4.02N","longitude":"113.30E"}
{"date":"2012-07-01","average_temperature":"28.07","city":"Mobile","latitude":"31.35N","longitude":"88.59W"}
{"date":"2011-10-01","average_temperature":"28.577","city":"Mojokerto","latitude":"7.23S","longitude":"112.70E"}
{"date":"2010-02-01","average_temperature":"29.408","city":"Mokolo","latitude":"10.45N","longitude":"13.91E"}
{"date":"2010-04-01","average_temperature":"27.516","city":"Mombasa","latitude":"4.02S","longitude":"39.38E"}
{"date":"2010-07-01","average_temperature":"28.116","city":"Montería","latitude":"8.84N","longitude":"75.41W"}
{"date":"2010-01-01","average_temperature":"4.745","city":"Moriguchi","latitude":"34.56N","longitude":"136.22E"}
{"date":"2011-05-01","average_temperature":"30.903000000000002","city":"Motihari","latitude":"26.52N","longitude":"84.18E"}
{"date":"2010-11-01","average_temperature":"24.515","city":"Munger","latitude":"24.92N","longitude":"86.90E"}
{"date":"2011-02-01","average_temperature":"3.734","city":"Musashino","latitude":"36.17N","longitude":"139.23E"}
{"date":"2012-11-01","average_temperature":"8.718","city":"Musashino","latitude":"36.17N","longitude":"139.23E"}
{"date":"2010-04-01","average_temperature":"24.271","city":"Mwanza","latitude":"2.41S","longitude":"32.95E"}
{"date":"2012-01-01","average_temperature":"1.78","city":"Nagaoka","latitude":"37.78N","longitude":"138.31E"}
{"date":"2013-03-01","average_temperature":"29.111","city":"Nagercoil","latitude":"8.84N","longitude":"77.03E"}
{"date":"2013-08-01","average_temperature":"28.180999999999997","city":"Nagoya","latitude":"34.56N","longitude":"136.22E"}
{"date":"2012-02-01","average_temperature":"22.13","city":"Nagpur","latitude":"21.70N","longitude":"78.75E"}
{"date":"2012-09-01","average_temperature":"24.824","city":"Nampula","latitude":"15.27S","longitude":"39.17E"}
{"date":"2010-12-01","average_temperature":"-0.778","city":"Namur","latitude":"50.63N","longitude":"3.80E"}
{"date":"2012-09-01","average_temperature":"29.53","city":"Nandyal","latitude":"15.27N","longitude":"79.17E"}
{"date":"2011-12-01","average_temperature":"17.404","city":"Nantou","latitude":"23.31N","longitude":"121.46E"}
{"date":"2012-11-01","average_temperature":"13.03","city":"Naples","latitude":"40.99N","longitude":"14.91E"}
{"date":"2010-10-01","average_temperature":"15.228","city":"Naucalpan","latitude":"20.09N","longitude":"98.96W"}
{"date":"2010-05-01","average_temperature":"36.363","city":"Nawabshah","latitude":"26.52N","longitude":"68.06E"}
{"date":"2010-12-01","average_temperature":"4.498","city":"Nazran","latitude":"44.20N","longitude":"44.72E"}
{"date":"2012-11-01","average_temperature":"20.045","city":"Nazret","latitude":"8.84N","longitude":"39.73E"}
{"date":"2011-07-01","average_temperature":"24.564","city":"New York","latitude":"40.99N","longitude":"74.56W"}
{"date":"2011-02-01","average_temperature":"6.5440000000000005","city":"Newport","latitude":"52.24N","longitude":"2.63W"}
{"date":"2013-09-01","average_temperature":"20.894","city":"Newport News","latitude":"37.78N","longitude":"77.29W"}
{"date":"2010-02-01","average_temperature":"25.353","city":"Ngaoundéré","latitude":"7.23N","longitude":"13.78E"}
{"date":"2011-11-01","average_temperature":"28.53","city":"Niamey","latitude":"13.66N","longitude":"2.48E"}
{"date":"2011-04-01","average_temperature":"11.151","city":"Nice","latitude":"44.20N","longitude":"6.71E"}
{"date":"2011-07-01","average_temperature":"26.517","city":"Niihama","latitude":"34.56N","longitude":"134.27E"}
{"date":"2013-04-01","average_temperature":"12.478","city":"Niihama","latitude":"34.56N","longitude":"134.27E"}
{"date":"2010-11-01","average_temperature":"11.601","city":"Nishinomiya","latitude":"34.56N","longitude":"136.22E"}
{"date":"2010-06-01","average_temperature":"13.649000000000001","city":"North Shore","latitude":"36.17S","longitude":"175.03E"}
{"date":"2013-04-01","average_temperature":"6.733","city":"Novara","latitude":"45.81N","longitude":"8.08E"}
{"date":"2010-10-01","average_temperature":"8.824","city":"Novi Sad","latitude":"45.81N","longitude":"19.62E"}
{"date":"2013-02-01","average_temperature":"25.49","city":"Nueva San Salvador","latitude":"13.66N","longitude":"90.00W"}
{"date":"2010-10-01","average_temperature":"25.55","city":"Nzérékoré","latitude":"7.23N","longitude":"8.92W"}
{"date":"2012-08-01","average_temperature":"19.663","city":"Obihiro","latitude":"42.59N","longitude":"144.00E"}
{"date":"2012-05-01","average_temperature":"16.644000000000002","city":"Oceanside","latitude":"32.95N","longitude":"117.77W"}
{"date":"2012-03-01","average_temperature":"28.285999999999998","city":"Opobo","latitude":"4.02N","longitude":"7.23E"}
{"date":"2010-10-01","average_temperature":"4.1850000000000005","city":"Orël","latitude":"52.24N","longitude":"36.79E"}
{"date":"2010-12-01","average_temperature":"-1.501","city":"Oradea","latitude":"47.42N","longitude":"22.50E"}
{"date":"2012-04-01","average_temperature":"25.405","city":"Orizaba","latitude":"18.48N","longitude":"96.34W"}
{"date":"2013-04-01","average_temperature":"25.581","city":"Orizaba","latitude":"18.48N","longitude":"96.34W"}
{"date":"2012-06-01","average_temperature":"16.590999999999998","city":"Orléans","latitude":"47.42N","longitude":"1.18E"}
{"date":"2013-07-01","average_temperature":"4.494","city":"Osorno","latitude":"40.99S","longitude":"72.43W"}
{"date":"2013-06-01","average_temperature":"15.396","city":"Otaru","latitude":"42.59N","longitude":"141.82E"}
{"date":"2011-08-01","average_temperature":"19.03","city":"Ottawa","latitude":"45.81N","longitude":"75.00W"}
{"date":"2013-02-01","average_temperature":"-8.774000000000001","city":"Ottawa","latitude":"45.81N","longitude":"75.00W"}
{"date":"2012-11-01","average_temperature":"27.64","city":"Otukpo","latitude":"7.23N","longitude":"8.92E"}
{"date":"2011-02-01","average_temperature":"28.462","city":"Owerri","latitude":"5.63N","longitude":"6.46E"}
{"date":"2010-01-01","average_temperature":"2.608","city":"Oyama","latitude":"36.17N","longitude":"139.23E"}
{"date":"2011-05-01","average_temperature":"16.147000000000002","city":"Oyama","latitude":"36.17N","longitude":"139.23E"}
{"date":"2010-09-01","average_temperature":"29.212","city":"Pabna","latitude":"23.31N","longitude":"90.00E"}
{"date":"2013-09-01","city":"Pak Kret","latitude":"13.66N","longitude":"99.91E"}
{"date":"2011-10-01","average_temperature":"27.254","city":"Palembang","latitude":"2.41S","longitude":"105.27E"}
{"date":"2012-03-01","average_temperature":"26.112","city":"Palmas","latitude":"10.45S","longitude":"48.27W"}
{"date":"2013-07-01","average_temperature":"25.09","city":"Palmdale","latitude":"34.56N","longitude":"118.70W"}
{"date":"2010-10-01","average_temperature":"26.429000000000002","city":"Panamá","latitude":"8.84N","longitude":"80.27W"}
{"date":"2012-01-01","average_temperature":"27.375","city":"Panamá","latitude":"8.84N","longitude":"80.27W"}
{"date":"2013-01-01","average_temperature":"26.49","city":"Pangkah","latitude":"7.23S","longitude":"109.46E"}
{"date":"2013-03-01","average_temperature":"26.301","city":"Panvel","latitude":"18.48N","longitude":"72.68E"}
{"date":"2012-06-01","average_temperature":"19.297","city":"Paranaguá","latitude":"24.92S","longitude":"47.88W"}
{"date":"2013-03-01","average_temperature":"28.717","city":"Parbhani","latitude":"20.09N","longitude":"76.78E"}
{"date":"2010-09-01","average_temperature":"28.139000000000006","city":"Parnaíba","latitude":"2.41S","longitude":"40.98W"}
{"date":"2011-03-01","average_temperature":"6.5729999999999995","city":"Parsabad","latitude":"39.38N","longitude":"47.86E"}
{"date":"2011-11-01","average_temperature":"27.179","city":"Parung","latitude":"5.63S","longitude":"106.55E"}
{"date":"2013-09-01","city":"Paseh","latitude":"7.23S","longitude":"107.84E"}
{"date":"2011-02-01","average_temperature":"16.980999999999998","city":"Pasto","latitude":"0.80N","longitude":"77.95W"}
{"date":"2012-04-01","average_temperature":"21.638","city":"Pate","latitude":"24.92N","longitude":"120.59E"}
{"date":"2011-07-01","average_temperature":"24.564","city":"Paterson","latitude":"40.99N","longitude":"74.56W"}
{"date":"2012-10-01","average_temperature":"12.436","city":"Paterson","latitude":"40.99N","longitude":"74.56W"}
{"date":"2010-11-01","average_temperature":"20.348","city":"Patiala","latitude":"29.74N","longitude":"75.69E"}
{"date":"2011-09-01","average_temperature":"14.112","city":"Pavlodar","latitude":"52.24N","longitude":"76.20E"}
{"date":"2013-07-01","average_temperature":"21.485","city":"Pavlohrad","latitude":"49.03N","longitude":"36.73E"}
{"date":"2011-03-01","average_temperature":"25.461","city":"Payakumbuh","latitude":"0.80S","longitude":"100.45E"}
{"date":"2013-02-01","average_temperature":"-7.446999999999999","city":"Penza","latitude":"53.84N","longitude":"45.00E"}
{"date":"2010-10-01","average_temperature":"12.714","city":"Perugia","latitude":"42.59N","longitude":"13.09E"}
{"date":"2011-12-01","average_temperature":"26.616","city":"Petaling Jaya","latitude":"2.41N","longitude":"102.05E"}
{"date":"2012-02-01","average_temperature":"25.033","city":"Petare","latitude":"10.45N","longitude":"66.27W"}
{"date":"2010-07-01","average_temperature":"24.229","city":"Petrópolis","latitude":"23.31S","longitude":"42.82W"}
{"date":"2013-07-01","average_temperature":"16.201","city":"Phalaborwa","latitude":"23.31S","longitude":"30.58E"}
{"date":"2011-03-01","average_temperature":"27.947","city":"Phnum Pénh","latitude":"12.05N","longitude":"105.21E"}
{"date":"2013-08-01","average_temperature":"29.33","city":"Pilibhit","latitude":"28.13N","longitude":"79.09E"}
{"date":"2010-06-01","average_temperature":"16.759999999999998","city":"Pindamonhangaba","latitude":"23.31S","longitude":"46.31W"}
{"date":"2012-02-01","average_temperature":"-3.612","city":"Pingliang","latitude":"36.17N","longitude":"107.40E"}
{"date":"2012-08-01","average_temperature":"20.896","city":"Pingliang","latitude":"36.17N","longitude":"107.40E"}
{"date":"2013-09-01","city":"Plzen","latitude":"50.63N","longitude":"13.94E"}
{"date":"2012-05-01","average_temperature":"14.800999999999998","city":"Podgorica","latitude":"42.59N","longitude":"19.64E"}
{"date":"2012-09-01","average_temperature":"16.886","city":"Poltava","latitude":"49.03N","longitude":"34.29E"}
{"date":"2012-10-01","average_temperature":"28.897","city":"Pondicherry","latitude":"12.05N","longitude":"80.55E"}
{"date":"2013-06-01","average_temperature":"28.013","city":"Pontianak","latitude":"0.80S","longitude":"110.09E"}
{"date":"2013-03-01","average_temperature":"26.358","city":"Portoviejo","latitude":"0.80S","longitude":"81.16W"}
{"date":"2011-10-01","average_temperature":"21.456999999999997","city":"Posadas","latitude":"28.13S","longitude":"55.45W"}
{"date":"2010-01-01","average_temperature":"25.852","city":"Presidente Prudente","latitude":"21.70S","longitude":"51.06W"}
{"date":"2013-06-01","average_temperature":"27.342","city":"Probolinggo","latitude":"7.23S","longitude":"112.70E"}
{"date":"2012-04-01","average_temperature":"10.035","city":"Provo","latitude":"39.38N","longitude":"112.37W"}
{"date":"2013-02-01","average_temperature":"23.807","city":"Pune","latitude":"18.48N","longitude":"74.37E"}
{"date":"2012-04-01","average_temperature":"5.7799999999999985","city":"Puno","latitude":"15.27S","longitude":"70.83W"}
{"date":"2012-01-01","average_temperature":"27.185","city":"Punto Fijo","latitude":"12.05N","longitude":"70.68W"}
{"date":"2011-05-01","average_temperature":"22.666","city":"Puqi","latitude":"29.74N","longitude":"114.46E"}
{"date":"2012-07-01","average_temperature":"30.605","city":"Puqi","latitude":"29.74N","longitude":"114.46E"}
{"date":"2010-09-01","average_temperature":"26.335","city":"Purnia","latitude":"26.52N","longitude":"87.76E"}
{"date":"2010-06-01","average_temperature":"25.484","city":"Purwakarta","latitude":"7.23S","longitude":"107.84E"}
{"date":"2010-06-01","average_temperature":"26.105999999999998","city":"Qarchak","latitude":"36.17N","longitude":"51.71E"}
{"date":"2013-06-01","average_temperature":"27.424","city":"Qom","latitude":"34.56N","longitude":"50.59E"}
{"date":"2013-03-01","average_temperature":"11.6","city":"Quetta","latitude":"29.74N","longitude":"66.46E"}
{"date":"2010-07-01","average_temperature":"17.237000000000002","city":"Quito","latitude":"0.80S","longitude":"77.95W"}
{"date":"2011-12-01","average_temperature":"19.000999999999998","city":"Raiganj","latitude":"24.92N","longitude":"88.67E"}
{"date":"2011-11-01","average_temperature":"27.298","city":"Rangoon","latitude":"16.87N","longitude":"95.44E"}
{"date":"2011-12-01","average_temperature":"25.715999999999998","city":"Rangoon","latitude":"16.87N","longitude":"95.44E"}
{"date":"2010-04-01","average_temperature":"28.345","city":"Rantauprapat","latitude":"2.41N","longitude":"100.45E"}
{"date":"2013-01-01","average_temperature":"4.843999999999999","city":"Rasht","latitude":"37.78N","longitude":"48.81E"}
{"date":"2010-06-01","average_temperature":"35.31599999999999","city":"Rewa","latitude":"24.92N","longitude":"81.58E"}
{"date":"2012-11-01","average_temperature":"21.110000000000007","city":"Rewari","latitude":"28.13N","longitude":"77.27E"}
{"date":"2012-04-01","average_temperature":"16.570999999999998","city":"Rialto","latitude":"34.56N","longitude":"116.76W"}
{"date":"2010-05-01","average_temperature":"24.649","city":"Rio Branco","latitude":"10.45S","longitude":"67.91W"}
{"date":"2010-05-01","average_temperature":"30.769000000000002","city":"Robertsonpet","latitude":"13.66N","longitude":"78.44E"}
{"date":"2013-06-01","average_temperature":"20.205","city":"Rockford","latitude":"42.59N","longitude":"89.45W"}
{"date":"2013-09-01","city":"Rohtak","latitude":"28.13N","longitude":"77.27E"}
{"date":"2011-07-01","average_temperature":"16.02","city":"Rotterdam","latitude":"52.24N","longitude":"5.26E"}
{"date":"2011-12-01","average_temperature":"21.831999999999997","city":"Rustenburg","latitude":"26.52S","longitude":"26.87E"}
{"date":"2010-11-01","average_temperature":"6.49","city":"Rzeszow","latitude":"50.63N","longitude":"21.55E"}
{"date":"2012-06-01","average_temperature":"19.456","city":"São Carlos","latitude":"21.70S","longitude":"47.60W"}
{"date":"2012-10-01","average_temperature":"22.419","city":"São José Dos Campos","latitude":"23.31S","longitude":"46.31W"}
{"date":"2013-03-01","average_temperature":"21.061","city":"São Leopoldo","latitude":"29.74S","longitude":"51.69W"}
{"date":"2012-02-01","average_temperature":"26.69","city":"São Luís","latitude":"2.41S","longitude":"44.20W"}
{"date":"2010-03-01","average_temperature":"5.465","city":"Saarbrücken","latitude":"49.03N","longitude":"7.35E"}
{"date":"2013-01-01","average_temperature":"11.407","city":"Sabadell","latitude":"40.99N","longitude":"2.13E"}
{"date":"2012-11-01","average_temperature":"18.792","city":"Saint Petersburg","latitude":"28.13N","longitude":"82.73W"}
{"date":"2012-06-01","average_temperature":"18.011","city":"Sakata","latitude":"39.38N","longitude":"139.42E"}
{"date":"2011-10-01","average_temperature":"27.145","city":"Salalah","latitude":"16.87N","longitude":"53.58E"}
{"date":"2013-01-01","average_temperature":"5.6770000000000005","city":"Salamanca","latitude":"40.99N","longitude":"6.39W"}
{"date":"2013-03-01","average_temperature":"26.785","city":"Salatiga","latitude":"7.23S","longitude":"111.08E"}
{"date":"2011-03-01","average_temperature":"11.345","city":"Salinas","latitude":"36.17N","longitude":"121.33W"}
{"date":"2011-02-01","average_temperature":"17.052","city":"Salta","latitude":"24.92S","longitude":"65.62W"}
{"date":"2012-01-01","average_temperature":"19.724","city":"Sambalpur","latitude":"21.70N","longitude":"83.94E"}
{"date":"2011-06-01","average_temperature":"27.823","city":"San Francisco De Macorís","latitude":"20.09N","longitude":"69.95W"}
{"date":"2010-07-01","average_temperature":"24.721999999999998","city":"San José","latitude":"10.45N","longitude":"84.27W"}
{"date":"2010-10-01","average_temperature":"25.203000000000003","city":"San José","latitude":"10.45N","longitude":"84.27W"}
{"date":"2011-11-01","average_temperature":"11.478","city":"San Jose","latitude":"37.78N","longitude":"122.03W"}
{"date":"2011-01-01","average_temperature":"26.559","city":"San Juan","latitude":"31.35S","longitude":"67.85W"}
{"date":"2012-05-01","average_temperature":"26.428","city":"San Juan","latitude":"18.48N","longitude":"65.92W"}
{"date":"2013-09-01","average_temperature":"27.901","city":"San Juan","latitude":"18.48N","longitude":"65.92W"}
{"date":"2011-04-01","average_temperature":"21.203000000000003","city":"San Juan Sacatepéquez","latitude":"15.27N","longitude":"90.83W"}
{"date":"2013-05-01","average_temperature":"27.743000000000002","city":"San Miguelito","latitude":"8.84N","longitude":"80.27W"}
{"date":"2011-10-01","average_temperature":"26.924","city":"San Pablo","latitude":"13.66N","longitude":"121.38E"}
{"date":"2013-08-01","average_temperature":"25.815","city":"San Salvador","latitude":"13.66N","longitude":"90.00W"}
{"date":"2010-11-01","average_temperature":"20.084","city":"Sanchung","latitude":"24.92N","longitude":"120.59E"}
{"date":"2010-12-01","average_temperature":"7.022","city":"Sanda","latitude":"34.56N","longitude":"134.27E"}
{"date":"2011-11-01","average_temperature":"13.82","city":"Sanda","latitude":"34.56N","longitude":"134.27E"}
{"date":"2011-11-01","average_temperature":"25.241","city":"Santa Ana","latitude":"13.66N","longitude":"90.00W"}
{"date":"2012-09-01","average_temperature":"28.054000000000002","city":"Santa Clara","latitude":"21.70N","longitude":"80.48W"}
{"date":"2012-05-01","average_temperature":"16.555","city":"Santa Clara","latitude":"37.78N","longitude":"122.03W"}
{"date":"2010-02-01","average_temperature":"25.511999999999997","city":"Santa Cruz Do Sul","latitude":"29.74S","longitude":"51.69W"}
{"date":"2010-06-01","average_temperature":"14.906","city":"Santa Maria","latitude":"29.74S","longitude":"53.54W"}
{"date":"2010-10-01","average_temperature":"28.373","city":"Santarém","latitude":"2.41S","longitude":"55.45W"}
{"date":"2010-10-01","average_temperature":"28.722","city":"Santiago","latitude":"20.09N","longitude":"69.95W"}
{"date":"2010-05-01","average_temperature":"29.046999999999997","city":"Santiago","latitude":"16.87N","longitude":"122.23E"}
{"date":"2012-01-01","average_temperature":"24.112","city":"Santiago De Cuba","latitude":"20.09N","longitude":"75.07W"}
{"date":"2011-06-01","average_temperature":"12.521","city":"Santiago Del Estero","latitude":"28.13S","longitude":"64.55W"}
{"date":"2013-04-01","average_temperature":"20.48","city":"Santo André","latitude":"23.31S","longitude":"46.31W"}
{"date":"2013-04-01","average_temperature":"13.15","city":"Saqqez","latitude":"36.17N","longitude":"45.75E"}
{"date":"2010-06-01","average_temperature":"18.131","city":"Sarajevo","latitude":"44.20N","longitude":"17.89E"}
{"date":"2010-05-01","average_temperature":"17.041","city":"Saransk","latitude":"53.84N","longitude":"45.00E"}
{"date":"2013-02-01","average_temperature":"11.200999999999999","city":"Scottsdale","latitude":"32.95N","longitude":"112.02W"}
{"date":"2012-06-01","average_temperature":"25.95","city":"Sekondi","latitude":"5.63N","longitude":"1.61W"}
{"date":"2012-04-01","average_temperature":"26.964","city":"Semarang","latitude":"7.23S","longitude":"111.08E"}
{"date":"2010-10-01","average_temperature":"26.32","city":"Sepatan","latitude":"5.63S","longitude":"106.55E"}
{"date":"2010-09-01","average_temperature":"22.191000000000006","city":"Sete Lagoas","latitude":"20.09S","longitude":"44.36W"}
{"date":"2011-01-01","average_temperature":"23.625","city":"Sete Lagoas","latitude":"20.09S","longitude":"44.36W"}
{"date":"2010-12-01","average_temperature":"3.698","city":"Seto","latitude":"36.17N","longitude":"137.24E"}
{"date":"2011-02-01","average_temperature":"10.87","city":"Sevilla","latitude":"37.78N","longitude":"6.10W"}
{"date":"2012-08-01","average_temperature":"25.113000000000003","city":"Shaki","latitude":"8.84N","longitude":"4.05E"}
{"date":"2013-05-01","average_temperature":"27.535","city":"Shaki","latitude":"8.84N","longitude":"4.05E"}
{"date":"2013-09-01","city":"Shangqiu","latitude":"34.56N","longitude":"114.81E"}
{"date":"2010-07-01","average_temperature":"29.979","city":"Shantipur","latitude":"23.31N","longitude":"88.25E"}
{"date":"2012-01-01","average_temperature":"6.1579999999999995","city":"Shaoguan","latitude":"24.92N","longitude":"113.50E"}
{"date":"2012-04-01","average_temperature":"18.209","city":"Shashi","latitude":"29.74N","longitude":"112.62E"}
{"date":"2010-07-01","average_temperature":"32.444","city":"Shekhupura","latitude":"31.35N","longitude":"73.51E"}
{"date":"2012-07-01","average_temperature":"25.967","city":"Shiliguri","latitude":"26.52N","longitude":"87.76E"}
{"date":"2012-06-01","average_temperature":"20.945","city":"Shimonoseki","latitude":"34.56N","longitude":"130.38E"}
{"date":"2010-01-01","average_temperature":"23.245","city":"Shinyanga","latitude":"4.02S","longitude":"32.95E"}
{"date":"2013-04-01","average_temperature":"19.195","city":"Shiraz","latitude":"29.74N","longitude":"51.69E"}
{"date":"2011-02-01","average_temperature":"9.738","city":"Shreveport","latitude":"32.95N","longitude":"92.87W"}
{"date":"2011-07-01","average_temperature":"30.473000000000006","city":"Shreveport","latitude":"32.95N","longitude":"92.87W"}
{"date":"2012-07-01","average_temperature":"29.68","city":"Shrirampur","latitude":"23.31N","longitude":"88.25E"}
{"date":"2011-05-01","average_temperature":"12.757","city":"Siauliai","latitude":"55.45N","longitude":"22.68E"}
{"date":"2012-08-01","average_temperature":"26.748","city":"Sibu","latitude":"2.41N","longitude":"111.70E"}
{"date":"2013-03-01","average_temperature":"0.6970000000000001","city":"Siegen","latitude":"50.63N","longitude":"8.87E"}
{"date":"2012-04-01","average_temperature":"29.540000000000006","city":"Sikasso","latitude":"10.45N","longitude":"5.73W"}
{"date":"2012-08-01","average_temperature":"26.88","city":"Sikasso","latitude":"10.45N","longitude":"5.73W"}
{"date":"2012-02-01","average_temperature":"27.384","city":"Singaraja","latitude":"8.84S","longitude":"114.32E"}
{"date":"2010-11-01","average_temperature":"7.112","city":"Sivas","latitude":"39.38N","longitude":"37.46E"}
{"date":"2011-08-01","average_temperature":"31.930999999999997","city":"Sohag","latitude":"26.52N","longitude":"32.24E"}
{"date":"2010-03-01","average_temperature":"31.655","city":"Sokoto","latitude":"13.66N","longitude":"5.78E"}
{"date":"2010-08-01","average_temperature":"13.343","city":"Somerset West","latitude":"34.56S","longitude":"19.46E"}
{"date":"2013-03-01","average_temperature":"23.188000000000002","city":"Sorocaba","latitude":"23.31S","longitude":"48.06W"}
{"date":"2010-03-01","average_temperature":"3.5989999999999998","city":"Sosnowiec","latitude":"50.63N","longitude":"19.01E"}
{"date":"2011-02-01","average_temperature":"27.539","city":"Soubré","latitude":"5.63N","longitude":"6.46W"}
{"date":"2011-02-01","average_temperature":"25.191000000000006","city":"Spanish Town","latitude":"18.48N","longitude":"77.75W"}
{"date":"2011-07-01","average_temperature":"17.767","city":"Spokane","latitude":"47.42N","longitude":"117.24W"}
{"date":"2013-07-01","average_temperature":"15.069","city":"Stavanger","latitude":"58.66N","longitude":"6.15E"}
{"date":"2011-06-01","average_temperature":"20.000999999999998","city":"Suceava","latitude":"47.42N","longitude":"27.24E"}
{"date":"2013-02-01","average_temperature":"0.4630000000000001","city":"Suceava","latitude":"47.42N","longitude":"27.24E"}
{"date":"2010-03-01","average_temperature":"-9.97","city":"Suihua","latitude":"47.42N","longitude":"126.71E"}
{"date":"2012-08-01","average_temperature":"28.055","city":"Sunggal","latitude":"4.02N","longitude":"98.84E"}
{"date":"2012-05-01","average_temperature":"23.836","city":"Sunrise Manor","latitude":"36.17N","longitude":"115.36W"}
{"date":"2013-02-01","average_temperature":"22.726000000000006","city":"Surendranagar","latitude":"23.31N","longitude":"72.52E"}
{"date":"2010-02-01","average_temperature":"6.8420000000000005","city":"Suzuka","latitude":"34.56N","longitude":"136.22E"}
{"date":"2010-01-01","average_temperature":"-17.852","city":"Syzran","latitude":"53.84N","longitude":"47.73E"}
{"date":"2011-07-01","average_temperature":"17.672","city":"Szczecin","latitude":"53.84N","longitude":"15.00E"}
{"date":"2012-08-01","average_temperature":"18.301","city":"Szczecin","latitude":"53.84N","longitude":"15.00E"}
{"date":"2013-08-01","average_temperature":"27.978","city":"Taian","latitude":"36.17N","longitude":"117.35E"}
{"date":"2013-01-01","average_temperature":"1.5119999999999998","city":"Taizhou","latitude":"32.95N","longitude":"119.68E"}
{"date":"2010-01-01","average_temperature":"2.608","city":"Takasaki","latitude":"36.17N","longitude":"139.23E"}
{"date":"2012-02-01","average_temperature":"4.3420000000000005","city":"Takatsuki","latitude":"34.56N","longitude":"136.22E"}
{"date":"2011-04-01","average_temperature":"11.027999999999999","city":"Talca","latitude":"36.17S","longitude":"71.60W"}
{"date":"2010-04-01","average_temperature":"19.015","city":"Tali","latitude":"24.92N","longitude":"120.59E"}
{"date":"2010-11-01","average_temperature":"20.084","city":"Tali","latitude":"24.92N","longitude":"120.59E"}
{"date":"2011-09-01","average_temperature":"26.56","city":"Taman","latitude":"7.23S","longitude":"109.46E"}
{"date":"2012-11-01","average_temperature":"1.249","city":"Tambov","latitude":"52.24N","longitude":"42.04E"}
{"date":"2011-06-01","average_temperature":"27.823","city":"Tampa","latitude":"28.13N","longitude":"82.73W"}
{"date":"2012-03-01","average_temperature":"26.815","city":"Tanete","latitude":"5.63S","longitude":"119.46E"}
{"date":"2011-08-01","average_temperature":"25.358","city":"Tanggu","latitude":"39.38N","longitude":"118.61E"}
{"date":"2010-06-01","average_temperature":"17.833","city":"Tarnow","latitude":"50.63N","longitude":"21.55E"}
{"date":"2011-10-01","average_temperature":"8.073","city":"Tarnow","latitude":"50.63N","longitude":"21.55E"}
{"date":"2011-01-01","average_temperature":"-5.291","city":"Tartu","latitude":"58.66N","longitude":"27.69E"}
{"date":"2012-04-01","average_temperature":"21.719","city":"Tehuacán","latitude":"18.48N","longitude":"98.03W"}
{"date":"2011-06-01","average_temperature":"23.594","city":"Tel Aviv Yafo","latitude":"31.35N","longitude":"33.93E"}
{"date":"2011-08-01","average_temperature":"27.091","city":"Teluknaga","latitude":"5.63S","longitude":"106.55E"}
{"date":"2011-08-01","average_temperature":"34.236","city":"Tempe","latitude":"32.95N","longitude":"112.02W"}
{"date":"2010-11-01","average_temperature":"10.379000000000001","city":"Tengzhou","latitude":"34.56N","longitude":"116.76E"}
{"date":"2010-05-01","average_temperature":"23.07","city":"Termiz","latitude":"37.78N","longitude":"67.12E"}
{"date":"2011-08-01","average_temperature":"28.706","city":"Termiz","latitude":"37.78N","longitude":"67.12E"}
{"date":"2010-02-01","average_temperature":"5.1530000000000005","city":"Terni","latitude":"42.59N","longitude":"13.09E"}
{"date":"2011-06-01","average_temperature":"27.648000000000003","city":"Thái Nguyên","latitude":"21.70N","longitude":"106.44E"}
{"date":"2012-09-01","average_temperature":"22.326","city":"Thessaloníki","latitude":"40.99N","longitude":"23.43E"}
{"date":"2010-05-01","average_temperature":"21.717","city":"Tianmen","latitude":"31.35N","longitude":"113.09E"}
{"date":"2010-03-01","average_temperature":"-10.435","city":"Tieli","latitude":"47.42N","longitude":"129.08E"}
{"date":"2010-01-01","average_temperature":"-14.133","city":"Tieling","latitude":"42.59N","longitude":"124.36E"}
{"date":"2011-02-01","average_temperature":"-1.514","city":"Timisoara","latitude":"45.81N","longitude":"21.92E"}
{"date":"2011-07-01","average_temperature":"26.588","city":"Tiruppur","latitude":"10.45N","longitude":"77.73E"}
{"date":"2013-04-01","average_temperature":"31.914","city":"Tiruvannamalai","latitude":"12.05N","longitude":"78.90E"}
{"date":"2010-03-01","average_temperature":"7.729","city":"Tokat","latitude":"40.99N","longitude":"36.21E"}
{"date":"2012-11-01","average_temperature":"27.769","city":"Toledo","latitude":"10.45N","longitude":"123.55E"}
{"date":"2013-06-01","average_temperature":"21.206","city":"Toledo","latitude":"40.99N","longitude":"83.08W"}
{"date":"2011-01-01","average_temperature":"26.691999999999997","city":"Toliary","latitude":"23.31S","longitude":"42.82E"}
{"date":"2012-08-01","average_temperature":"26.892000000000003","city":"Torrance","latitude":"34.56N","longitude":"118.70W"}
{"date":"2012-12-01","average_temperature":"4.9719999999999995","city":"Torrejón De Ardoz","latitude":"40.99N","longitude":"4.26W"}
{"date":"2013-07-01","average_temperature":"27.596","city":"Tottori","latitude":"34.56N","longitude":"134.27E"}
{"date":"2013-04-01","average_temperature":"9.944","city":"Tours","latitude":"47.42N","longitude":"1.18E"}
{"date":"2011-10-01","average_temperature":"19.493","city":"Toyohashi","latitude":"34.56N","longitude":"138.16E"}
{"date":"2012-10-01","average_temperature":"28.235","city":"Trincomalee","latitude":"8.84N","longitude":"81.89E"}
{"date":"2013-03-01","average_temperature":"7.955","city":"Tsuchiura","latitude":"36.17N","longitude":"139.23E"}
{"date":"2012-02-01","average_temperature":"1.8419999999999999","city":"Tsukuba","latitude":"36.17N","longitude":"139.23E"}
{"date":"2012-11-01","average_temperature":"20.0","city":"Tucheng","latitude":"24.92N","longitude":"120.59E"}
{"date":"2011-01-01","average_temperature":"9.461","city":"Tucson","latitude":"31.35N","longitude":"111.20W"}
{"date":"2012-06-01","average_temperature":"28.747","city":"Tuguegarao","latitude":"18.48N","longitude":"121.69E"}
{"date":"2013-07-01","average_temperature":"26.708000000000002","city":"Tulsa","latitude":"36.17N","longitude":"95.47W"}
{"date":"2011-01-01","average_temperature":"20.199","city":"Tunja","latitude":"5.63N","longitude":"72.65W"}
{"date":"2011-03-01","average_temperature":"6.4639999999999995","city":"Turhal","latitude":"40.99N","longitude":"36.21E"}
{"date":"2011-10-01","average_temperature":"26.543000000000006","city":"Ubon Ratchathani","latitude":"15.27N","longitude":"104.17E"}
{"date":"2013-07-01","average_temperature":"24.645000000000003","city":"Ueda","latitude":"36.17N","longitude":"139.23E"}
{"date":"2013-09-01","city":"Uji","latitude":"34.56N","longitude":"136.22E"}
{"date":"2010-06-01","average_temperature":"27.021","city":"Uyo","latitude":"5.63N","longitude":"8.07E"}
{"date":"2011-06-01","average_temperature":"31.095","city":"Vadodara","latitude":"21.70N","longitude":"73.56E"}
{"date":"2011-04-01","average_temperature":"11.5","city":"Valdivia","latitude":"39.38S","longitude":"72.83W"}
{"date":"2012-10-01","average_temperature":"16.704","city":"Van","latitude":"37.78N","longitude":"42.71E"}
{"date":"2010-07-01","average_temperature":"23.618000000000002","city":"Vanadzor","latitude":"40.99N","longitude":"44.73E"}
{"date":"2012-01-01","average_temperature":"4.391","city":"Vancouver","latitude":"45.81N","longitude":"123.46W"}
{"date":"2012-05-01","average_temperature":"13.32","city":"Vereeniging","latitude":"26.52S","longitude":"28.66E"}
{"date":"2012-08-01","average_temperature":"23.976","city":"Vicenza","latitude":"45.81N","longitude":"12.69E"}
{"date":"2013-01-01","average_temperature":"17.363","city":"Vidisha","latitude":"23.31N","longitude":"77.77E"}
{"date":"2013-08-01","average_temperature":"25.783","city":"Vidisha","latitude":"23.31N","longitude":"77.77E"}
{"date":"2011-11-01","average_temperature":"18.590999999999998","city":"Villa Nueva","latitude":"15.27N","longitude":"90.83W"}
{"date":"2012-12-01","average_temperature":"-5.425","city":"Vilnius","latitude":"55.45N","longitude":"25.51E"}
{"date":"2010-11-01","average_temperature":"23.287000000000006","city":"Vinh","latitude":"18.48N","longitude":"106.48E"}
{"date":"2011-07-01","average_temperature":"29.83","city":"Vinh","latitude":"18.48N","longitude":"106.48E"}
{"date":"2013-03-01","average_temperature":"10.207","city":"Viransehir","latitude":"37.78N","longitude":"40.68E"}
{"date":"2012-07-01","average_temperature":"20.24","city":"Vitória","latitude":"20.09S","longitude":"40.95W"}
{"date":"2012-12-01","average_temperature":"24.993000000000002","city":"Vitória Da Conquista","latitude":"15.27S","longitude":"40.83W"}
{"date":"2010-03-01","average_temperature":"28.485","city":"Vizianagaram","latitude":"18.48N","longitude":"82.82E"}
{"date":"2010-06-01","average_temperature":"19.375999999999998","city":"Vladimir","latitude":"55.45N","longitude":"39.69E"}
{"date":"2012-05-01","average_temperature":"20.413","city":"Volgograd","latitude":"49.03N","longitude":"44.08E"}
{"date":"2012-01-01","average_temperature":"26.636999999999997","city":"Vung Tau","latitude":"10.45N","longitude":"107.18E"}
{"date":"2010-06-01","average_temperature":"17.708000000000006","city":"Würzburg","latitude":"49.03N","longitude":"9.80E"}
{"date":"2011-08-01","average_temperature":"32.657","city":"Waco","latitude":"31.35N","longitude":"98.01W"}
{"date":"2011-11-01","average_temperature":"15.518","city":"Wah","latitude":"34.56N","longitude":"72.00E"}
{"date":"2013-06-01","average_temperature":"23.917","city":"Wanxian","latitude":"31.35N","longitude":"109.32E"}
{"date":"2011-04-01","average_temperature":"24.283","city":"Warqla","latitude":"31.35N","longitude":"5.65E"}
{"date":"2013-01-01","average_temperature":"10.957","city":"Wazirabad","latitude":"32.95N","longitude":"73.72E"}
{"date":"2010-01-01","average_temperature":"16.2","city":"Wellington","latitude":"40.99S","longitude":"174.67E"}
{"date":"2011-01-01","average_temperature":"24.927","city":"Weru","latitude":"7.23S","longitude":"107.84E"}
{"date":"2010-12-01","average_temperature":"-0.5649999999999995","city":"West Bromwich","latitude":"52.24N","longitude":"2.63W"}
{"date":"2011-07-01","average_temperature":"23.987","city":"West Covina","latitude":"34.56N","longitude":"118.70W"}
{"date":"2011-09-01","average_temperature":"19.707","city":"Windhoek","latitude":"23.31S","longitude":"16.60E"}
{"date":"2010-05-01","average_temperature":"16.326","city":"Windsor","latitude":"42.59N","longitude":"82.91W"}
{"date":"2012-10-01","average_temperature":"-0.009999999999999998","city":"Wuwei","latitude":"37.78N","longitude":"101.69E"}
{"date":"2011-11-01","average_temperature":"15.575","city":"Wuxue","latitude":"29.74N","longitude":"116.31E"}
{"date":"2013-01-01","average_temperature":"26.634","city":"Xai Xai","latitude":"24.92S","longitude":"33.69E"}
{"date":"2012-07-01","average_temperature":"22.791","city":"Xalapa","latitude":"20.09N","longitude":"97.25W"}
{"date":"2010-01-01","average_temperature":"-0.2370000000000001","city":"Xian","latitude":"34.56N","longitude":"108.97E"}
{"date":"2010-02-01","average_temperature":"2.5810000000000004","city":"Xianyang","latitude":"34.56N","longitude":"108.97E"}
{"date":"2013-09-01","city":"Xichang","latitude":"28.13N","longitude":"102.73E"}
{"date":"2013-05-01","average_temperature":"9.662","city":"Xining","latitude":"36.17N","longitude":"101.44E"}
{"date":"2011-12-01","average_temperature":"5.331","city":"Yaan","latitude":"29.74N","longitude":"103.38E"}
{"date":"2011-09-01","average_temperature":"26.790000000000006","city":"Yangmei","latitude":"24.92N","longitude":"120.59E"}
{"date":"2011-05-01","average_temperature":"18.11","city":"Yao","latitude":"34.56N","longitude":"136.22E"}
{"date":"2011-04-01","average_temperature":"6.247999999999999","city":"Yelets","latitude":"52.24N","longitude":"39.42E"}
{"date":"2013-01-01","average_temperature":"-2.145","city":"Yerevan","latitude":"40.99N","longitude":"44.73E"}
{"date":"2012-09-01","average_temperature":"19.349","city":"Yevpatoriya","latitude":"45.81N","longitude":"33.46E"}
{"date":"2010-06-01","average_temperature":"24.464","city":"Yichun","latitude":"28.13N","longitude":"113.64E"}
{"date":"2010-09-01","average_temperature":"16.725","city":"Yinchuan","latitude":"37.78N","longitude":"105.76E"}
{"date":"2012-09-01","average_temperature":"15.339","city":"Yinchuan","latitude":"37.78N","longitude":"105.76E"}
{"date":"2013-04-01","average_temperature":"27.046999999999997","city":"Yogyakarta","latitude":"7.23S","longitude":"111.08E"}
{"date":"2010-04-01","average_temperature":"13.765","city":"Yokosuka","latitude":"34.56N","longitude":"140.11E"}
{"date":"2013-03-01","average_temperature":"11.126","city":"Yuyao","latitude":"29.74N","longitude":"121.85E"}
{"date":"2011-07-01","average_temperature":"18.951","city":"Zacatecas","latitude":"23.31N","longitude":"102.23W"}
{"date":"2013-01-01","average_temperature":"1.288","city":"Zama","latitude":"36.17N","longitude":"139.23E"}
{"date":"2013-02-01","average_temperature":"17.991999999999994","city":"Zamora","latitude":"20.09N","longitude":"102.37W"}
{"date":"2010-10-01","average_temperature":"26.278000000000002","city":"Zanzibar","latitude":"5.63S","longitude":"38.74E"}
{"date":"2011-10-01","average_temperature":"17.334","city":"Zaragoza","latitude":"40.99N","longitude":"0.00W"}
{"date":"2012-05-01","average_temperature":"14.19","city":"Zenica","latitude":"44.20N","longitude":"17.89E"}
{"date":"2010-10-01","average_temperature":"14.353","city":"Zhaocheng","latitude":"37.78N","longitude":"120.00E"}
{"date":"2013-01-01","average_temperature":"13.492","city":"Zhaoqing","latitude":"23.31N","longitude":"112.72E"}
{"date":"2013-06-01","average_temperature":"28.191","city":"Zhaoqing","latitude":"23.31N","longitude":"112.72E"}
{"date":"2013-06-01","average_temperature":"24.198","city":"Zhaoyang","latitude":"32.95N","longitude":"119.68E"}
{"date":"2010-03-01","average_temperature":"10.36","city":"Zhicheng","latitude":"29.74N","longitude":"110.77E"}
{"date":"2011-10-01","average_temperature":"16.098000000000006","city":"Zhicheng","latitude":"29.74N","longitude":"110.77E"}
{"date":"2012-09-01","average_temperature":"27.465","city":"Zhongshan","latitude":"21.70N","longitude":"113.37E"}
{"date":"2010-07-01","average_temperature":"27.184","city":"Zhucheng","latitude":"36.17N","longitude":"119.34E"}
{"date":"2013-03-01","average_temperature":"11.597000000000001","city":"Zhuji","latitude":"29.74N","longitude":"120.00E"}
{"date":"2012-03-01","average_temperature":"-3.467","city":"Zhukovskiy","latitude":"55.45N","longitude":"36.85E"}
{"date":"2013-04-01","average_temperature":"26.372","city":"Ziguinchor","latitude":"12.05N","longitude":"16.44W"}
{"date":"2011-04-01","average_temperature":"32.94","city":"Zinder","latitude":"13.66N","longitude":"9.08E"}
{"date":"2012-08-01","average_temperature":"18.588","city":"Zoetermeer","latitude":"52.24N","longitude":"5.26E"}
{"date":"2012-04-01","average_temperature":"19.457","city":"Zuwarah","latitude":"32.95N","longitude":"12.45E"}
{"date":"2012-02-01","average_temperature":"0.3759999999999999","city":"Zwolle","latitude":"52.24N","longitude":"5.26E"}
