{"date":"2011-10-01","average_temperature":"9.843","city":"Århus","latitude":"57.05N","longitude":"10.33E"}
{"date":"2012-06-01","average_temperature":"13.329","city":"Århus","latitude":"57.05N","longitude":"10.33E"}
{"date":"2010-09-01","average_temperature":"21.0","city":"Çorlu","latitude":"40.99N","longitude":"27.69E"}
{"date":"2013-06-01","average_temperature":"21.758000000000006","city":"Çorlu","latitude":"40.99N","longitude":"27.69E"}
{"date":"2013-02-01","average_temperature":"4.612","city":"Çorum","latitude":"40.99N","longitude":"34.08E"}
{"date":"2012-12-01","average_temperature":"27.418000000000003","city":"Abeokuta","latitude":"7.23N","longitude":"4.05E"}
{"date":"2013-01-01","average_temperature":"1.288","city":"Abiko","latitude":"36.17N","longitude":"139.23E"}
{"date":"2012-07-01","average_temperature":"29.581","city":"Abilene","latitude":"32.95N","longitude":"100.53W"}
{"date":"2010-06-01","average_temperature":"15.784","city":"Achinsk","latitude":"57.05N","longitude":"90.00E"}
{"date":"2012-02-01","average_temperature":"26.585","city":"Adiwerna","latitude":"7.23S","longitude":"109.46E"}
{"date":"2012-04-01","average_temperature":"16.665999999999997","city":"Agadir","latitude":"29.74N","longitude":"9.23W"}
{"date":"2012-04-01","average_temperature":"28.143","city":"Ahmadpur East","latitude":"29.74N","longitude":"72.00E"}
{"date":"2012-09-01","average_temperature":"17.65","city":"Aix En Provence","latitude":"44.20N","longitude":"4.47E"}
{"date":"2011-04-01","average_temperature":"8.155000000000001","city":"Akita","latitude":"39.38N","longitude":"139.42E"}
{"date":"2012-12-01","average_temperature":"2.184","city":"Akita","latitude":"39.38N","longitude":"139.42E"}
{"date":"2013-09-01","city":"Alanya","latitude":"36.17N","longitude":"31.82E"}
{"date":"2012-11-01","average_temperature":"9.072000000000001","city":"Albacete","latitude":"39.38N","longitude":"2.08W"}
{"date":"2010-04-01","average_temperature":"14.207999999999998","city":"Alexandria","latitude":"39.38N","longitude":"76.99W"}
{"date":"2011-01-01","average_temperature":"13.376","city":"Alwar","latitude":"28.13N","longitude":"77.27E"}
{"date":"2012-03-01","average_temperature":"23.686","city":"Alwar","latitude":"28.13N","longitude":"77.27E"}
{"date":"2013-04-01","average_temperature":"32.124","city":"Ambattur","latitude":"13.66N","longitude":"80.09E"}
{"date":"2012-06-01","average_temperature":"18.095","city":"Americana","latitude":"23.31S","longitude":"48.06W"}
{"date":"2012-12-01","average_temperature":"5.375","city":"Amol","latitude":"36.17N","longitude":"51.71E"}
{"date":"2011-10-01","average_temperature":"22.761999999999997","city":"Anápolis","latitude":"16.87S","longitude":"48.56W"}
{"date":"2012-07-01","average_temperature":"10.697000000000001","city":"Anchorage","latitude":"61.88N","longitude":"151.13W"}
{"date":"2013-01-01","average_temperature":"-21.106","city":"Anda","latitude":"45.81N","longitude":"125.77E"}
{"date":"2012-01-01","average_temperature":"6.252999999999999","city":"Angers","latitude":"47.42N","longitude":"1.18W"}
{"date":"2011-02-01","average_temperature":"-0.8960000000000001","city":"Angren","latitude":"40.99N","longitude":"70.30E"}
{"date":"2013-01-01","average_temperature":"8.32","city":"Antioch","latitude":"37.78N","longitude":"122.03W"}
{"date":"2011-12-01","average_temperature":"23.508000000000006","city":"Antsirabe","latitude":"20.09S","longitude":"47.77E"}
{"date":"2010-11-01","average_temperature":"23.768","city":"Apucarana","latitude":"23.31S","longitude":"51.55W"}
{"date":"2011-03-01","average_temperature":"27.813000000000002","city":"Aracaju","latitude":"10.45S","longitude":"36.82W"}
{"date":"2013-08-01","average_temperature":"14.812999999999999","city":"Araucária","latitude":"24.92S","longitude":"49.66W"}
{"date":"2012-12-01","average_temperature":"4.840999999999998","city":"Arlington","latitude":"39.38N","longitude":"76.99W"}
{"date":"2011-12-01","average_temperature":"3.286","city":"Armavir","latitude":"45.81N","longitude":"40.38E"}
{"date":"2012-06-01","average_temperature":"23.409000000000002","city":"Armenia","latitude":"4.02N","longitude":"76.34W"}
{"date":"2013-09-01","average_temperature":"12.288","city":"Arvada","latitude":"39.38N","longitude":"106.13W"}
{"date":"2011-06-01","average_temperature":"23.874","city":"Asfi","latitude":"32.95N","longitude":"8.62W"}
{"date":"2013-04-01","average_temperature":"25.78","city":"Astanajapura","latitude":"7.23S","longitude":"107.84E"}
{"date":"2011-05-01","average_temperature":"16.147000000000002","city":"Atsugi","latitude":"36.17N","longitude":"139.23E"}
{"date":"2010-06-01","average_temperature":"29.315","city":"Aurangabad","latitude":"20.09N","longitude":"75.07E"}
{"date":"2010-05-01","average_temperature":"20.313","city":"Awassa","latitude":"7.23N","longitude":"38.11E"}
{"date":"2012-09-01","average_temperature":"19.311","city":"Awassa","latitude":"7.23N","longitude":"38.11E"}
{"date":"2013-03-01","average_temperature":"29.374","city":"Awka","latitude":"5.63N","longitude":"6.46E"}
{"date":"2011-09-01","average_temperature":"25.807","city":"Bénin","latitude":"7.23N","longitude":"5.68E"}
{"date":"2010-11-01","average_temperature":"25.781","city":"Babakan","latitude":"7.23S","longitude":"107.84E"}
{"date":"2011-11-01","average_temperature":"22.484","city":"Bahadurgarh","latitude":"28.13N","longitude":"77.27E"}
{"date":"2012-10-01","average_temperature":"26.354","city":"Bahadurgarh","latitude":"28.13N","longitude":"77.27E"}
{"date":"2010-11-01","average_temperature":"20.119","city":"Bahawalnagar","latitude":"29.74N","longitude":"73.85E"}
{"date":"2010-05-01","average_temperature":"35.374","city":"Bahawalpur","latitude":"29.74N","longitude":"72.00E"}
{"date":"2013-04-01","average_temperature":"27.076","city":"Bahraich","latitude":"28.13N","longitude":"80.91E"}
{"date":"2011-04-01","average_temperature":"9.629","city":"Balti","latitude":"47.42N","longitude":"27.24E"}
{"date":"2011-06-01","average_temperature":"20.000999999999998","city":"Balti","latitude":"47.42N","longitude":"27.24E"}
{"date":"2010-10-01","average_temperature":"27.252","city":"Banda Aceh","latitude":"5.63N","longitude":"95.25E"}
{"date":"2012-03-01","average_temperature":"26.901","city":"Bandar Penggaram","latitude":"2.41N","longitude":"103.66E"}
{"date":"2011-08-01","average_temperature":"25.154","city":"Bandung","latitude":"7.23S","longitude":"107.84E"}
{"date":"2011-11-01","average_temperature":"24.11","city":"Bangaon","latitude":"23.31N","longitude":"88.25E"}
{"date":"2012-08-01","average_temperature":"24.918000000000003","city":"Bangui","latitude":"4.02N","longitude":"18.48E"}
{"date":"2013-06-01","average_temperature":"25.529","city":"Bangui","latitude":"4.02N","longitude":"18.48E"}
{"date":"2010-01-01","average_temperature":"-1.092","city":"Banja Luka","latitude":"44.20N","longitude":"17.89E"}
{"date":"2013-04-01","average_temperature":"27.785999999999998","city":"Banjarmasin","latitude":"4.02S","longitude":"114.91E"}
{"date":"2011-09-01","average_temperature":"13.100999999999999","city":"Baoshan","latitude":"47.42N","longitude":"131.45E"}
{"date":"2011-09-01","average_temperature":"29.092","city":"Baranagar","latitude":"23.31N","longitude":"88.25E"}
{"date":"2013-09-01","city":"Barcelona","latitude":"40.99N","longitude":"2.13E"}
{"date":"2011-12-01","average_temperature":"16.22","city":"Bareli","latitude":"28.13N","longitude":"79.09E"}
{"date":"2011-04-01","average_temperature":"23.969","city":"Barinas","latitude":"8.84N","longitude":"70.54W"}
{"date":"2010-08-01","average_temperature":"16.871","city":"Barnaul","latitude":"53.84N","longitude":"83.18E"}
{"date":"2011-03-01","average_temperature":"25.360000000000007","city":"Barrancabermeja","latitude":"7.23N","longitude":"73.78W"}
{"date":"2011-07-01","average_temperature":"23.798","city":"Barreiras","latitude":"12.05S","longitude":"44.38W"}
{"date":"2011-09-01","average_temperature":"26.898000000000003","city":"Bauchi","latitude":"10.45N","longitude":"10.64E"}
{"date":"2013-06-01","average_temperature":"24.131","city":"Bayrut","latitude":"34.56N","longitude":"35.03E"}
{"date":"2012-07-01","average_temperature":"27.481","city":"Beirut","latitude":"34.56N","longitude":"35.03E"}
{"date":"2010-10-01","average_temperature":"22.612","city":"Belo Horizonte","latitude":"20.09S","longitude":"44.36W"}
{"date":"2012-05-01","average_temperature":"27.371","city":"Bengkulu","latitude":"4.02S","longitude":"102.05E"}
{"date":"2011-02-01","average_temperature":"2.481","city":"Bergamo","latitude":"45.81N","longitude":"10.38E"}
{"date":"2012-10-01","average_temperature":"11.259","city":"Bergamo","latitude":"45.81N","longitude":"10.38E"}
{"date":"2010-12-01","average_temperature":"-4.412","city":"Berlin","latitude":"52.24N","longitude":"13.14E"}
{"date":"2010-02-01","average_temperature":"20.164","city":"Bharatpur","latitude":"26.52N","longitude":"77.01E"}
{"date":"2011-05-01","average_temperature":"19.387999999999998","city":"Bharatpur","latitude":"28.13N","longitude":"84.55E"}
{"date":"2013-08-01","average_temperature":"29.539","city":"Bhatpara","latitude":"23.31N","longitude":"88.25E"}
{"date":"2012-07-01","average_temperature":"28.928","city":"Bhimavaram","latitude":"16.87N","longitude":"82.05E"}
{"date":"2012-05-01","average_temperature":"34.154","city":"Bhiwani","latitude":"28.13N","longitude":"75.45E"}
{"date":"2011-08-01","average_temperature":"26.164","city":"Bhopal","latitude":"23.31N","longitude":"77.77E"}
{"date":"2013-03-01","average_temperature":"-3.718","city":"Bialystok","latitude":"53.84N","longitude":"23.18E"}
{"date":"2011-01-01","average_temperature":"21.23","city":"Bid","latitude":"18.48N","longitude":"76.06E"}
{"date":"2011-09-01","average_temperature":"15.870999999999999","city":"Bielefeld","latitude":"52.24N","longitude":"7.88E"}
{"date":"2012-04-01","average_temperature":"9.427999999999999","city":"Bilbao","latitude":"42.59N","longitude":"2.18W"}
{"date":"2011-11-01","average_temperature":"20.337","city":"Biratnagar","latitude":"26.52N","longitude":"87.76E"}
{"date":"2013-07-01","average_temperature":"30.096999999999998","city":"Birganj","latitude":"26.52N","longitude":"84.18E"}
{"date":"2010-02-01","average_temperature":"27.022","city":"Birigui","latitude":"21.70S","longitude":"51.06W"}
{"date":"2011-09-01","average_temperature":"26.985000000000007","city":"Birnin Kebbi","latitude":"12.05N","longitude":"4.93E"}
{"date":"2012-11-01","average_temperature":"21.522","city":"Bloemfontein","latitude":"29.74S","longitude":"25.85E"}
{"date":"2011-06-01","average_temperature":"16.945999999999998","city":"Bochum","latitude":"52.24N","longitude":"7.88E"}
{"date":"2013-05-01","average_temperature":"27.795","city":"Bontang","latitude":"0.80N","longitude":"118.13E"}
{"date":"2012-08-01","average_temperature":"21.702","city":"Boston","latitude":"42.59N","longitude":"72.00W"}
{"date":"2011-12-01","average_temperature":"23.248","city":"Botucatu","latitude":"23.31S","longitude":"48.06W"}
{"date":"2013-01-01","average_temperature":"1.53","city":"Bozhou","latitude":"32.95N","longitude":"115.85E"}
{"date":"2010-08-01","average_temperature":"25.660999999999998","city":"Braila","latitude":"45.81N","longitude":"28.85E"}
{"date":"2012-07-01","average_temperature":"26.338","city":"Braila","latitude":"45.81N","longitude":"28.85E"}
{"date":"2013-04-01","average_temperature":"7.348999999999998","city":"Bremen","latitude":"53.84N","longitude":"9.55E"}
{"date":"2010-11-01","average_temperature":"5.428","city":"Brest","latitude":"52.24N","longitude":"23.65E"}
{"date":"2012-02-01","average_temperature":"3.657","city":"Bridgeport","latitude":"40.99N","longitude":"72.43W"}
{"date":"2010-05-01","average_temperature":"11.578","city":"Brugge","latitude":"50.63N","longitude":"3.80E"}
{"date":"2010-04-01","average_temperature":"11.279000000000002","city":"Budapest","latitude":"47.42N","longitude":"20.13E"}
{"date":"2010-03-01","average_temperature":"28.346","city":"Bugama","latitude":"4.02N","longitude":"7.23E"}
{"date":"2013-07-01","average_temperature":"26.776999999999997","city":"Bugama","latitude":"4.02N","longitude":"7.23E"}
{"date":"2010-09-01","average_temperature":"27.894000000000002","city":"Bukit Mertajam","latitude":"5.63N","longitude":"100.09E"}
{"date":"2011-01-01","average_temperature":"4.194","city":"Burgos","latitude":"42.59N","longitude":"4.36W"}
{"date":"2012-09-01","average_temperature":"16.993","city":"Burgos","latitude":"42.59N","longitude":"4.36W"}
{"date":"2011-02-01","average_temperature":"22.639","city":"Burhanpur","latitude":"21.70N","longitude":"77.02E"}
{"date":"2011-06-01","average_temperature":"19.044","city":"Bursa","latitude":"39.38N","longitude":"29.13E"}
{"date":"2012-04-01","average_temperature":"12.841","city":"Bursa","latitude":"39.38N","longitude":"29.13E"}
{"date":"2012-10-01","average_temperature":"22.458000000000002","city":"Bushehr","latitude":"29.74N","longitude":"51.69E"}
{"date":"2011-06-01","average_temperature":"21.862","city":"Butembo","latitude":"0.80N","longitude":"29.73E"}
{"date":"2010-06-01","average_temperature":"17.599","city":"Bytom","latitude":"50.63N","longitude":"19.01E"}
{"date":"2011-01-01","average_temperature":"21.276","city":"Cúcuta","latitude":"7.23N","longitude":"72.16W"}
{"date":"2011-09-01","average_temperature":"21.669","city":"Cachoeiro De Itapemirim","latitude":"20.09S","longitude":"40.95W"}
{"date":"2011-01-01","average_temperature":"16.951999999999998","city":"Cajamarca","latitude":"7.23S","longitude":"78.65W"}
{"date":"2012-03-01","average_temperature":"29.846999999999998","city":"Calabar","latitude":"5.63N","longitude":"8.07E"}
{"date":"2011-02-01","average_temperature":"17.249000000000002","city":"Calama","latitude":"23.31S","longitude":"69.03W"}
{"date":"2012-05-01","average_temperature":"32.232","city":"Calcutta","latitude":"23.31N","longitude":"88.25E"}
{"date":"2012-07-01","average_temperature":"29.68","city":"Calcutta","latitude":"23.31N","longitude":"88.25E"}
{"date":"2013-01-01","average_temperature":"27.026","city":"Camaragibe","latitude":"7.23S","longitude":"34.86W"}
{"date":"2012-08-01","average_temperature":"5.7440000000000015","city":"Canberra","latitude":"36.17S","longitude":"149.17E"}
{"date":"2012-04-01","average_temperature":"25.018","city":"Cap Haïtien","latitude":"20.09N","longitude":"71.66W"}
{"date":"2012-05-01","average_temperature":"27.081","city":"Cap Haïtien","latitude":"20.09N","longitude":"71.66W"}
{"date":"2011-04-01","average_temperature":"11.614","city":"Cardiff","latitude":"52.24N","longitude":"2.63W"}
{"date":"2010-11-01","average_temperature":"26.394","city":"Carrefour","latitude":"18.48N","longitude":"72.68W"}
{"date":"2011-12-01","average_temperature":"25.643","city":"Caruaru","latitude":"8.84S","longitude":"36.49W"}
{"date":"2011-05-01","average_temperature":"25.996","city":"Catia La Mar","latitude":"10.45N","longitude":"66.27W"}
{"date":"2011-07-01","average_temperature":"26.919","city":"Cavite","latitude":"15.27N","longitude":"120.83E"}
{"date":"2010-12-01","average_temperature":"-8.283999999999999","city":"Cedar Rapids","latitude":"42.59N","longitude":"91.64W"}
{"date":"2012-07-01","average_temperature":"26.630000000000006","city":"Cedar Rapids","latitude":"42.59N","longitude":"91.64W"}
{"date":"2010-03-01","average_temperature":"23.112","city":"Chakwal","latitude":"32.95N","longitude":"73.72E"}
{"date":"2012-03-01","average_temperature":"27.878","city":"Chandannagar","latitude":"23.31N","longitude":"88.25E"}
{"date":"2013-07-01","average_temperature":"30.0","city":"Chandannagar","latitude":"23.31N","longitude":"88.25E"}
{"date":"2011-04-01","average_temperature":"28.055999999999997","city":"Chandpur","latitude":"23.31N","longitude":"90.00E"}
{"date":"2011-05-01","average_temperature":"35.24200000000001","city":"Chandrapur","latitude":"20.09N","longitude":"78.48E"}
{"date":"2010-10-01","average_temperature":"16.916999999999998","city":"Chaohu","latitude":"31.35N","longitude":"118.74E"}
{"date":"2013-05-01","average_temperature":"21.531999999999996","city":"Charleston","latitude":"32.95N","longitude":"79.47W"}
{"date":"2012-01-01","average_temperature":"17.918","city":"Chas","latitude":"23.31N","longitude":"86.50E"}
{"date":"2011-11-01","average_temperature":"-8.044","city":"Chelyabinsk","latitude":"55.45N","longitude":"62.36E"}
{"date":"2011-05-01","average_temperature":"27.084","city":"Chiang Mai","latitude":"18.48N","longitude":"99.72E"}
{"date":"2013-04-01","average_temperature":"6.0379999999999985","city":"Chifeng","latitude":"42.59N","longitude":"120.00E"}
{"date":"2012-06-01","average_temperature":"6.648","city":"Chillan","latitude":"36.17S","longitude":"71.60W"}
{"date":"2010-07-01","average_temperature":"19.215","city":"Chimoio","latitude":"18.48S","longitude":"33.80E"}
{"date":"2011-11-01","average_temperature":"23.607","city":"Chitradurga","latitude":"13.66N","longitude":"76.79E"}
{"date":"2010-05-01","average_temperature":"36.016","city":"Chittaurgarh","latitude":"24.92N","longitude":"74.48E"}
{"date":"2011-01-01","average_temperature":"14.354","city":"Christchurch","latitude":"44.20S","longitude":"172.17E"}
{"date":"2013-07-01","average_temperature":"31.754","city":"Churu","latitude":"28.13N","longitude":"75.45E"}
{"date":"2013-05-01","average_temperature":"27.182","city":"Cibadak","latitude":"7.23S","longitude":"106.22E"}
{"date":"2011-11-01","average_temperature":"27.179","city":"Cilegon","latitude":"5.63S","longitude":"106.55E"}
{"date":"2012-08-01","average_temperature":"26.156","city":"Ciomas","latitude":"7.23S","longitude":"106.22E"}
{"date":"2012-03-01","average_temperature":"25.255","city":"Ciudad Guayana","latitude":"8.84N","longitude":"62.43W"}
{"date":"2012-08-01","average_temperature":"26.378","city":"Ciudad Guayana","latitude":"8.84N","longitude":"62.43W"}
{"date":"2012-01-01","average_temperature":"6.0950000000000015","city":"Clarksville","latitude":"36.17N","longitude":"87.51W"}
{"date":"2012-07-01","average_temperature":"23.615","city":"Cluj Napoca","latitude":"47.42N","longitude":"22.50E"}
{"date":"2012-03-01","average_temperature":"25.272","city":"Coatzacoalcos","latitude":"18.48N","longitude":"94.65W"}
{"date":"2010-04-01","average_temperature":"16.483","city":"Cochabamba","latitude":"16.87S","longitude":"66.98W"}
{"date":"2010-07-01","average_temperature":"25.25","city":"Columbus","latitude":"39.38N","longitude":"83.24W"}
{"date":"2010-04-01","average_temperature":"11.179","city":"Comodoro Rivadavia","latitude":"45.81S","longitude":"68.08W"}
{"date":"2013-07-01","average_temperature":"4.7139999999999995","city":"Comodoro Rivadavia","latitude":"45.81S","longitude":"68.08W"}
{"date":"2013-03-01","average_temperature":"-0.5950000000000002","city":"Copenhagen","latitude":"55.45N","longitude":"11.34E"}
{"date":"2011-07-01","average_temperature":"15.197","city":"Cork","latitude":"52.24N","longitude":"7.88W"}
{"date":"2012-07-01","average_temperature":"29.335","city":"Coro","latitude":"12.05N","longitude":"69.04W"}
{"date":"2013-08-01","average_temperature":"14.934000000000001","city":"Corrientes","latitude":"28.13S","longitude":"59.09W"}
{"date":"2012-11-01","average_temperature":"26.912","city":"Cotabato","latitude":"7.23N","longitude":"124.05E"}
{"date":"2013-08-01","average_temperature":"24.978","city":"Cotonou","latitude":"7.23N","longitude":"2.43E"}
{"date":"2010-05-01","average_temperature":"10.858","city":"Crawley","latitude":"50.63N","longitude":"1.27W"}
{"date":"2013-09-01","city":"Cuddapah","latitude":"15.27N","longitude":"79.17E"}
{"date":"2013-09-01","city":"Daan","latitude":"29.74N","longitude":"105.23E"}
{"date":"2012-05-01","average_temperature":"18.069000000000003","city":"Daito","latitude":"34.56N","longitude":"136.22E"}
{"date":"2010-03-01","average_temperature":"12.285","city":"Dallas","latitude":"32.95N","longitude":"96.70W"}
{"date":"2013-01-01","average_temperature":"24.432","city":"Damaturu","latitude":"12.05N","longitude":"11.51E"}
{"date":"2012-01-01","average_temperature":"28.17","city":"Dar Es Salaam","latitude":"7.23S","longitude":"39.73E"}
{"date":"2010-02-01","average_temperature":"17.323","city":"Darjiling","latitude":"26.52N","longitude":"87.76E"}
{"date":"2010-02-01","average_temperature":"27.794","city":"Dawei","latitude":"13.66N","longitude":"98.26E"}
{"date":"2013-03-01","average_temperature":"2.822","city":"Dayton","latitude":"39.38N","longitude":"83.24W"}
{"date":"2010-07-01","average_temperature":"22.516","city":"Debre Zeyit","latitude":"8.84N","longitude":"39.73E"}
{"date":"2010-08-01","average_temperature":"23.945","city":"Delicias","latitude":"28.13N","longitude":"106.36W"}
{"date":"2010-08-01","average_temperature":"26.572","city":"Dewas","latitude":"23.31N","longitude":"76.02E"}
{"date":"2013-08-01","average_temperature":"28.096","city":"Dezhou","latitude":"37.78N","longitude":"115.93E"}
{"date":"2010-03-01","average_temperature":"29.03","city":"Dhanbad","latitude":"23.31N","longitude":"86.50E"}
{"date":"2010-07-01","average_temperature":"29.169","city":"Dhanbad","latitude":"23.31N","longitude":"86.50E"}
{"date":"2010-05-01","average_temperature":"36.596","city":"Dhaulpur","latitude":"26.52N","longitude":"77.01E"}
{"date":"2010-06-01","average_temperature":"35.681","city":"Dhaulpur","latitude":"26.52N","longitude":"77.01E"}
{"date":"2013-05-01","average_temperature":"22.225","city":"Dibrugarh","latitude":"28.13N","longitude":"95.45E"}
{"date":"2011-03-01","average_temperature":"-4.456","city":"Didao","latitude":"45.81N","longitude":"130.38E"}
{"date":"2010-01-01","average_temperature":"25.419","city":"Digos","latitude":"7.23N","longitude":"125.68E"}
{"date":"2012-10-01","average_temperature":"7.2040000000000015","city":"Dimitrovgrad","latitude":"53.84N","longitude":"50.45E"}
{"date":"2013-02-01","average_temperature":"20.816000000000006","city":"Dinajpur","latitude":"24.92N","longitude":"88.67E"}
{"date":"2012-03-01","average_temperature":"27.271","city":"Dindigul","latitude":"10.45N","longitude":"77.73E"}
{"date":"2010-07-01","average_temperature":"24.811","city":"Dingzhou","latitude":"39.38N","longitude":"114.45E"}
{"date":"2010-03-01","average_temperature":"27.351","city":"Dire Dawa","latitude":"10.45N","longitude":"41.73E"}
{"date":"2013-09-01","city":"Doha","latitude":"24.92N","longitude":"51.43E"}
{"date":"2012-09-01","average_temperature":"24.329","city":"Dos Hermanas","latitude":"37.78N","longitude":"6.10W"}
{"date":"2010-08-01","average_temperature":"21.151999999999997","city":"Dourados","latitude":"21.70S","longitude":"54.52W"}
{"date":"2013-01-01","average_temperature":"4.4910000000000005","city":"Dublin","latitude":"53.84N","longitude":"6.82W"}
{"date":"2011-05-01","average_temperature":"28.055","city":"Dumai","latitude":"2.41N","longitude":"102.05E"}
{"date":"2012-02-01","average_temperature":"27.449","city":"Duque De Caxias","latitude":"23.31S","longitude":"42.82W"}
{"date":"2012-06-01","average_temperature":"19.359","city":"Ebina","latitude":"36.17N","longitude":"139.23E"}
{"date":"2012-12-01","average_temperature":"2.5860000000000003","city":"Edison","latitude":"40.99N","longitude":"74.56W"}
{"date":"2012-02-01","average_temperature":"26.581999999999997","city":"El Tigre","latitude":"8.84N","longitude":"64.05W"}
{"date":"2011-04-01","average_temperature":"14.556","city":"Elbasan","latitude":"40.99N","longitude":"19.17E"}
{"date":"2011-10-01","average_temperature":"21.043000000000003","city":"Eldoret","latitude":"0.80N","longitude":"34.55E"}
{"date":"2010-10-01","average_temperature":"19.398","city":"Embu","latitude":"23.31S","longitude":"46.31W"}
{"date":"2010-04-01","average_temperature":"8.089","city":"Engels","latitude":"50.63N","longitude":"46.90E"}
{"date":"2010-04-01","average_temperature":"11.225","city":"Eskisehir","latitude":"39.38N","longitude":"31.21E"}
{"date":"2011-04-01","average_temperature":"3.924","city":"Espoo","latitude":"60.27N","longitude":"25.95E"}
{"date":"2012-09-01","average_temperature":"29.246","city":"Etah","latitude":"28.13N","longitude":"79.09E"}
{"date":"2011-02-01","average_temperature":"-4.940000000000001","city":"Fengcheng","latitude":"40.99N","longitude":"123.55E"}
{"date":"2012-03-01","average_temperature":"20.409000000000002","city":"Fengshan","latitude":"23.31N","longitude":"119.71E"}
{"date":"2013-08-01","average_temperature":"18.003","city":"Fianarantsoa","latitude":"21.70S","longitude":"47.60E"}
{"date":"2010-03-01","average_temperature":"7.084","city":"Florence","latitude":"44.20N","longitude":"11.18E"}
{"date":"2011-09-01","average_temperature":"21.250999999999998","city":"Florence","latitude":"44.20N","longitude":"11.18E"}
{"date":"2012-05-01","average_temperature":"15.685","city":"Florence","latitude":"44.20N","longitude":"11.18E"}
{"date":"2013-05-01","average_temperature":"14.957","city":"Florence","latitude":"44.20N","longitude":"11.18E"}
{"date":"2011-05-01","average_temperature":"17.569000000000003","city":"Fontana","latitude":"34.56N","longitude":"116.76W"}
{"date":"2010-11-01","average_temperature":"21.348000000000003","city":"Fort Lauderdale","latitude":"26.52N","longitude":"80.60W"}
{"date":"2012-01-01","average_temperature":"17.820999999999994","city":"Fort Lauderdale","latitude":"26.52N","longitude":"80.60W"}
{"date":"2012-01-01","average_temperature":"1.859","city":"Frankfurt","latitude":"50.63N","longitude":"8.87E"}
{"date":"2012-07-01","average_temperature":"24.444000000000006","city":"Fuchu","latitude":"36.17N","longitude":"139.23E"}
{"date":"2013-09-01","city":"Fujieda","latitude":"34.56N","longitude":"138.16E"}
{"date":"2013-01-01","average_temperature":"3.682","city":"Fukuyama","latitude":"34.56N","longitude":"134.27E"}
{"date":"2012-11-01","average_temperature":"12.378","city":"Fuling","latitude":"29.74N","longitude":"107.08E"}
{"date":"2012-09-01","average_temperature":"26.095","city":"Funtua","latitude":"12.05N","longitude":"6.58E"}
{"date":"2013-06-01","average_temperature":"21.502","city":"Fushun","latitude":"40.99N","longitude":"123.55E"}
{"date":"2013-08-01","average_temperature":"16.28","city":"Göteborg","latitude":"58.66N","longitude":"12.31E"}
{"date":"2011-07-01","average_temperature":"24.856","city":"Garut","latitude":"7.23S","longitude":"107.84E"}
{"date":"2010-11-01","average_temperature":"12.794","city":"Gaziantep","latitude":"37.78N","longitude":"36.61E"}
{"date":"2012-11-01","average_temperature":"4.523","city":"Gdansk","latitude":"53.84N","longitude":"17.73E"}
{"date":"2013-05-01","average_temperature":"14.925","city":"Gdynia","latitude":"53.84N","longitude":"17.73E"}
{"date":"2010-02-01","average_temperature":"8.405000000000001","city":"Gebze","latitude":"40.99N","longitude":"29.82E"}
{"date":"2013-04-01","average_temperature":"19.137","city":"Gejiu","latitude":"23.31N","longitude":"103.98E"}
{"date":"2013-08-01","average_temperature":"21.735000000000007","city":"Gejiu","latitude":"23.31N","longitude":"103.98E"}
{"date":"2011-09-01","average_temperature":"16.343","city":"Geneva","latitude":"45.81N","longitude":"5.77E"}
{"date":"2010-06-01","average_temperature":"28.857","city":"Georgetown","latitude":"7.23N","longitude":"57.57W"}
{"date":"2012-12-01","average_temperature":"4.9719999999999995","city":"Getafe","latitude":"40.99N","longitude":"4.26W"}
{"date":"2012-10-01","average_temperature":"25.991999999999997","city":"Ghazipur","latitude":"24.92N","longitude":"83.35E"}
{"date":"2011-07-01","average_temperature":"20.04","city":"Glazov","latitude":"58.66N","longitude":"52.31E"}
{"date":"2010-05-01","average_temperature":"35.36799999999999","city":"Godhra","latitude":"23.31N","longitude":"74.27E"}
{"date":"2012-12-01","average_temperature":"24.918000000000003","city":"Goiânia","latitude":"16.87S","longitude":"48.56W"}
{"date":"2011-10-01","average_temperature":"6.371","city":"Gomel","latitude":"52.24N","longitude":"31.53E"}
{"date":"2013-02-01","average_temperature":"20.763","city":"Gondar","latitude":"12.05N","longitude":"37.81E"}
{"date":"2011-09-01","average_temperature":"16.063","city":"Gravataí","latitude":"29.74S","longitude":"51.69W"}
{"date":"2010-10-01","average_temperature":"22.474","city":"Guadalupe","latitude":"26.52N","longitude":"100.30W"}
{"date":"2013-08-01","average_temperature":"20.734","city":"Guaratinguetá","latitude":"23.31S","longitude":"44.56W"}
{"date":"2011-01-01","average_temperature":"23.878","city":"Guarujá","latitude":"23.31S","longitude":"46.31W"}
{"date":"2010-12-01","average_temperature":"23.216","city":"Guarulhos","latitude":"23.31S","longitude":"46.31W"}
{"date":"2013-08-01","average_temperature":"26.141","city":"Guatire","latitude":"10.45N","longitude":"66.27W"}
{"date":"2010-04-01","average_temperature":"30.070999999999998","city":"Gudalur","latitude":"12.05N","longitude":"80.55E"}
{"date":"2013-02-01","average_temperature":"12.058","city":"Guilin","latitude":"24.92N","longitude":"109.95E"}
{"date":"2013-05-01","average_temperature":"20.288","city":"Guiyang","latitude":"26.52N","longitude":"107.46E"}
{"date":"2012-11-01","average_temperature":"18.326","city":"Gujranwala","latitude":"32.95N","longitude":"73.72E"}
{"date":"2012-08-01","average_temperature":"27.199","city":"Gulbarga","latitude":"16.87N","longitude":"77.02E"}
{"date":"2011-04-01","average_temperature":"20.105999999999998","city":"Gweru","latitude":"20.09S","longitude":"29.00E"}
{"date":"2011-11-01","average_temperature":"7.5950000000000015","city":"Hachinohe","latitude":"40.99N","longitude":"140.59E"}
{"date":"2010-06-01","average_temperature":"27.959","city":"Hai Phong","latitude":"21.70N","longitude":"106.44E"}
{"date":"2011-08-01","average_temperature":"27.353","city":"Haifa","latitude":"32.95N","longitude":"35.43E"}
{"date":"2010-01-01","average_temperature":"14.35","city":"Hajipur","latitude":"24.92N","longitude":"85.12E"}
{"date":"2013-01-01","average_temperature":"8.727","city":"Haldwani","latitude":"29.74N","longitude":"79.38E"}
{"date":"2010-12-01","average_temperature":"-10.597999999999999","city":"Hami","latitude":"42.59N","longitude":"93.82E"}
{"date":"2013-05-01","average_temperature":"19.249000000000002","city":"Hampton","latitude":"36.17N","longitude":"75.58W"}
{"date":"2011-05-01","average_temperature":"14.154000000000002","city":"Hanover","latitude":"52.24N","longitude":"10.51E"}
{"date":"2013-06-01","average_temperature":"23.855","city":"Hanzhong","latitude":"32.95N","longitude":"106.28E"}
{"date":"2012-03-01","average_temperature":"23.686","city":"Hapur","latitude":"28.13N","longitude":"77.27E"}
{"date":"2012-06-01","average_temperature":"34.249","city":"Haridwar","latitude":"29.74N","longitude":"77.54E"}
{"date":"2013-08-01","average_temperature":"28.513","city":"Haridwar","latitude":"29.74N","longitude":"77.54E"}
{"date":"2012-01-01","average_temperature":"9.993","city":"Hayward","latitude":"37.78N","longitude":"122.03W"}
{"date":"2012-04-01","average_temperature":"29.837","city":"Hazaribag","latitude":"23.31N","longitude":"84.76E"}
{"date":"2012-04-01","average_temperature":"18.902","city":"Hengyang","latitude":"26.52N","longitude":"112.84E"}
{"date":"2010-07-01","average_temperature":"28.315","city":"Higüey","latitude":"18.48N","longitude":"69.30W"}
{"date":"2010-05-01","average_temperature":"17.619","city":"Hikone","latitude":"34.56N","longitude":"136.22E"}
{"date":"2011-06-01","average_temperature":"25.644","city":"Hindupur","latitude":"13.66N","longitude":"76.79E"}
{"date":"2010-07-01","average_temperature":"26.604000000000006","city":"Hirakata","latitude":"34.56N","longitude":"136.22E"}
{"date":"2011-08-01","average_temperature":"27.376","city":"Hirakata","latitude":"34.56N","longitude":"136.22E"}
{"date":"2011-08-01","average_temperature":"27.096999999999998","city":"Hong Gai","latitude":"21.70N","longitude":"106.44E"}
{"date":"2010-02-01","average_temperature":"7.479","city":"Honghu","latitude":"29.74N","longitude":"112.62E"}
{"date":"2010-07-01","average_temperature":"24.515","city":"Hospet","latitude":"15.27N","longitude":"75.83E"}
{"date":"2011-05-01","average_temperature":"10.376","city":"Huánuco","latitude":"10.45S","longitude":"76.09W"}
{"date":"2010-08-01","average_temperature":"20.541","city":"Huambo","latitude":"13.66S","longitude":"15.69E"}
{"date":"2011-03-01","average_temperature":"7.355","city":"Huangcun","latitude":"39.38N","longitude":"116.53E"}
{"date":"2013-08-01","average_temperature":"27.054","city":"Huangcun","latitude":"39.38N","longitude":"116.53E"}
{"date":"2012-10-01","average_temperature":"26.236","city":"Hyderabad","latitude":"16.87N","longitude":"78.70E"}
{"date":"2012-08-01","average_temperature":"30.858","city":"Hyderabad","latitude":"24.92N","longitude":"69.16E"}
{"date":"2011-05-01","average_temperature":"28.041","city":"Ibadan","latitude":"7.23N","longitude":"4.05E"}
{"date":"2010-10-01","average_temperature":"17.532999999999998","city":"Ibarra","latitude":"0.80N","longitude":"77.95W"}
{"date":"2010-03-01","average_temperature":"11.312000000000001","city":"Ichihara","latitude":"34.56N","longitude":"140.11E"}
{"date":"2011-08-01","average_temperature":"24.956","city":"Ikire","latitude":"7.23N","longitude":"4.05E"}
{"date":"2012-01-01","average_temperature":"1.023","city":"Indianapolis","latitude":"39.38N","longitude":"85.32W"}
{"date":"2012-01-01","average_temperature":"11.581","city":"Inglewood","latitude":"34.56N","longitude":"118.70W"}
{"date":"2013-01-01","average_temperature":"27.351","city":"Ipoh","latitude":"4.02N","longitude":"100.45E"}
{"date":"2012-01-01","average_temperature":"-2.072","city":"Ishinomaki","latitude":"39.38N","longitude":"141.50E"}
{"date":"2010-03-01","average_temperature":"16.407","city":"Iskenderun","latitude":"36.17N","longitude":"35.80E"}
{"date":"2010-10-01","average_temperature":"25.256999999999998","city":"Islamabad","latitude":"32.95N","longitude":"73.72E"}
{"date":"2010-10-01","average_temperature":"14.357","city":"Istanbul","latitude":"40.99N","longitude":"29.82E"}
{"date":"2012-02-01","average_temperature":"2.768","city":"Istanbul","latitude":"40.99N","longitude":"29.82E"}
{"date":"2012-03-01","average_temperature":"26.717","city":"Itaboraí","latitude":"23.31S","longitude":"42.82W"}
{"date":"2012-04-01","average_temperature":"21.351999999999997","city":"Itapevi","latitude":"23.31S","longitude":"46.31W"}
{"date":"2012-05-01","average_temperature":"18.169","city":"Itapevi","latitude":"23.31S","longitude":"46.31W"}
{"date":"2012-05-01","average_temperature":"27.061999999999998","city":"Iwo","latitude":"7.23N","longitude":"4.05E"}
{"date":"2011-09-01","average_temperature":"11.587","city":"Izhevsk","latitude":"57.05N","longitude":"54.59E"}
{"date":"2010-07-01","average_temperature":"27.199","city":"Izmir","latitude":"37.78N","longitude":"26.44E"}
{"date":"2011-05-01","average_temperature":"18.957","city":"Izmir","latitude":"37.78N","longitude":"26.44E"}
{"date":"2013-03-01","average_temperature":"12.533","city":"Jaén","latitude":"37.78N","longitude":"4.07W"}
{"date":"2010-01-01","average_temperature":"16.331","city":"Jabalpur","latitude":"23.31N","longitude":"79.51E"}
{"date":"2010-10-01","average_temperature":"25.963","city":"Jabalpur","latitude":"23.31N","longitude":"79.51E"}
{"date":"2011-09-01","average_temperature":"26.656","city":"Jabalpur","latitude":"23.31N","longitude":"79.51E"}
{"date":"2013-04-01","average_temperature":"21.193","city":"Jacksonville","latitude":"29.74N","longitude":"81.23W"}
{"date":"2010-10-01","average_temperature":"29.23","city":"Jacobabad","latitude":"28.13N","longitude":"68.18E"}
{"date":"2010-09-01","average_temperature":"30.421","city":"Jahrom","latitude":"28.13N","longitude":"53.64E"}
{"date":"2012-05-01","average_temperature":"30.004","city":"Jahrom","latitude":"28.13N","longitude":"53.64E"}
{"date":"2011-07-01","average_temperature":"27.245","city":"Jamame","latitude":"0.80N","longitude":"42.59E"}
{"date":"2011-08-01","average_temperature":"27.203000000000003","city":"Jamame","latitude":"0.80N","longitude":"42.59E"}
{"date":"2012-11-01","average_temperature":"28.854","city":"Jamame","latitude":"0.80N","longitude":"42.59E"}
{"date":"2011-05-01","average_temperature":"34.134","city":"Jaranwala","latitude":"31.35N","longitude":"73.51E"}
{"date":"2011-07-01","average_temperature":"23.793000000000006","city":"Jiamusi","latitude":"47.42N","longitude":"131.45E"}
{"date":"2012-01-01","average_temperature":"10.989","city":"Jiangmen","latitude":"23.31N","longitude":"112.72E"}
{"date":"2011-02-01","average_temperature":"8.972999999999997","city":"Jiangyou","latitude":"31.35N","longitude":"105.55E"}
{"date":"2011-05-01","average_temperature":"31.523000000000003","city":"Jibuti","latitude":"12.05N","longitude":"42.74E"}
{"date":"2012-01-01","average_temperature":"-14.186","city":"Jining","latitude":"40.99N","longitude":"112.90E"}
{"date":"2012-08-01","average_temperature":"18.199","city":"Jining","latitude":"40.99N","longitude":"112.90E"}
{"date":"2012-05-01","average_temperature":"24.71","city":"Jiutepec","latitude":"18.48N","longitude":"99.72W"}
{"date":"2013-06-01","average_temperature":"23.209","city":"Jiutepec","latitude":"18.48N","longitude":"99.72W"}
{"date":"2011-10-01","average_temperature":"27.496","city":"Jodhpur","latitude":"26.52N","longitude":"73.43E"}
{"date":"2010-07-01","average_temperature":"24.042","city":"Jos","latitude":"10.45N","longitude":"9.00E"}
{"date":"2011-04-01","average_temperature":"26.805","city":"Juàzeiro","latitude":"8.84S","longitude":"39.73W"}
{"date":"2013-03-01","average_temperature":"29.217","city":"Juàzeiro","latitude":"8.84S","longitude":"39.73W"}
{"date":"2010-07-01","average_temperature":"28.934","city":"Junagadh","latitude":"21.70N","longitude":"70.10E"}
{"date":"2010-01-01","average_temperature":"22.828000000000003","city":"Kabwe","latitude":"13.66S","longitude":"28.90E"}
{"date":"2010-07-01","average_temperature":"26.604000000000006","city":"Kadoma","latitude":"34.56N","longitude":"136.22E"}
{"date":"2013-03-01","average_temperature":"17.209","city":"Kaiyuan","latitude":"23.31N","longitude":"103.98E"}
{"date":"2010-08-01","average_temperature":"28.805","city":"Kakinada","latitude":"16.87N","longitude":"82.05E"}
{"date":"2012-02-01","average_temperature":"-5.402","city":"Kalisz","latitude":"52.24N","longitude":"18.39E"}
{"date":"2012-11-01","average_temperature":"23.487","city":"Kamarhati","latitude":"23.31N","longitude":"88.25E"}
{"date":"2012-09-01","average_temperature":"29.303","city":"Karachi","latitude":"24.92N","longitude":"67.39E"}
{"date":"2012-03-01","average_temperature":"3.608000000000001","city":"Karaman","latitude":"37.78N","longitude":"32.54E"}
{"date":"2010-10-01","average_temperature":"25.881","city":"Karang Tengah","latitude":"7.23S","longitude":"106.22E"}
{"date":"2013-08-01","average_temperature":"29.4","city":"Kassala","latitude":"15.27N","longitude":"35.83E"}
{"date":"2013-04-01","average_temperature":"13.6","city":"Kasuga","latitude":"32.95N","longitude":"131.17E"}
{"date":"2012-08-01","average_temperature":"25.958","city":"Kendari","latitude":"4.02S","longitude":"122.95E"}
{"date":"2010-12-01","average_temperature":"2.451","city":"Khomeynishahr","latitude":"32.95N","longitude":"50.74E"}
{"date":"2013-01-01","average_temperature":"-3.8649999999999993","city":"Kielce","latitude":"50.63N","longitude":"21.55E"}
{"date":"2010-04-01","average_temperature":"9.589","city":"Kiryu","latitude":"36.17N","longitude":"139.23E"}
{"date":"2012-01-01","average_temperature":"25.258000000000003","city":"Kisangani","latitude":"0.80N","longitude":"24.91E"}
{"date":"2010-04-01","average_temperature":"12.306","city":"Kishiwada","latitude":"34.56N","longitude":"136.22E"}
{"date":"2011-08-01","average_temperature":"26.351999999999997","city":"Kismayo","latitude":"0.80S","longitude":"42.59E"}
{"date":"2012-01-01","average_temperature":"22.848000000000003","city":"Kisumu","latitude":"0.80S","longitude":"34.55E"}
{"date":"2011-02-01","average_temperature":"-4.901000000000002","city":"Kitami","latitude":"44.20N","longitude":"143.11E"}
{"date":"2013-03-01","average_temperature":"-2.766","city":"Kitami","latitude":"44.20N","longitude":"143.11E"}
{"date":"2010-12-01","average_temperature":"26.528000000000002","city":"Klang","latitude":"2.41N","longitude":"102.05E"}
{"date":"2011-08-01","average_temperature":"27.101999999999997","city":"Kluang","latitude":"2.41N","longitude":"103.66E"}
{"date":"2011-02-01","average_temperature":"3.556","city":"Koblenz","latitude":"50.63N","longitude":"6.34E"}
{"date":"2013-05-01","average_temperature":"11.463","city":"Koblenz","latitude":"50.63N","longitude":"6.34E"}
{"date":"2011-10-01","average_temperature":"7.691","city":"Kolpino","latitude":"60.27N","longitude":"29.19E"}
{"date":"2011-08-01","average_temperature":"27.376","city":"Komaki","latitude":"34.56N","longitude":"136.22E"}
{"date":"2010-03-01","average_temperature":"7.687","city":"Korla","latitude":"40.99N","longitude":"85.21E"}
{"date":"2010-04-01","average_temperature":"6.684","city":"Kostroma","latitude":"57.05N","longitude":"39.84E"}
{"date":"2012-05-01","average_temperature":"14.508","city":"Krefeld","latitude":"50.63N","longitude":"6.34E"}
{"date":"2012-11-01","average_temperature":"23.487","city":"Krishnanagar","latitude":"23.31N","longitude":"88.25E"}
{"date":"2013-01-01","average_temperature":"24.671999999999997","city":"Kroonstad","latitude":"28.13S","longitude":"26.36E"}
{"date":"2012-12-01","average_temperature":"26.01","city":"Kuala Terengganu","latitude":"5.63N","longitude":"103.32E"}
{"date":"2012-09-01","average_temperature":"28.349","city":"Kulti","latitude":"23.31N","longitude":"86.50E"}
{"date":"2011-02-01","average_temperature":"3.734","city":"Kumagaya","latitude":"36.17N","longitude":"139.23E"}
{"date":"2010-07-01","average_temperature":"21.179000000000002","city":"Kumanovo","latitude":"42.59N","longitude":"21.82E"}
{"date":"2011-03-01","average_temperature":"29.581","city":"Kumasi","latitude":"7.23N","longitude":"0.81W"}
{"date":"2013-04-01","average_temperature":"26.526","city":"Kumba","latitude":"4.02N","longitude":"8.84E"}
{"date":"2010-07-01","average_temperature":"19.945999999999998","city":"Kurgan","latitude":"55.45N","longitude":"65.20E"}
{"date":"2010-08-01","average_temperature":"23.725","city":"Kursk","latitude":"52.24N","longitude":"36.79E"}
{"date":"2011-06-01","average_temperature":"14.872","city":"Kyzyl","latitude":"52.24N","longitude":"94.60E"}
{"date":"2011-05-01","average_temperature":"18.186","city":"Lárisa","latitude":"39.38N","longitude":"22.89E"}
{"date":"2013-07-01","average_temperature":"18.090999999999998","city":"López Mateos","latitude":"20.09N","longitude":"98.96W"}
{"date":"2013-08-01","average_temperature":"24.928","city":"Lafiagi","latitude":"8.84N","longitude":"5.68E"}
{"date":"2013-02-01","average_temperature":"23.218000000000004","city":"Lages","latitude":"28.13S","longitude":"50.00W"}
{"date":"2012-10-01","average_temperature":"27.018","city":"Lahad Datu","latitude":"5.63N","longitude":"117.85E"}
{"date":"2010-11-01","average_temperature":"22.441999999999997","city":"Lalitpur","latitude":"24.92N","longitude":"78.03E"}
{"date":"2012-12-01","average_temperature":"17.055999999999997","city":"Larkana","latitude":"28.13N","longitude":"68.18E"}
{"date":"2011-05-01","average_temperature":"15.473","city":"Lausanne","latitude":"45.81N","longitude":"5.77E"}
{"date":"2010-11-01","average_temperature":"20.133000000000006","city":"Lemesos","latitude":"34.56N","longitude":"33.08E"}
{"date":"2013-08-01","average_temperature":"28.203000000000003","city":"Lemesos","latitude":"34.56N","longitude":"33.08E"}
{"date":"2012-08-01","average_temperature":"23.81","city":"Leshan","latitude":"29.74N","longitude":"103.38E"}
{"date":"2012-09-01","average_temperature":"13.822","city":"Leverkusen","latitude":"50.63N","longitude":"6.34E"}
{"date":"2011-07-01","average_temperature":"18.34","city":"Lichinga","latitude":"13.66S","longitude":"35.50E"}
{"date":"2010-09-01","average_temperature":"19.253","city":"Lincoln","latitude":"40.99N","longitude":"95.86W"}
{"date":"2011-08-01","average_temperature":"20.584","city":"Londrina","latitude":"23.31S","longitude":"51.55W"}
{"date":"2012-02-01","average_temperature":"26.495","city":"Londrina","latitude":"23.31S","longitude":"51.55W"}
{"date":"2010-09-01","average_temperature":"26.763","city":"Longyan","latitude":"24.92N","longitude":"117.04E"}
{"date":"2013-09-01","city":"Los Teques","latitude":"10.45N","longitude":"66.27W"}
{"date":"2010-06-01","average_temperature":"24.171999999999997","city":"Loudi","latitude":"28.13N","longitude":"111.82E"}
{"date":"2010-03-01","average_temperature":"4.565","city":"Lowell","latitude":"42.59N","longitude":"72.00W"}
{"date":"2012-05-01","average_temperature":"19.318","city":"Luanshya","latitude":"13.66S","longitude":"28.90E"}
{"date":"2011-01-01","average_temperature":"4.67","city":"Lubbock","latitude":"32.95N","longitude":"102.45W"}
{"date":"2012-03-01","average_temperature":"4.868","city":"Lublin","latitude":"50.63N","longitude":"21.55E"}
{"date":"2010-01-01","average_temperature":"25.092","city":"Lucena","latitude":"13.66N","longitude":"121.38E"}
{"date":"2012-03-01","average_temperature":"8.555","city":"Ludwigshafen","latitude":"49.03N","longitude":"7.35E"}
{"date":"2013-04-01","average_temperature":"26.986","city":"Lumajang","latitude":"8.84S","longitude":"112.70E"}
{"date":"2010-05-01","average_temperature":"11.328","city":"Luton","latitude":"52.24N","longitude":"0.00W"}
{"date":"2013-08-01","average_temperature":"19.168","city":"Lvov","latitude":"50.63N","longitude":"24.08E"}
{"date":"2010-05-01","average_temperature":"12.979000000000001","city":"Móstoles","latitude":"40.99N","longitude":"4.26W"}
{"date":"2011-05-01","average_temperature":"14.637","city":"Mönchengladbach","latitude":"50.63N","longitude":"6.34E"}
{"date":"2012-10-01","average_temperature":"9.644","city":"Maastricht","latitude":"50.63N","longitude":"6.34E"}
{"date":"2010-12-01","average_temperature":"20.248","city":"Machala","latitude":"4.02S","longitude":"79.55W"}
{"date":"2011-05-01","average_temperature":"16.147000000000002","city":"Machida","latitude":"36.17N","longitude":"139.23E"}
{"date":"2012-07-01","average_temperature":"27.514000000000006","city":"Madurai","latitude":"10.45N","longitude":"77.73E"}
{"date":"2010-11-01","average_temperature":"4.891","city":"Magdeburg","latitude":"52.24N","longitude":"10.51E"}
{"date":"2013-07-01","average_temperature":"19.508","city":"Magdeburg","latitude":"52.24N","longitude":"10.51E"}
{"date":"2011-02-01","average_temperature":"26.61","city":"Makasar","latitude":"5.63S","longitude":"119.46E"}
{"date":"2013-09-01","city":"Makati","latitude":"15.27N","longitude":"120.83E"}
{"date":"2013-01-01","average_temperature":"27.734","city":"Makurdi","latitude":"7.23N","longitude":"8.92E"}
{"date":"2011-07-01","average_temperature":"27.073","city":"Malambo","latitude":"10.45N","longitude":"74.45W"}
{"date":"2010-10-01","average_temperature":"26.732","city":"Manado","latitude":"0.80N","longitude":"124.55E"}
{"date":"2012-06-01","average_temperature":"12.655999999999999","city":"Manchester","latitude":"53.84N","longitude":"1.36W"}
{"date":"2011-04-01","average_temperature":"30.029","city":"Mandalay","latitude":"21.70N","longitude":"96.06E"}
{"date":"2012-04-01","average_temperature":"15.621","city":"Manisa","latitude":"39.38N","longitude":"27.05E"}
{"date":"2013-06-01","average_temperature":"24.136999999999997","city":"Manisa","latitude":"39.38N","longitude":"27.05E"}
{"date":"2012-07-01","average_temperature":"20.418","city":"Manizales","latitude":"5.63N","longitude":"75.87W"}
{"date":"2011-04-01","average_temperature":"25.926","city":"Manta","latitude":"0.80S","longitude":"81.16W"}
{"date":"2010-04-01","average_temperature":"23.378","city":"Marília","latitude":"21.70S","longitude":"49.33W"}
{"date":"2012-06-01","average_temperature":"20.639000000000006","city":"Marília","latitude":"21.70S","longitude":"49.33W"}
{"date":"2011-06-01","average_temperature":"11.63","city":"Mar Del Plata","latitude":"37.78S","longitude":"56.95W"}
{"date":"2012-08-01","average_temperature":"25.366999999999997","city":"Maroua","latitude":"10.45N","longitude":"13.91E"}
{"date":"2011-12-01","average_temperature":"0.8240000000000001","city":"Mashhad","latitude":"36.17N","longitude":"59.67E"}
{"date":"2011-08-01","average_temperature":"37.883","city":"Masjed E Soleyman","latitude":"31.35N","longitude":"49.01E"}
{"date":"2012-04-01","average_temperature":"26.375999999999998","city":"Matadi","latitude":"5.63S","longitude":"12.91E"}
{"date":"2010-01-01","average_temperature":"2.608","city":"Matsudo","latitude":"36.17N","longitude":"139.23E"}
{"date":"2012-11-01","average_temperature":"7.513","city":"Matsumoto","latitude":"36.17N","longitude":"137.24E"}
{"date":"2010-03-01","average_temperature":"29.241","city":"Mawlamyine","latitude":"16.87N","longitude":"97.12E"}
{"date":"2011-06-01","average_temperature":"26.886999999999997","city":"Mawlamyine","latitude":"16.87N","longitude":"97.12E"}
{"date":"2013-07-01","average_temperature":"29.636","city":"Maymyo","latitude":"21.70N","longitude":"96.06E"}
{"date":"2010-05-01","average_temperature":"20.645","city":"Medellín","latitude":"5.63N","longitude":"75.87W"}
{"date":"2011-03-01","average_temperature":"21.273000000000003","city":"Mendoza","latitude":"32.95S","longitude":"67.98W"}
{"date":"2013-05-01","average_temperature":"14.558","city":"Mercedes","latitude":"32.95S","longitude":"66.06W"}
{"date":"2011-07-01","average_temperature":"26.484","city":"Mergui","latitude":"12.05N","longitude":"98.63E"}
{"date":"2011-03-01","average_temperature":"22.503","city":"Metepec","latitude":"18.48N","longitude":"99.72W"}
{"date":"2011-09-01","average_temperature":"27.534000000000002","city":"Mexicali","latitude":"32.95N","longitude":"115.85W"}
{"date":"2012-04-01","average_temperature":"2.6100000000000003","city":"Mezhdurechensk","latitude":"53.84N","longitude":"88.64E"}
{"date":"2011-03-01","average_temperature":"21.497","city":"Miami","latitude":"26.52N","longitude":"80.60W"}
{"date":"2010-10-01","average_temperature":"2.861","city":"Miass","latitude":"55.45N","longitude":"59.53E"}
{"date":"2011-03-01","average_temperature":"19.733","city":"Middelburg","latitude":"26.52S","longitude":"28.66E"}
{"date":"2011-03-01","average_temperature":"8.061","city":"Mingshui","latitude":"36.17N","longitude":"117.35E"}
{"date":"2011-06-01","average_temperature":"25.875","city":"Mingshui","latitude":"36.17N","longitude":"117.35E"}
{"date":"2012-02-01","average_temperature":"0.498","city":"Mingshui","latitude":"36.17N","longitude":"117.35E"}
{"date":"2011-09-01","average_temperature":"28.038","city":"Miramar","latitude":"26.52N","longitude":"80.60W"}
{"date":"2012-05-01","average_temperature":"18.609","city":"Mishima","latitude":"34.56N","longitude":"138.16E"}
{"date":"2013-01-01","average_temperature":"6.307","city":"Mishima","latitude":"34.56N","longitude":"138.16E"}
{"date":"2010-05-01","average_temperature":"18.679000000000002","city":"Moji Das Cruzes","latitude":"23.31S","longitude":"46.31W"}
{"date":"2010-12-01","average_temperature":"24.365","city":"Mokolo","latitude":"10.45N","longitude":"13.91E"}
{"date":"2011-01-01","average_temperature":"26.006","city":"Monrovia","latitude":"7.23N","longitude":"10.54W"}
{"date":"2013-08-01","average_temperature":"21.901","city":"Montes Claros","latitude":"16.87S","longitude":"43.53W"}
{"date":"2011-06-01","average_temperature":"10.158","city":"Montevideo","latitude":"34.56S","longitude":"56.43W"}
{"date":"2010-03-01","average_temperature":"11.017000000000001","city":"Montgomery","latitude":"32.95N","longitude":"87.13W"}
{"date":"2010-01-01","average_temperature":"25.248","city":"Mormugao","latitude":"15.27N","longitude":"74.17E"}
{"date":"2013-09-01","city":"Motihari","latitude":"26.52N","longitude":"84.18E"}
{"date":"2013-05-01","average_temperature":"16.756999999999998","city":"Musashino","latitude":"36.17N","longitude":"139.23E"}
{"date":"2011-07-01","average_temperature":"29.326999999999998","city":"Muzaffarnagar","latitude":"29.74N","longitude":"77.54E"}
{"date":"2010-09-01","average_temperature":"28.633000000000003","city":"Muzaffarpur","latitude":"26.52N","longitude":"85.97E"}
{"date":"2010-08-01","average_temperature":"23.57","city":"Mwanza","latitude":"2.41S","longitude":"32.95E"}
{"date":"2012-06-01","average_temperature":"23.809","city":"Mwene Ditu","latitude":"7.23S","longitude":"23.51E"}
{"date":"2012-09-01","average_temperature":"24.476","city":"Nagaoka","latitude":"37.78N","longitude":"138.31E"}
{"date":"2013-06-01","average_temperature":"29.087000000000003","city":"Nagda","latitude":"23.31N","longitude":"76.02E"}
{"date":"2012-09-01","average_temperature":"29.92","city":"Najran","latitude":"16.87N","longitude":"43.53E"}
{"date":"2012-02-01","average_temperature":"28.208","city":"Nakhon Pathom","latitude":"13.66N","longitude":"99.91E"}
{"date":"2012-02-01","average_temperature":"-6.314","city":"Nalchik","latitude":"42.59N","longitude":"43.64E"}
{"date":"2012-12-01","average_temperature":"17.838","city":"Nantou","latitude":"23.31N","longitude":"121.46E"}
{"date":"2011-08-01","average_temperature":"25.337","city":"Nanyang","latitude":"32.95N","longitude":"112.02E"}
{"date":"2011-08-01","average_temperature":"25.201999999999998","city":"Narashino","latitude":"36.17N","longitude":"139.23E"}
{"date":"2012-10-01","average_temperature":"13.994000000000002","city":"Nashville","latitude":"36.17N","longitude":"87.51W"}
{"date":"2010-11-01","average_temperature":"27.364","city":"Natal","latitude":"5.63S","longitude":"35.52W"}
{"date":"2010-01-01","average_temperature":"21.232","city":"Navsari","latitude":"20.09N","longitude":"73.36E"}
{"date":"2012-08-01","average_temperature":"29.833000000000002","city":"New Delhi","latitude":"28.13N","longitude":"77.27E"}
{"date":"2011-04-01","average_temperature":"22.773000000000003","city":"New Orleans","latitude":"29.74N","longitude":"90.46W"}
{"date":"2011-05-01","average_temperature":"24.644000000000002","city":"New Orleans","latitude":"29.74N","longitude":"90.46W"}
{"date":"2013-08-01","average_temperature":"15.997","city":"Newcastle","latitude":"32.95S","longitude":"152.23E"}
{"date":"2011-09-01","average_temperature":"12.849","city":"Newcastle Upon Tyne","latitude":"55.45N","longitude":"2.83W"}
{"date":"2013-04-01","average_temperature":"32.321","city":"Nguru","latitude":"13.66N","longitude":"10.73E"}
{"date":"2011-12-01","average_temperature":"13.267000000000001","city":"Nicolás Romero","latitude":"20.09N","longitude":"98.96W"}
{"date":"2012-02-01","average_temperature":"20.956999999999997","city":"Nigel","latitude":"26.52S","longitude":"28.66E"}
{"date":"2010-11-01","average_temperature":"9.515","city":"Niiza","latitude":"36.17N","longitude":"139.23E"}
{"date":"2010-07-01","average_temperature":"19.775","city":"Nijmegen","latitude":"52.24N","longitude":"5.26E"}
{"date":"2010-11-01","average_temperature":"5.385","city":"Nijmegen","latitude":"52.24N","longitude":"5.26E"}
{"date":"2011-09-01","average_temperature":"23.851000000000006","city":"Nishinomiya","latitude":"34.56N","longitude":"136.22E"}
{"date":"2012-12-01","average_temperature":"5.229","city":"Nishinomiya","latitude":"34.56N","longitude":"136.22E"}
{"date":"2011-07-01","average_temperature":"27.094","city":"Norfolk","latitude":"36.17N","longitude":"75.58W"}
{"date":"2012-11-01","average_temperature":"13.007","city":"Norman","latitude":"34.56N","longitude":"97.30W"}
{"date":"2010-01-01","average_temperature":"19.048","city":"North Shore","latitude":"36.17S","longitude":"175.03E"}
{"date":"2010-08-01","average_temperature":"22.013","city":"Novi Sad","latitude":"45.81N","longitude":"19.62E"}
{"date":"2010-07-01","average_temperature":"26.238000000000003","city":"Nueva San Salvador","latitude":"13.66N","longitude":"90.00W"}
{"date":"2012-07-01","average_temperature":"30.397","city":"Nuevo Laredo","latitude":"28.13N","longitude":"99.09W"}
{"date":"2010-12-01","average_temperature":"16.375999999999998","city":"Oaxaca","latitude":"16.87N","longitude":"97.12W"}
{"date":"2010-05-01","average_temperature":"10.625","city":"Oberhausen","latitude":"50.63N","longitude":"6.34E"}
{"date":"2012-10-01","average_temperature":"9.644","city":"Oberhausen","latitude":"50.63N","longitude":"6.34E"}
{"date":"2010-03-01","average_temperature":"-0.8320000000000001","city":"Obihiro","latitude":"42.59N","longitude":"144.00E"}
{"date":"2010-03-01","average_temperature":"-2.0369999999999995","city":"Obninsk","latitude":"55.45N","longitude":"36.85E"}
{"date":"2010-05-01","average_temperature":"28.42","city":"Obosi","latitude":"5.63N","longitude":"6.46E"}
{"date":"2010-07-01","average_temperature":"25.809","city":"Offa","latitude":"8.84N","longitude":"4.05E"}
{"date":"2011-09-01","average_temperature":"23.851000000000006","city":"Okazaki","latitude":"34.56N","longitude":"136.22E"}
{"date":"2011-11-01","average_temperature":"7.196999999999999","city":"Olathe","latitude":"39.38N","longitude":"95.72W"}
{"date":"2011-07-01","average_temperature":"18.031","city":"Olomouc","latitude":"49.03N","longitude":"17.14E"}
{"date":"2010-11-01","average_temperature":"4.01","city":"Olsztyn","latitude":"53.84N","longitude":"20.45E"}
{"date":"2013-07-01","average_temperature":"29.717","city":"Ontario","latitude":"34.56N","longitude":"116.76W"}
{"date":"2013-08-01","average_temperature":"25.947","city":"Opobo","latitude":"4.02N","longitude":"7.23E"}
{"date":"2013-08-01","average_temperature":"28.76","city":"Orlando","latitude":"28.13N","longitude":"80.91W"}
{"date":"2010-11-01","average_temperature":"27.287000000000006","city":"Oron","latitude":"5.63N","longitude":"8.07E"}
{"date":"2011-02-01","average_temperature":"28.828000000000003","city":"Oshogbo","latitude":"7.23N","longitude":"4.05E"}
{"date":"2012-12-01","average_temperature":"5.396000000000001","city":"Osmaniye","latitude":"37.78N","longitude":"36.61E"}
{"date":"2011-04-01","average_temperature":"14.002","city":"Oviedo","latitude":"42.59N","longitude":"6.55W"}
{"date":"2011-12-01","average_temperature":"4.543","city":"Padova","latitude":"45.81N","longitude":"12.69E"}
{"date":"2012-09-01","average_temperature":"18.489","city":"Padova","latitude":"45.81N","longitude":"12.69E"}
{"date":"2010-11-01","average_temperature":"20.864","city":"Palhoça","latitude":"28.13S","longitude":"48.18W"}
{"date":"2010-11-01","average_temperature":"15.015","city":"Palma","latitude":"39.38N","longitude":"2.08E"}
{"date":"2010-01-01","average_temperature":"26.372","city":"Palmas","latitude":"10.45S","longitude":"48.27W"}
{"date":"2012-07-01","average_temperature":"26.99","city":"Palo Negro","latitude":"10.45N","longitude":"67.91W"}
{"date":"2011-03-01","average_temperature":"27.078000000000003","city":"Pamanukan","latitude":"5.63S","longitude":"108.16E"}
{"date":"2011-02-01","average_temperature":"27.034000000000002","city":"Pamulang","latitude":"5.63S","longitude":"106.55E"}
{"date":"2011-12-01","average_temperature":"27.246","city":"Pamulang","latitude":"5.63S","longitude":"106.55E"}
{"date":"2010-08-01","average_temperature":"26.996","city":"Panamá","latitude":"8.84N","longitude":"80.27W"}
{"date":"2010-04-01","average_temperature":"17.384","city":"Panzhihua","latitude":"26.52N","longitude":"102.09E"}
{"date":"2010-11-01","average_temperature":"10.458","city":"Paradise","latitude":"36.17N","longitude":"115.36W"}
{"date":"2013-08-01","average_temperature":"24.119","city":"Parakou","latitude":"8.84N","longitude":"2.43E"}
{"date":"2012-05-01","average_temperature":"17.866","city":"Parana","latitude":"31.35S","longitude":"60.31W"}
{"date":"2012-06-01","average_temperature":"15.717","city":"Paris","latitude":"49.03N","longitude":"2.45E"}
{"date":"2011-09-01","average_temperature":"28.203000000000007","city":"Parnaíba","latitude":"2.41S","longitude":"40.98W"}
{"date":"2012-11-01","average_temperature":"13.902999999999999","city":"Pasadena","latitude":"34.56N","longitude":"118.70W"}
{"date":"2012-02-01","average_temperature":"27.287","city":"Pasarkemis","latitude":"5.63S","longitude":"106.55E"}
{"date":"2013-08-01","average_temperature":"26.869","city":"Pasarkemis","latitude":"5.63S","longitude":"106.55E"}
{"date":"2013-04-01","average_temperature":"25.724","city":"Payakumbuh","latitude":"0.80S","longitude":"100.45E"}
{"date":"2011-06-01","average_temperature":"26.433000000000003","city":"Pekalongan","latitude":"7.23S","longitude":"109.46E"}
{"date":"2012-09-01","average_temperature":"24.683000000000003","city":"Peristérion","latitude":"37.78N","longitude":"24.41E"}
{"date":"2010-01-01","average_temperature":"23.199","city":"Perth","latitude":"31.35S","longitude":"114.97E"}
{"date":"2011-01-01","average_temperature":"7.3050000000000015","city":"Peshawar","latitude":"34.56N","longitude":"72.00E"}
{"date":"2012-06-01","average_temperature":"26.307","city":"Petrolina","latitude":"8.84S","longitude":"39.73W"}
{"date":"2011-02-01","average_temperature":"-17.265","city":"Petropavl","latitude":"55.45N","longitude":"68.03E"}
{"date":"2010-10-01","average_temperature":"23.349","city":"Phalaborwa","latitude":"23.31S","longitude":"30.58E"}
{"date":"2010-09-01","average_temperature":"28.428","city":"Phan Thiet","latitude":"10.45N","longitude":"107.18E"}
{"date":"2013-01-01","average_temperature":"25.078000000000003","city":"Pindiga","latitude":"10.45N","longitude":"10.64E"}
{"date":"2013-02-01","average_temperature":"3.204","city":"Pingdingshan","latitude":"34.56N","longitude":"112.86E"}
{"date":"2012-12-01","average_temperature":"25.491","city":"Piracicaba","latitude":"23.31S","longitude":"48.06W"}
{"date":"2012-11-01","average_temperature":"4.393","city":"Poltava","latitude":"49.03N","longitude":"34.29E"}
{"date":"2010-06-01","average_temperature":"31.827","city":"Pondicherry","latitude":"12.05N","longitude":"80.55E"}
{"date":"2011-10-01","average_temperature":"27.63","city":"Port Blair","latitude":"12.05N","longitude":"92.05E"}
{"date":"2012-09-01","average_temperature":"27.824","city":"Port Blair","latitude":"12.05N","longitude":"92.05E"}
{"date":"2013-03-01","average_temperature":"18.762999999999998","city":"Port Elizabeth","latitude":"34.56S","longitude":"25.30E"}
{"date":"2013-07-01","average_temperature":"21.468000000000004","city":"Port Louis","latitude":"20.09S","longitude":"58.01E"}
{"date":"2011-10-01","average_temperature":"24.298000000000002","city":"Port Saint Lucie","latitude":"26.52N","longitude":"80.60W"}
{"date":"2013-06-01","average_temperature":"27.893","city":"Port Saint Lucie","latitude":"26.52N","longitude":"80.60W"}
{"date":"2011-11-01","average_temperature":"26.814","city":"Pringsewu","latitude":"5.63S","longitude":"104.93E"}
{"date":"2012-11-01","average_temperature":"26.82","city":"Pringsewu","latitude":"5.63S","longitude":"104.93E"}
{"date":"2013-07-01","average_temperature":"23.629","city":"Providence","latitude":"42.59N","longitude":"72.00W"}
{"date":"2011-02-01","average_temperature":"26.769000000000002","city":"Pudukkottai","latitude":"10.45N","longitude":"79.36E"}
{"date":"2012-09-01","average_temperature":"26.09","city":"Purwakarta","latitude":"7.23S","longitude":"107.84E"}
{"date":"2011-12-01","average_temperature":"3.2510000000000003","city":"Qom","latitude":"34.56N","longitude":"50.59E"}
{"date":"2013-01-01","average_temperature":"22.186999999999998","city":"Quevedo","latitude":"0.80S","longitude":"79.55W"}
{"date":"2012-08-01","average_temperature":"11.956","city":"Quilpue","latitude":"32.95S","longitude":"71.81W"}
{"date":"2011-05-01","average_temperature":"33.403","city":"Rabak","latitude":"13.66N","longitude":"32.20E"}
{"date":"2010-01-01","average_temperature":"13.147","city":"Rae Bareli","latitude":"26.52N","longitude":"80.60E"}
{"date":"2010-06-01","average_temperature":"29.624000000000002","city":"Raichur","latitude":"16.87N","longitude":"77.02E"}
{"date":"2010-03-01","average_temperature":"28.314","city":"Rajkot","latitude":"21.70N","longitude":"70.10E"}
{"date":"2011-05-01","average_temperature":"20.153","city":"Raleigh","latitude":"36.17N","longitude":"79.56W"}
{"date":"2012-01-01","average_temperature":"-2.949","city":"Ramnicu Valcea","latitude":"45.81N","longitude":"24.23E"}
{"date":"2013-03-01","average_temperature":"-11.128","city":"Regina","latitude":"50.63N","longitude":"105.21W"}
{"date":"2010-11-01","average_temperature":"6.291","city":"Reims","latitude":"49.03N","longitude":"4.90E"}
{"date":"2012-05-01","average_temperature":"28.129","city":"Rengasdengklok","latitude":"5.63S","longitude":"106.55E"}
{"date":"2013-04-01","average_temperature":"27.642","city":"Rengasdengklok","latitude":"5.63S","longitude":"106.55E"}
{"date":"2012-03-01","average_temperature":"25.121","city":"Resistencia","latitude":"28.13S","longitude":"59.09W"}
{"date":"2012-08-01","average_temperature":"20.054000000000002","city":"Reutlingen","latitude":"49.03N","longitude":"9.80E"}
{"date":"2013-08-01","average_temperature":"29.9","city":"Rewari","latitude":"28.13N","longitude":"77.27E"}
{"date":"2012-07-01","average_temperature":"11.399000000000001","city":"Reykjavík","latitude":"65.09N","longitude":"21.06W"}
{"date":"2012-01-01","average_temperature":"4.87","city":"Richmond","latitude":"37.78N","longitude":"77.29W"}
{"date":"2010-10-01","average_temperature":"8.699","city":"Rijeka","latitude":"45.81N","longitude":"15.00E"}
{"date":"2011-12-01","average_temperature":"9.63","city":"Rimini","latitude":"44.20N","longitude":"13.42E"}
{"date":"2013-08-01","average_temperature":"20.787","city":"Rio Claro","latitude":"21.70S","longitude":"47.60W"}
{"date":"2012-02-01","average_temperature":"21.239","city":"Riobamba","latitude":"2.41S","longitude":"77.95W"}
{"date":"2011-01-01","average_temperature":"-2.491","city":"Rivne","latitude":"50.63N","longitude":"26.62E"}
{"date":"2011-09-01","average_temperature":"33.622","city":"Riyadh","latitude":"24.92N","longitude":"46.11E"}
{"date":"2011-01-01","average_temperature":"-6.207999999999999","city":"Rochester","latitude":"42.59N","longitude":"78.55W"}
{"date":"2012-03-01","average_temperature":"10.111","city":"Rongcheng","latitude":"29.74N","longitude":"112.62E"}
{"date":"2012-01-01","average_temperature":"4.225","city":"Rotherham","latitude":"53.84N","longitude":"1.36W"}
{"date":"2011-04-01","average_temperature":"13.01","city":"Rouen","latitude":"49.03N","longitude":"0.00W"}
{"date":"2011-11-01","average_temperature":"17.369","city":"Ruian","latitude":"28.13N","longitude":"120.91E"}
{"date":"2010-02-01","average_temperature":"24.83","city":"São Bernardo Do Campo","latitude":"23.31S","longitude":"46.31W"}
{"date":"2010-07-01","average_temperature":"18.354","city":"São Caetano Do Sul","latitude":"23.31S","longitude":"46.31W"}
{"date":"2011-03-01","average_temperature":"21.92","city":"São Caetano Do Sul","latitude":"23.31S","longitude":"46.31W"}
{"date":"2013-07-01","average_temperature":"12.808","city":"São Leopoldo","latitude":"29.74S","longitude":"51.69W"}
{"date":"2010-11-01","average_temperature":"28.137","city":"São Luís","latitude":"2.41S","longitude":"44.20W"}
{"date":"2010-08-01","average_temperature":"17.852999999999998","city":"São Vicente","latitude":"23.31S","longitude":"46.31W"}
{"date":"2012-05-01","average_temperature":"23.526","city":"Sabzevar","latitude":"36.17N","longitude":"57.68E"}
{"date":"2010-03-01","average_temperature":"6.103","city":"Sagamihara","latitude":"36.17N","longitude":"139.23E"}
{"date":"2012-05-01","average_temperature":"32.139","city":"Saharanpur","latitude":"29.74N","longitude":"77.54E"}
{"date":"2011-08-01","average_temperature":"22.011000000000006","city":"Saint Denis","latitude":"21.70S","longitude":"56.25E"}
{"date":"2010-01-01","average_temperature":"3.669","city":"Saint Helens","latitude":"53.84N","longitude":"4.09W"}
{"date":"2012-09-01","average_temperature":"29.677","city":"Saint Louis","latitude":"16.87N","longitude":"16.74W"}
{"date":"2010-08-01","average_temperature":"28.689","city":"Saint Petersburg","latitude":"28.13N","longitude":"82.73W"}
{"date":"2010-10-01","average_temperature":"16.937","city":"Salamanca","latitude":"20.09N","longitude":"100.66W"}
{"date":"2010-11-01","average_temperature":"27.369000000000003","city":"Salatiga","latitude":"7.23S","longitude":"111.08E"}
{"date":"2013-08-01","average_temperature":"18.863","city":"Salihorsk","latitude":"52.24N","longitude":"26.28E"}
{"date":"2010-12-01","average_temperature":"8.696","city":"Samsun","latitude":"40.99N","longitude":"36.21E"}
{"date":"2012-07-01","average_temperature":"29.164","city":"San Antonio","latitude":"29.74N","longitude":"97.85W"}
{"date":"2012-04-01","average_temperature":"16.570999999999998","city":"San Bernardino","latitude":"34.56N","longitude":"116.76W"}
{"date":"2010-02-01","average_temperature":"12.219000000000001","city":"San Bernardo","latitude":"32.95S","longitude":"69.89W"}
{"date":"2010-05-01","average_temperature":"26.534","city":"San José","latitude":"10.45N","longitude":"84.27W"}
{"date":"2013-08-01","average_temperature":"25.064","city":"San José","latitude":"10.45N","longitude":"84.27W"}
{"date":"2010-01-01","average_temperature":"24.831999999999997","city":"San Juan","latitude":"18.48N","longitude":"65.92W"}
{"date":"2011-01-01","average_temperature":"14.251","city":"San Juan Del Río","latitude":"20.09N","longitude":"100.66W"}
{"date":"2010-03-01","average_temperature":"23.521","city":"San Martin","latitude":"32.95S","longitude":"67.98W"}
{"date":"2011-09-01","average_temperature":"16.192999999999998","city":"San Nicolas","latitude":"32.95S","longitude":"60.32W"}
{"date":"2012-09-01","average_temperature":"25.531","city":"San Pédro","latitude":"5.63N","longitude":"6.46W"}
{"date":"2010-09-01","average_temperature":"27.701","city":"San Pablo","latitude":"13.66N","longitude":"121.38E"}
{"date":"2013-01-01","average_temperature":"13.077","city":"San Pablo De Las Salinas","latitude":"20.09N","longitude":"98.96W"}
{"date":"2011-12-01","average_temperature":"25.248","city":"San Pedro De Macorís","latitude":"18.48N","longitude":"69.30W"}
{"date":"2012-09-01","average_temperature":"22.851999999999997","city":"Santa Ana","latitude":"32.95N","longitude":"117.77W"}
{"date":"2012-10-01","average_temperature":"19.892","city":"Santa Ana","latitude":"32.95N","longitude":"117.77W"}
{"date":"2013-05-01","average_temperature":"15.562000000000001","city":"Santa Cruz Do Sul","latitude":"29.74S","longitude":"51.69W"}
{"date":"2012-03-01","average_temperature":"23.121","city":"Santa Fe","latitude":"31.35S","longitude":"60.31W"}
{"date":"2011-06-01","average_temperature":"16.441","city":"Santander","latitude":"44.20N","longitude":"4.47W"}
{"date":"2012-08-01","average_temperature":"20.232","city":"Santander","latitude":"44.20N","longitude":"4.47W"}
{"date":"2012-12-01","average_temperature":"24.89","city":"Santiago","latitude":"16.87N","longitude":"122.23E"}
{"date":"2010-05-01","average_temperature":"18.679000000000002","city":"Santos","latitude":"23.31S","longitude":"46.31W"}
{"date":"2012-02-01","average_temperature":"-8.668","city":"Saskatoon","latitude":"52.24N","longitude":"107.74W"}
{"date":"2011-05-01","average_temperature":"30.395","city":"Satkhira","latitude":"23.31N","longitude":"88.25E"}
{"date":"2012-05-01","average_temperature":"32.232","city":"Satkhira","latitude":"23.31N","longitude":"88.25E"}
{"date":"2012-10-01","average_temperature":"21.815","city":"Savannah","latitude":"31.35N","longitude":"81.05W"}
{"date":"2010-08-01","average_temperature":"32.541","city":"Scottsdale","latitude":"32.95N","longitude":"112.02W"}
{"date":"2011-10-01","average_temperature":"28.756","city":"Serekunda","latitude":"13.66N","longitude":"17.34W"}
{"date":"2011-11-01","average_temperature":"26.897","city":"Seremban","latitude":"2.41N","longitude":"102.05E"}
{"date":"2010-06-01","average_temperature":"26.995","city":"Shaki","latitude":"8.84N","longitude":"4.05E"}
{"date":"2012-03-01","average_temperature":"30.630000000000006","city":"Shaki","latitude":"8.84N","longitude":"4.05E"}
{"date":"2011-03-01","average_temperature":"9.176","city":"Shanghai","latitude":"31.35N","longitude":"120.63E"}
{"date":"2010-09-01","average_temperature":"25.866999999999997","city":"Shaoguan","latitude":"24.92N","longitude":"113.50E"}
{"date":"2012-10-01","average_temperature":"19.837","city":"Shaowu","latitude":"28.13N","longitude":"117.27E"}
{"date":"2010-03-01","average_temperature":"10.248","city":"Shaoxing","latitude":"29.74N","longitude":"120.00E"}
{"date":"2012-03-01","average_temperature":"1.5499999999999998","city":"Sherbrooke","latitude":"45.81N","longitude":"72.69W"}
{"date":"2010-09-01","average_temperature":"26.335","city":"Shiliguri","latitude":"26.52N","longitude":"87.76E"}
{"date":"2012-07-01","average_temperature":"22.366","city":"Shinyanga","latitude":"4.02S","longitude":"32.95E"}
{"date":"2011-02-01","average_temperature":"5.568","city":"Shiyan","latitude":"32.95N","longitude":"110.11E"}
{"date":"2013-07-01","average_temperature":"30.0","city":"Shrirampur","latitude":"23.31N","longitude":"88.25E"}
{"date":"2013-09-01","city":"Si Racha","latitude":"13.66N","longitude":"101.56E"}
{"date":"2010-08-01","average_temperature":"29.0","city":"Sialkot","latitude":"32.95N","longitude":"73.72E"}
{"date":"2012-02-01","average_temperature":"-8.359","city":"Siauliai","latitude":"55.45N","longitude":"22.68E"}
{"date":"2010-02-01","average_temperature":"27.148000000000003","city":"Sibu","latitude":"2.41N","longitude":"111.70E"}
{"date":"2011-04-01","average_temperature":"28.79","city":"Sikar","latitude":"28.13N","longitude":"75.45E"}
{"date":"2010-02-01","average_temperature":"-10.125","city":"Sioux Falls","latitude":"44.20N","longitude":"96.15W"}
{"date":"2013-02-01","average_temperature":"3.087","city":"Slough","latitude":"52.24N","longitude":"0.00W"}
{"date":"2010-08-01","average_temperature":"20.593000000000004","city":"Smolensk","latitude":"55.45N","longitude":"31.18E"}
{"date":"2010-01-01","average_temperature":"21.916","city":"Soacha","latitude":"4.02N","longitude":"74.73W"}
{"date":"2011-07-01","average_temperature":"17.974999999999994","city":"Sosnowiec","latitude":"50.63N","longitude":"19.01E"}
{"date":"2010-11-01","average_temperature":"26.723000000000003","city":"Soubré","latitude":"5.63N","longitude":"6.46W"}
{"date":"2010-02-01","average_temperature":"2.812","city":"Southend On Sea","latitude":"52.24N","longitude":"0.00W"}
{"date":"2010-09-01","average_temperature":"27.449","city":"Spanish Town","latitude":"18.48N","longitude":"77.75W"}
{"date":"2012-04-01","average_temperature":"12.52","city":"Split","latitude":"44.20N","longitude":"15.65E"}
{"date":"2011-01-01","average_temperature":"6.966","city":"Spring Valley","latitude":"36.17N","longitude":"115.36W"}
{"date":"2010-01-01","average_temperature":"-12.137","city":"Staryy Oskol","latitude":"50.63N","longitude":"36.76E"}
{"date":"2011-11-01","average_temperature":"5.565","city":"Stavanger","latitude":"58.66N","longitude":"6.15E"}
{"date":"2013-02-01","average_temperature":"2.7560000000000002","city":"Stockport","latitude":"53.84N","longitude":"1.36W"}
{"date":"2010-01-01","average_temperature":"-6.596","city":"Suceava","latitude":"47.42N","longitude":"27.24E"}
{"date":"2012-07-01","average_temperature":"8.25","city":"Sucre","latitude":"18.48S","longitude":"65.92W"}
{"date":"2011-01-01","average_temperature":"13.231","city":"Suez","latitude":"29.74N","longitude":"33.23E"}
{"date":"2013-03-01","average_temperature":"-9.834","city":"Suihua","latitude":"47.42N","longitude":"126.71E"}
{"date":"2012-11-01","average_temperature":"11.014000000000001","city":"Suita","latitude":"34.56N","longitude":"136.22E"}
{"date":"2013-04-01","average_temperature":"13.069","city":"Suita","latitude":"34.56N","longitude":"136.22E"}
{"date":"2013-07-01","average_temperature":"30.155","city":"Sultanpur","latitude":"26.52N","longitude":"82.39E"}
{"date":"2012-09-01","average_temperature":"26.22","city":"Sur","latitude":"32.95N","longitude":"35.43E"}
{"date":"2012-07-01","average_temperature":"28.98","city":"Surat","latitude":"21.70N","longitude":"73.56E"}
{"date":"2012-10-01","average_temperature":"27.145","city":"Surat Thani","latitude":"8.84N","longitude":"99.73E"}
{"date":"2012-10-01","average_temperature":"-0.7789999999999999","city":"Surgut","latitude":"61.88N","longitude":"73.02E"}
{"date":"2011-04-01","average_temperature":"11.614","city":"Sutton Coldfield","latitude":"52.24N","longitude":"2.63W"}
{"date":"2012-02-01","average_temperature":"24.468","city":"Suzano","latitude":"23.31S","longitude":"46.31W"}
{"date":"2013-02-01","average_temperature":"4.9110000000000005","city":"Suzuka","latitude":"34.56N","longitude":"136.22E"}
{"date":"2013-01-01","average_temperature":"3.7110000000000003","city":"Swindon","latitude":"52.24N","longitude":"2.63W"}
{"date":"2011-11-01","average_temperature":"4.952","city":"Türkmenabat","latitude":"39.38N","longitude":"64.51E"}
{"date":"2012-03-01","average_temperature":"8.984","city":"Türkmenabat","latitude":"39.38N","longitude":"64.51E"}
{"date":"2010-11-01","average_temperature":"9.067","city":"Taganrog","latitude":"47.42N","longitude":"39.08E"}
{"date":"2012-06-01","average_temperature":"19.828","city":"Tajimi","latitude":"36.17N","longitude":"137.24E"}
{"date":"2011-11-01","average_temperature":"13.571","city":"Takarazuka","latitude":"34.56N","longitude":"136.22E"}
{"date":"2012-07-01","average_temperature":"24.866","city":"Takoradi","latitude":"5.63N","longitude":"1.61W"}
{"date":"2013-01-01","average_temperature":"26.596","city":"Talisay","latitude":"10.45N","longitude":"123.55E"}
{"date":"2011-05-01","average_temperature":"22.556","city":"Talkha","latitude":"31.35N","longitude":"32.04E"}
{"date":"2010-10-01","average_temperature":"4.239999999999998","city":"Tallinn","latitude":"58.66N","longitude":"24.62E"}
{"date":"2012-12-01","average_temperature":"2.9609999999999994","city":"Tama","latitude":"36.17N","longitude":"139.23E"}
{"date":"2012-02-01","average_temperature":"27.11","city":"Taman","latitude":"7.23S","longitude":"112.70E"}
{"date":"2012-02-01","average_temperature":"27.287","city":"Tambun","latitude":"5.63S","longitude":"106.55E"}
{"date":"2010-09-01","average_temperature":"11.677","city":"Tandil","latitude":"37.78S","longitude":"58.98W"}
{"date":"2012-12-01","average_temperature":"27.011","city":"Tangerang","latitude":"5.63S","longitude":"106.55E"}
{"date":"2011-12-01","average_temperature":"1.5200000000000002","city":"Tarnow","latitude":"50.63N","longitude":"21.55E"}
{"date":"2010-06-01","average_temperature":"22.05","city":"Tashkent","latitude":"40.99N","longitude":"70.30E"}
{"date":"2012-06-01","average_temperature":"10.625","city":"Tauranga","latitude":"37.78S","longitude":"176.95E"}
{"date":"2012-12-01","average_temperature":"6.143","city":"Tekirdag","latitude":"40.99N","longitude":"27.69E"}
{"date":"2010-08-01","average_temperature":"25.674","city":"Tema","latitude":"5.63N","longitude":"0.00W"}
{"date":"2013-04-01","average_temperature":"15.075","city":"Tembisa","latitude":"26.52S","longitude":"28.66E"}
{"date":"2010-03-01","average_temperature":"-7.544","city":"Temirtau","latitude":"50.63N","longitude":"72.25E"}
{"date":"2010-04-01","average_temperature":"18.885","city":"Tempe","latitude":"32.95N","longitude":"112.02W"}
{"date":"2011-02-01","average_temperature":"26.504","city":"Ternate","latitude":"0.80N","longitude":"127.77E"}
{"date":"2012-02-01","average_temperature":"27.476","city":"Teshie","latitude":"5.63N","longitude":"0.00W"}
{"date":"2011-05-01","average_temperature":"25.203000000000007","city":"Thái Nguyên","latitude":"21.70N","longitude":"106.44E"}
{"date":"2013-02-01","average_temperature":"20.083","city":"Thanh Hóa","latitude":"20.09N","longitude":"105.78E"}
{"date":"2013-01-01","average_temperature":"26.322","city":"Thanjavur","latitude":"10.45N","longitude":"79.36E"}
{"date":"2010-06-01","average_temperature":"23.084","city":"Tieling","latitude":"42.59N","longitude":"124.36E"}
{"date":"2010-04-01","average_temperature":"14.947","city":"Tirana","latitude":"40.99N","longitude":"19.17E"}
{"date":"2012-02-01","average_temperature":"-15.994000000000002","city":"Tolyatti","latitude":"53.84N","longitude":"50.45E"}
{"date":"2011-09-01","average_temperature":"15.841","city":"Tongliao","latitude":"44.20N","longitude":"122.98E"}
{"date":"2013-05-01","average_temperature":"21.833000000000002","city":"Tongling","latitude":"31.35N","longitude":"118.74E"}
{"date":"2013-06-01","average_temperature":"32.896","city":"Tonk","latitude":"26.52N","longitude":"75.22E"}
{"date":"2011-11-01","average_temperature":"11.642999999999999","city":"Torrance","latitude":"34.56N","longitude":"118.70W"}
{"date":"2010-04-01","average_temperature":"9.297999999999998","city":"Torun","latitude":"52.24N","longitude":"18.39E"}
{"date":"2012-08-01","average_temperature":"19.611","city":"Torun","latitude":"52.24N","longitude":"18.39E"}
{"date":"2011-06-01","average_temperature":"20.856","city":"Townsville","latitude":"18.48S","longitude":"147.04E"}
{"date":"2011-08-01","average_temperature":"7.313","city":"Trelew","latitude":"42.59S","longitude":"65.45W"}
{"date":"2011-02-01","average_temperature":"3.1210000000000004","city":"Trier","latitude":"49.03N","longitude":"7.35E"}
{"date":"2011-11-01","average_temperature":"5.552999999999999","city":"Trondheim","latitude":"63.49N","longitude":"9.00E"}
{"date":"2011-02-01","average_temperature":"24.871","city":"Tshikapa","latitude":"5.63S","longitude":"20.99E"}
{"date":"2012-03-01","average_temperature":"5.617000000000001","city":"Tsuchiura","latitude":"36.17N","longitude":"139.23E"}
{"date":"2010-08-01","average_temperature":"27.295","city":"Tsukuba","latitude":"36.17N","longitude":"139.23E"}
{"date":"2012-02-01","average_temperature":"22.051","city":"Tungi","latitude":"23.31N","longitude":"90.00E"}
{"date":"2010-01-01","average_temperature":"-3.659","city":"Turin","latitude":"45.81N","longitude":"8.08E"}
{"date":"2010-01-01","average_temperature":"23.945","city":"Uberaba","latitude":"20.09S","longitude":"47.77W"}
{"date":"2011-09-01","average_temperature":"27.226","city":"Udgir","latitude":"18.48N","longitude":"77.75E"}
{"date":"2011-08-01","average_temperature":"10.437000000000001","city":"Ukhta","latitude":"63.49N","longitude":"52.20E"}
{"date":"2010-02-01","average_temperature":"6.475","city":"Usak","latitude":"39.38N","longitude":"29.13E"}
{"date":"2013-05-01","average_temperature":"27.219","city":"Uyo","latitude":"5.63N","longitude":"8.07E"}
{"date":"2010-10-01","average_temperature":"5.639000000000001","city":"Uzhhorod","latitude":"49.03N","longitude":"22.04E"}
{"date":"2013-08-01","average_temperature":"18.215","city":"Várzea Paulista","latitude":"23.31S","longitude":"46.31W"}
{"date":"2010-08-01","average_temperature":"27.206","city":"Valencia","latitude":"10.45N","longitude":"67.91W"}
{"date":"2011-12-01","average_temperature":"9.118","city":"Vallejo","latitude":"37.78N","longitude":"122.03W"}
{"date":"2011-05-01","average_temperature":"8.908000000000003","city":"Vancouver","latitude":"49.03N","longitude":"122.45W"}
{"date":"2013-08-01","average_temperature":"12.214","city":"Vanderbijlpark","latitude":"26.52S","longitude":"28.66E"}
{"date":"2012-06-01","average_temperature":"19.61","city":"Varginha","latitude":"21.70S","longitude":"45.87W"}
{"date":"2013-09-01","city":"Velikiy Novgorod","latitude":"58.66N","longitude":"30.77E"}
{"date":"2012-06-01","average_temperature":"31.068","city":"Veraval","latitude":"21.70N","longitude":"70.10E"}
{"date":"2010-10-01","average_temperature":"18.688","city":"Vereeniging","latitude":"26.52S","longitude":"28.66E"}
{"date":"2012-09-01","average_temperature":"18.489","city":"Vicenza","latitude":"45.81N","longitude":"12.69E"}
{"date":"2010-01-01","average_temperature":"4.004","city":"Victoria","latitude":"49.03N","longitude":"122.45W"}
{"date":"2012-01-01","average_temperature":"-0.10799999999999964","city":"Vienna","latitude":"49.03N","longitude":"17.14E"}
{"date":"2013-01-01","average_temperature":"18.072","city":"Villa Canales","latitude":"15.27N","longitude":"90.83W"}
{"date":"2011-01-01","average_temperature":"0.764","city":"Villeurbanne","latitude":"45.81N","longitude":"5.77E"}
{"date":"2013-01-01","average_temperature":"0.516","city":"Villeurbanne","latitude":"45.81N","longitude":"5.77E"}
{"date":"2011-04-01","average_temperature":"9.022","city":"Vinnitsa","latitude":"49.03N","longitude":"29.39E"}
{"date":"2010-01-01","average_temperature":"22.764000000000006","city":"Virginia","latitude":"28.13S","longitude":"26.36E"}
{"date":"2010-11-01","average_temperature":"7.407","city":"Vitoria","latitude":"42.59N","longitude":"2.18W"}
{"date":"2012-06-01","average_temperature":"18.423","city":"Volta Redonda","latitude":"21.70S","longitude":"44.13W"}
{"date":"2013-04-01","average_temperature":"10.741","city":"Volzhskiy","latitude":"49.03N","longitude":"44.08E"}
{"date":"2012-08-01","average_temperature":"14.347","city":"Vryheid","latitude":"28.13S","longitude":"30.00E"}
{"date":"2010-12-01","average_temperature":"26.649","city":"Vung Tau","latitude":"10.45N","longitude":"107.18E"}
{"date":"2012-07-01","average_temperature":"12.781","city":"Waitakere","latitude":"36.17S","longitude":"175.03E"}
{"date":"2012-05-01","average_temperature":"14.367","city":"Walbrzych","latitude":"50.63N","longitude":"16.48E"}
{"date":"2010-07-01","average_temperature":"25.997","city":"Wanxian","latitude":"31.35N","longitude":"109.32E"}
{"date":"2010-02-01","average_temperature":"-2.3409999999999997","city":"Warsaw","latitude":"52.24N","longitude":"21.02E"}
{"date":"2010-04-01","average_temperature":"27.451999999999998","city":"Waru","latitude":"7.23S","longitude":"112.70E"}
{"date":"2013-08-01","average_temperature":"28.006","city":"Weifang","latitude":"36.17N","longitude":"119.34E"}
{"date":"2010-10-01","average_temperature":"11.769","city":"Wellington","latitude":"40.99S","longitude":"174.67E"}
{"date":"2011-02-01","average_temperature":"8.206","city":"Wenzhou","latitude":"28.13N","longitude":"120.91E"}
{"date":"2010-03-01","average_temperature":"5.859","city":"West Bromwich","latitude":"52.24N","longitude":"2.63W"}
{"date":"2013-09-01","average_temperature":"19.373","city":"Westminster","latitude":"39.38N","longitude":"104.05W"}
{"date":"2012-06-01","average_temperature":"25.901","city":"Wichita","latitude":"37.78N","longitude":"97.63W"}
{"date":"2013-07-01","average_temperature":"18.685","city":"Winnipeg","latitude":"50.63N","longitude":"97.61W"}
{"date":"2012-07-01","average_temperature":"9.95","city":"Worcester","latitude":"32.95S","longitude":"20.11E"}
{"date":"2013-08-01","average_temperature":"17.881999999999994","city":"Xico","latitude":"20.09N","longitude":"98.96W"}
{"date":"2011-07-01","average_temperature":"25.816999999999997","city":"Xingtai","latitude":"37.78N","longitude":"113.90E"}
{"date":"2010-07-01","average_temperature":"16.324","city":"Xining","latitude":"36.17N","longitude":"101.44E"}
{"date":"2011-12-01","average_temperature":"1.5019999999999998","city":"Xinpu","latitude":"34.56N","longitude":"118.70E"}
{"date":"2010-05-01","average_temperature":"21.284000000000002","city":"Xinyang","latitude":"32.95N","longitude":"113.94E"}
{"date":"2011-06-01","average_temperature":"22.285999999999998","city":"Xinzhou","latitude":"37.78N","longitude":"111.86E"}
{"date":"2012-11-01","average_temperature":"-3.9539999999999997","city":"Xuanhua","latitude":"40.99N","longitude":"115.03E"}
{"date":"2011-03-01","average_temperature":"8.976","city":"Xuchang","latitude":"34.56N","longitude":"112.86E"}
{"date":"2012-09-01","average_temperature":"21.755","city":"Xuzhou","latitude":"34.56N","longitude":"116.76E"}
{"date":"2012-02-01","average_temperature":"5.533","city":"Yaan","latitude":"29.74N","longitude":"103.38E"}
{"date":"2013-05-01","average_temperature":"16.756999999999998","city":"Yachiyo","latitude":"36.17N","longitude":"139.23E"}
{"date":"2010-08-01","average_temperature":"25.436","city":"Yamoussoukro","latitude":"7.23N","longitude":"5.68W"}
{"date":"2010-04-01","average_temperature":"6.684","city":"Yaroslavl","latitude":"57.05N","longitude":"39.84E"}
{"date":"2011-01-01","average_temperature":"-1.4949999999999997","city":"Yerevan","latitude":"40.99N","longitude":"44.73E"}
{"date":"2012-11-01","average_temperature":"9.062","city":"Yichang","latitude":"31.35N","longitude":"111.20E"}
{"date":"2010-11-01","average_temperature":"8.148","city":"Yidu","latitude":"36.17N","longitude":"119.34E"}
{"date":"2013-06-01","average_temperature":"26.682","city":"Yingcheng","latitude":"31.35N","longitude":"113.09E"}
{"date":"2010-08-01","average_temperature":"23.23","city":"Yingkou","latitude":"40.99N","longitude":"123.55E"}
{"date":"2011-04-01","average_temperature":"26.254","city":"Yogyakarta","latitude":"7.23S","longitude":"111.08E"}
{"date":"2011-02-01","average_temperature":"5.292999999999999","city":"Yonago","latitude":"36.17N","longitude":"133.26E"}
{"date":"2010-05-01","average_temperature":"10.743","city":"York","latitude":"53.84N","longitude":"1.36W"}
{"date":"2010-10-01","average_temperature":"8.887","city":"Yuci","latitude":"37.78N","longitude":"111.86E"}
{"date":"2012-10-01","average_temperature":"18.364","city":"Yueyang","latitude":"29.74N","longitude":"112.62E"}
{"date":"2011-07-01","average_temperature":"17.974999999999994","city":"Zabrze","latitude":"50.63N","longitude":"19.01E"}
{"date":"2012-10-01","average_temperature":"17.368","city":"Zacatecas","latitude":"23.31N","longitude":"102.23W"}
{"date":"2012-03-01","average_temperature":"27.761000000000006","city":"Zanzibar","latitude":"5.63S","longitude":"38.74E"}
{"date":"2010-02-01","average_temperature":"7.401","city":"Zaragoza","latitude":"40.99N","longitude":"0.00W"}
{"date":"2013-08-01","average_temperature":"22.322","city":"Zhaodong","latitude":"45.81N","longitude":"125.77E"}
{"date":"2012-05-01","average_temperature":"20.245","city":"Zhicheng","latitude":"29.74N","longitude":"110.77E"}
{"date":"2011-09-01","average_temperature":"27.989","city":"Zhongshan","latitude":"21.70N","longitude":"113.37E"}
{"date":"2011-11-01","average_temperature":"10.921","city":"Zhumadian","latitude":"32.95N","longitude":"113.94E"}
{"date":"2012-09-01","average_temperature":"28.706","city":"Zinder","latitude":"13.66N","longitude":"9.08E"}
{"date":"2011-01-01","average_temperature":"-3.6060000000000003","city":"Zouxian","latitude":"36.17N","longitude":"117.35E"}
